Time [s],Longitude [rad],Latitude [rad],Altitude [m],V North [m/s],V East [m/s],V Down [m/s],Roll [rad],Pitch [rad],Yaw [rad],DVL X [m/s],DVL Y [m/s],DVL Z [m/s],ACC X [m/s^2],ACC Y [m/s^2],ACC Z [m/s^2],GYRO X [rad/s],GYRO Y [rad/s],GYRO Z [rad/s]
0.0,0.6089844335224215,0.573337071406794,-19.859909,-1.929191,-0.641182,0.006672,-0.0049567350756638,-0.0059690260418205,-2.938959909979959,2.0635318058026133,0.3092757144086316,-0.012977275639956,-0.0004949999999999,-0.0007539999999999,-0.097542,-9.799999999999996e-05,2.0000000000000435e-06,-0.000712
1.0,0.6089843305479956,0.573336758469259,-19.867016,-1.989434,-0.476583,0.004822,-0.0140673537710742,-0.0075398223686153,-3.009610925367152,2.08534356091902,0.2394733204437852,-0.0048696387143013,-0.0006749999999999,-0.0002369999999999,-0.097565,3.900000000000004e-05,2.000000000000039e-06,-0.000639
2.01,0.6089842589894964,0.5733364362814791,-19.873699,-2.037641,-0.309663,0.009325,-0.0081506876068135,-0.0090582588178504,-3.072093468242454,2.109965184065437,0.1783742546771026,0.0093540847811274,-0.0003209999999999,-0.0010529999999999,-0.098076,-5.999999999999968e-06,-3.999999999999968e-06,-0.000525
3.01,0.6089842186723905,0.573336107635981,-19.887194,-2.07378,-0.160386,0.017127,-0.010751228192285,-0.0087266462599715,-3.124034693674608,2.130226242407651,0.1172218762575101,0.0184872403957221,-0.0002579999999999,0.000161,-0.097954,-6.999999999999976e-06,1.3000000000000025e-05,-0.000392
4.01,0.6089842057569541,0.5733357737544951,-19.911047,-2.102422,-0.038982,0.025785,-0.0110130275800842,-0.0069813170079773,3.1200902844716856,2.151526221665845,0.0864162133852129,0.015351178438609,-0.0001009999999999,-0.0007409999999999,-0.098161,6.100000000000001e-05,2.1000000000000016e-05,-0.000273
5.01,0.6089842134364029,0.573335435509686,-19.93936,-2.124815,0.04721,0.025236,-0.0103323491718064,-0.0041364303272264,3.093107406969391,2.175857941450782,0.0411987038486836,0.0019925021336309,-0.0001669999999999,0.000192,-0.098177,-2.699999999999999e-05,8.00000000000001e-06,-0.000169
6.02,0.6089842350784855,0.5733350942978173,-19.961788,-2.144152,0.106313,0.0149,-0.0108035880698448,-0.002094395102393,3.0766141851643845,2.195061688541329,0.002421441228814,-0.0082835444988038,6.400000000000603e-05,3.000000000006027e-06,-0.098431,6.1000000000000005e-05,-5.999999999999996e-06,-7.4e-05
7.02,0.6089842652726816,0.5733347508170205,-19.971588,-2.162604,0.146749,0.002068,-0.0083601271170528,-0.0018500490071138,3.069458265418038,2.228732331099483,-0.0376272589842778,-0.0175928295391787,-9.3999999999994e-05,0.000134,-0.098106,-9.999999999999995e-07,-8e-06,-3.0000000000000005e-06
8.02,0.6089842989575361,0.5733344047182298,-19.971121,-2.182909,0.171055,-0.004726,-0.0114842664781226,-0.0026703537555512,3.0696153974105944,2.2499585110876352,-0.0597650259385112,-0.015623921366962,8.1000000000006e-05,0.000541,-0.097729,9.5e-05,-1.4000000000000003e-05,7.6e-05
9.02,0.6089843356094504,0.5733340551287807,-19.96789,-2.206749,0.174899,-0.004531,-0.0038920842319473,-0.0043109632524258,3.0775215294826186,2.257290750787296,-0.0697901273988304,-0.0176918915546148,-0.0002199999999999,0.000219,-0.09756,-4.800000000000001e-05,-6.000000000000008e-06,0.00013
10.03,0.6089843715632329,0.573333702048673,-19.966045,-2.227158,0.161244,-0.002442,-0.0048171087355043,-0.0058293997016609,3.090751037946273,2.2699924360689483,-0.1006949606176832,-0.0044523647609279,-0.0003609999999999,0.001249,-0.097492,8.999999999999992e-06,-9.000000000000009e-06,0.000149
11.03,0.6089844047244888,0.5733333451288409,-19.969362,-2.239458,0.138572,0.006496,-0.0086742863824118,-0.0069115038378975,3.10630204375459,2.2437959102260456,-0.2649717382442974,-0.0002240438911187,-0.0004789999999999,0.002129,-0.097777,-5.700000000000002e-05,4.99999999999999e-06,0.00017
12.03,0.6089844305553618,0.5733329868127455,-19.985052,-2.242814,0.101236,0.022089,-0.0131248759749973,-0.00609119908946,3.1234759614211667,1.9627964568717653,-0.8367674334915356,0.0980276650422288,-0.0017139999999999,-0.0037769999999999,-0.09785,7.999999999999995e-05,-3.300000000000006e-05,0.000906
13.03,0.608984446437858,0.5733326373978292,-20.015512,-2.088961,0.007983,0.040297,-0.00923279174305,-0.0001570796326795,-3.042789651900857,1.7732301953522944,-0.717713683498331,0.0047390985558318,0.001577,0.005977,-0.100055,0.0001629999999999,0.0003409999999999,0.003083
14.04,0.6089844106586082,0.5733323295217492,-20.019623,-1.775735,-0.455404,-0.037497,0.0269653369433123,0.0268257106031528,-2.7472354916483823,1.6428835506567845,-0.5849325453043268,-0.0438343204254109,0.002056,-0.0019049999999999,-0.096572,0.0009739999999999,6.499999999999983e-05,0.002627
15.04,0.6089843115239069,0.5733320764490076,-19.965492,-1.441507,-0.874935,-0.061752,0.0645771823237902,0.0100007366139276,-2.484388941204621,1.5797522102372226,-0.4917827927340908,-0.0180851160700683,0.000998,0.006311,-0.097546,-0.000963,1.099999999999986e-05,0.002289
16.04,0.6089841607274594,0.5733318924913045,-19.909838,-1.094613,-1.146108,-0.053509,0.018762289458939,0.008325220532013,-2.2565888115804165,1.5761560178704532,-0.3625260201652233,0.0115146985161963,0.002076,-0.0044119999999999,-0.099587,0.0010149999999999,5.299999999999988e-05,0.002039
17.04,0.608983923537214,0.5733317594972155,-19.86515,-0.774255,-1.34793,-0.03217,0.0937067275395755,-0.0005061454830783,-2.0549853758969463,1.614474058725348,-0.2984985674345862,0.0328039408669391,0.001076,-0.0040809999999999,-0.098309,-0.000918,7.799999999999989e-05,0.001808
18.05,0.6089836542329105,0.5733316704854237,-19.861099,-0.471191,-1.505276,0.011289,0.0135786615805158,-0.0022514747350725,-1.874361530860733,1.6945420835582674,-0.2310896351681069,0.0243115162397688,0.001314,0.001632,-0.09833,0.0003649999999999,8.999999999999991e-05,0.001656
19.05,0.6089833575269377,0.5733316235360667,-19.875912,-0.183405,-1.641513,0.009348,0.0488343124708013,0.0041538836197465,-1.7093925561766243,1.766050025657134,-0.1796787137403393,-0.00355141859727,0.001554,-0.0051849999999999,-0.098171,8.89999999999999e-05,0.0001039999999999,0.001504
20.05,0.6089830360372894,0.5733316207435399,-19.878002,0.09604,-1.732396,-0.01027,0.0494451777089993,0.0034557519189488,-1.5591029175125073,1.840435731951498,-0.1224507782037887,-0.0181476910773584,0.001518,-0.0002099999999999,-0.098754,-0.000159,1.899999999999992e-05,0.001379
21.05,0.6089827016322048,0.5733316579190529,-19.864986,0.366685,-1.774474,-0.018758,0.0277332818141899,0.002775073510671,-1.4222862083828212,1.9255114885945337,-0.0426971068880167,-0.0011251688121125,0.001326,-0.0019819999999999,-0.098476,0.0002069999999999,9.999999999999265e-07,0.0012
22.06,0.6089823612930007,0.5733317361098035,-19.85161,0.616441,-1.790502,-0.007875,0.0414341164423453,-0.0001570796326795,-1.303341984952823,2.028720694041288,0.0293283523181285,0.0117449897802914,0.000706,-0.0010249999999999,-0.097918,-6.800000000000005e-05,1.1999999999999944e-05,0.000927
23.06,0.6089820195575331,0.5733318507779354,-19.855021,0.835383,-1.807341,0.010664,0.0378736447682769,-0.0016057029118348,-1.210804593105499,2.131620399328316,0.1244628730671356,0.0184810207852261,0.000662,-0.0018679999999999,-0.098015,-1.200000000000004e-05,2.299999999999996e-05,0.00064
24.06,0.6089816746804729,0.5733319987818559,-19.873007,1.018309,-1.834246,0.019332,0.0283790536374277,-0.0007679448708775,-1.1470298782651904,2.219916767273494,0.2280873582586431,0.0089267426081594,0.001109,-0.0010249999999999,-0.098109,-0.000165,3.199999999999998e-05,0.000356
25.06,0.6089813245674248,0.5733321764563737,-19.88909,1.166824,-1.86646,0.010532,0.019076448724298,0.0014311699866353,-1.1129089182815044,2.283076275117506,0.377639016167255,-0.0087171666153572,0.000777,-0.0009889999999999,-0.098427,-3.8e-05,3.1e-05,2.6e-05
26.07,0.6089809669494611,0.5733323743767109,-19.892498,1.266672,-1.905228,-0.002418,0.0189891822616983,0.0044505895925857,-1.111548050157139,2.3248883397682905,0.5067166484042789,-0.00890985995255,0.001076,-0.0012289999999999,-0.098358,-6.399999999999997e-05,-1.599999999999998e-05,-0.000337
27.07,0.6089806014775159,0.5733325839907542,-19.884348,1.296257,-1.964116,-0.007797,0.0119555053761611,0.004310963252426,-1.1450932260205928,2.3482068616358536,0.6139045239029859,0.0011882254593338,0.001287,-0.0011889999999999,-0.098019,-6.199999999999996e-05,-2.699999999999996e-05,-0.00062
28.07,0.6089802251845291,0.573332792208534,-19.880373,1.248549,-2.045764,0.000876,0.0024958208303518,0.0026354471705114,-1.207471380753333,2.359685643124597,0.6841111783837779,0.0103189842530139,0.001238,-0.0007239999999999,-0.098468,-0.0001419999999999,-2.6999999999999948e-05,-0.000844
29.07,0.6089798359761059,0.5733329885580748,-19.885546,1.133686,-2.14182,0.006875,-0.0074176493209759,0.0005061454830783,-1.2917881321974234,2.3423620224086905,0.7395245575848521,-0.0059747541703613,0.000982,-0.0005729999999999,-0.097821,9.000000000000058e-06,1.5000000000000058e-05,-0.000951
30.08,0.6089794310597194,0.5733331616947365,-19.890495,0.974678,-2.229052,-0.004163,-0.0080459678516938,0.0004886921905584,-1.3865593709543762,2.325424486181624,0.763159351632413,-0.0191963305849261,0.001058,-0.0004409999999999,-0.09884,-7.399999999999993e-05,-1.199999999999994e-05,-0.000999
31.08,0.6089790127042978,0.573333305160801,-19.880943,0.782552,-2.285249,-0.016873,-0.0145385926691127,-0.0012391837689158,-1.4862526825480464,2.292518998749001,0.7425527574148204,-0.0078305093399385,0.000295,8.100000000000602e-05,-0.098358,-7.099999999999995e-05,-4.6999999999999936e-05,-0.000975
32.08,0.6089785859712956,0.5733334133712147,-19.86989,0.56663,-2.314753,-0.003943,-0.0191288086018578,-0.0060562925044203,-1.5836418104632346,2.276482756166994,0.7011934192190966,0.0126713371101434,0.000141,-0.0008339999999999,-0.098299,0.000114,-1.6999999999999946e-05,-0.000882
33.08,0.6089781566202996,0.5733334858023786,-19.878511,0.349289,-2.337136,0.015315,-0.0088313660150913,-0.0077143552938148,-1.6716939155724442,2.2923391406480227,0.6428736359711762,0.0064982374750037,0.000262,-0.0006699999999999,-0.098447,-6.999999999999955e-06,1.6000000000000043e-05,-0.00073
34.09,0.608977721858783,0.5733335231524246,-19.898788,0.154562,-2.355519,0.01605,-0.0111875605052836,-0.0058643062867009,-1.7443870185443482,2.3075758228190506,0.5737076252607219,-0.0037556188152121,-0.0002649999999999,-0.0010179999999999,-0.098644,2.9000000000000037e-05,1.8000000000000034e-05,-0.000564
35.09,0.6089772846538053,0.5733335299592086,-19.910385,-0.008556,-2.357424,0.004209,-0.0099832833214075,-0.0040317105721068,-1.8003245941779638,2.325160751065006,0.4980743162385624,0.0135646109160341,-0.0003759999999999,-0.0006289999999999,-0.098219,2.375814790345865e-20,-2.9999999999999764e-06,-0.000388
36.09,0.6089768481469594,0.5733335123313832,-19.916616,-0.138979,-2.351917,0.007683,-0.0115017197706426,-0.0035604716740684,-1.839035770094395,2.349035037011535,0.4347935455263806,0.0104276203812035,-0.0004439999999999,-3.799999999999398e-05,-0.09833,5.600000000000001e-05,7.000000000000013e-06,-0.00022
37.09,0.608976410418383,0.5733334763776007,-19.929974,-0.23351,-2.36121,0.013353,-0.0112748269678833,-0.0025830872929515,-1.86087022300928,2.384408468544357,0.3716451978120605,-0.0029688701870044,-0.0003189999999999,-0.0002329999999999,-0.098335,4.7e-05,1.0000000000000004e-05,-4.9e-05
38.1,0.6089759683264835,0.5733334271593158,-19.942638,-0.289486,-2.380352,0.004457,-0.0097214839336084,-0.0014311699866353,-1.8655304964582,2.4029961844039773,0.320575170742319,-0.0224333325535303,0.000389,0.000972,-0.097755,5.599999999999999e-05,9.999999999999949e-07,8.8e-05
39.1,0.608975521347662,0.5733333709597138,-19.942451,-0.305034,-2.399598,-0.006532,-0.0078714349264944,-0.0019896753472734,-1.857222502325904,2.434500539872778,0.2884498440647013,-0.0123294478871353,-1.5999999999994016e-05,0.00039,-0.097744,6.199999999999999e-05,-3.900000000000001e-05,0.000196
40.1,0.6089750705291163,0.5733333152837108,-19.93885,-0.292011,-2.421244,0.000449,-0.0038222710618675,-0.0054803338512621,-1.8376397335856025,2.457586101787383,0.2258770086321158,-0.0297647560866903,-0.0005279999999999,0.000686,-0.09748,5.999999999999984e-06,-4.000000000000016e-06,0.000269
41.1,0.6089746143000497,0.5733332639710307,-19.947092,-0.253688,-2.456861,0.012866,-0.0035604716740684,-0.0068416906678177,-1.8101681638927485,2.277788564726537,-0.4076008611869671,0.0824308645512424,-0.0019589999999999,-0.0011229999999999,-0.099085,-0.000889,-0.000143,0.0006309999999999
42.11,0.6089741596417797,0.5733332208613983,-19.9545,-0.173104,-2.352399,0.015002,-0.0633729051399141,-0.0140673537710742,-1.7306685560907475,2.0748457045476214,-0.6282090287996515,-0.0291114706581962,-0.0009639999999999,0.00851,-0.098544,0.0007729999999999,0.0003539999999999,0.002764
43.11,0.6089737377956994,0.5733332149272787,-19.955349,0.213508,-2.144446,-0.048194,0.0100705497840072,0.0244520628204405,-1.4684675505774218,1.9401477339753856,-0.5438588958374228,-0.0408841052815711,0.001139,-0.0080699999999999,-0.098116,0.0013959999999999,3.099999999999982e-05,0.002976
44.11,0.6089733627244431,0.5733332782827305,-19.891245,0.693372,-1.866998,-0.055885,0.1619316480000339,-0.0058293997016609,-1.1751651094061144,1.9884551468601568,-0.1611376767490142,0.0017343815271206,-0.0010069999999999,-0.0037169999999999,-0.097813,-0.000673,6.199999999999985e-05,0.00237
45.11,0.6089730604334167,0.5733333821298211,-19.867714,1.107072,-1.611277,0.00852,0.0806691180271779,-0.0251501945212382,-0.9471553657387456,2.1014433745298744,0.0612626892023082,0.0226990179125656,-0.0016509999999999,-0.0080769999999999,-0.098527,0.0004249999999999,0.0001519999999999,0.000782
46.12,0.6089727883365864,0.573333564342195,-19.88772,1.3882,-1.521234,0.028484,0.0990299817581582,-0.0176452787376626,-0.8589291116767719,2.202844302950403,0.1563803176686837,0.0120755847392708,-1.299999999999396e-05,-0.0024979999999999,-0.098623,-0.001262,0.000153,0.0001619999999999
47.12,0.6089725179850852,0.5733337971691171,-19.904839,1.553047,-1.522809,0.007014,-0.0056025068989017,-0.0035604716740684,-0.8391018746681438,2.178264247486809,0.2088123349738616,-0.0174700606034221,0.000468,0.002228,-0.098377,0.000126,9.9e-05,5.100000000000001e-05
48.12,0.6089722486807816,0.5733340701386122,-19.892494,1.625238,-1.499059,-0.027709,-0.0069115038378975,0.00617846555206,-0.8332897886326622,2.156096354201548,0.2446615545695554,-0.0368042488634183,0.000747,0.000953,-0.09819,5.9e-05,3.6e-05,2.700000000000001e-05
49.12,0.6089719785038133,0.5733343422354426,-19.852997,1.642354,-1.449767,-0.046812,-0.0019373154697137,0.0093898713757296,-0.8303054501446774,2.132492906854721,0.2848300057825239,-0.0336610278249064,0.000554,0.000441,-0.097924,-5.999999999999999e-06,-3.6e-05,-8.000000000000001e-06
50.13,0.6089717107703062,0.5733346082236206,-19.810329,1.647171,-1.413088,-0.036002,-0.0024958208303518,0.005846852994181,-0.8311779053311653,2.128096078070367,0.2948917666524897,-0.0121960052105064,3.0000000000059878e-06,8.700000000000599e-05,-0.097779,4.6e-05,-5.9e-05,-4.9000000000000005e-05
51.13,0.6089714535087744,0.5733348675795474,-19.785767,1.641943,-1.395446,-0.014787,-0.0018849555921538,0.0002967059728391,-0.8358208651139044,2.111454856035361,0.2954128352141706,-0.0141763664744313,-0.0002859999999999,0.001146,-0.09766,-0.000138,-2.8e-05,-4.100000000000001e-05
52.13,0.6089711983416378,0.5733351237938816,-19.779331,1.632516,-1.388224,-0.003466,-0.0148702052269916,-0.0029496064358702,-0.8400440906648331,2.079539804118665,0.2993601660232362,-0.0365291662462358,-0.0004679999999999,0.00145,-0.098126,3.3e-05,-2.7e-05,-3.9e-05
53.13,0.6089709443962316,0.5733353784374194,-19.77467,1.616538,-1.377249,-0.010887,-0.01228711793404,-0.0052708943410229,-0.8437448344508838,2.0512429407551096,0.3026290168536419,-0.0609394500428824,-0.0011179999999999,0.001021,-0.09813,3e-05,-3.3e-05,-2.4e-05
54.14,0.6089706907998913,0.5733356301138977,-19.757929,1.59816,-1.352611,-0.023695,-0.0089709923552508,-0.0088662726001311,-0.8460133086928707,2.012706080298873,0.3216693454793538,-0.06692822905045,-0.0015149999999999,0.000629,-0.097911,8e-05,-6.3e-05,-1.5e-05
55.14,0.6089704424395388,0.5733358784742503,-19.733528,1.581688,-1.318021,-0.021322,-0.0020594885173533,-0.0151494579073108,-0.8474274442660069,1.985856824975468,0.3379662538685967,-0.0453801707729341,-0.0021069999999999,0.000628,-0.09764,-6.6e-05,-7.7e-05,-2.3000000000000007e-05
56.14,0.608970201584102,0.5733361235184772,-19.721666,1.568323,-1.292691,0.0016,-0.0069115038378975,-0.0226718269834063,-0.8497832722370566,1.9787672810649808,0.334997511940934,-0.0177724184647833,-0.0026289999999999,0.000794,-0.097626,-1.0999999999999998e-05,-4.2e-05,-4e-05
57.14,0.6089699635211919,0.5733363664683091,-19.737125,1.554887,-1.286004,0.027552,-0.0093375114981696,-0.0270700566984318,-0.8536054560324619,1.9644387264791183,0.3261563136252347,-0.008521893246049,-0.0025299999999999,0.000982,-0.097853,9.000000000000002e-06,1.7000000000000003e-05,-3.9e-05
58.15,0.6089697265054796,0.5733366076728117,-19.770802,1.538438,-1.286303,0.034999,-0.0105417886820457,-0.0257436064669163,-0.8573754195766469,1.9377797847048013,0.3164455114091002,-0.0247627877963106,-0.0024169999999999,0.000731,-0.098099,2e-05,3.6e-05,-1.4999999999999995e-05
59.15,0.6089694900133659,0.5733368464338534,-19.799568,1.519847,-1.277161,0.020255,-0.008604473212332,-0.0222354946704077,-0.8591730563463237,1.90795740602607,0.3269156643235485,-0.0389531902180326,-0.0023869999999999,0.001028,-0.098154,-3e-05,1.1e-05,-1.2000000000000002e-05
60.15,0.6089692554411145,0.5733370825769011,-19.811914,1.504782,-1.249889,0.006323,-0.0090582588178505,-0.0210312174865316,-0.8602553524687774,1.8666805590354687,0.3358129553117066,-0.0387998422914946,-0.0024339999999999,0.000838,-0.098004,2.4000000000000004e-05,-1.2e-05,-3e-05
61.15,0.6089690264539166,0.5733373159274221,-19.815908,1.489738,-1.220035,0.005324,-0.0074001960284559,-0.0222180413778878,-0.8630479490851386,1.857817693039576,0.3573786122031114,-0.0193640941664279,-0.0024189999999999,0.000714,-0.097801,-2.9e-05,-2.5999999999999995e-05,-4.4e-05
62.16,0.6089688027027065,0.5733375461363505,-19.827734,1.473967,-1.201175,0.019972,-0.0062308254296197,-0.0245218759905203,-0.867201413825865,1.8406381370485247,0.3513980825013816,0.0072595394405211,-0.0024459999999999,0.000704,-0.097641,-3.9e-05,4.000000000000002e-06,-4.4e-05
63.16,0.6089685813949574,0.5733377737272849,-19.857153,1.456326,-1.195808,0.037722,-0.0089360857702109,-0.024260076602721,-0.8716526317369812,1.834967747127928,0.3441056369107453,0.0185189894029308,-0.0023529999999999,0.000176,-0.097987,5.1e-05,3.9e-05,-3.3e-05
64.16,0.608968360436274,0.5733379974784951,-19.9,1.439254,-1.196331,0.043873,-0.0054628805587422,-0.0206646983436127,-0.8750731803649165,1.8199691400287368,0.324418414760446,0.0053018163281444,-0.0018609999999999,0.00096,-0.098069,-4.9e-05,6.2e-05,-2e-05
65.16,0.6089681389539919,0.5733382207061064,-19.939085,1.424963,-1.190896,0.031035,-0.0089535390627309,-0.0145385926691126,-0.8771153028562132,1.7828309437482996,0.3420254076350199,-0.0149909549944325,-0.0012979999999999,0.000629,-0.098391,7.000000000000001e-06,5.1e-05,-6.999999999999996e-06
66.17,0.608967919566105,0.5733384418393226,-19.956648,1.41013,-1.170558,0.005465,-0.0072082098107365,-0.0093026049131297,-0.8778657769812777,1.757508074084204,0.3409934626628376,-0.0240881877907062,-0.0012259999999999,0.00065,-0.098049,3.4e-05,1.6e-05,-7.999999999999996e-06
67.17,0.6089677041924753,0.5733386610526766,-19.953852,1.391725,-1.144164,-0.007757,-0.0045204027626653,-0.0075921822461753,-0.8785992166928439,1.7134045682706027,0.4625290620463759,-0.0300826891405887,-0.0010769999999999,0.000106,-0.097835,5.3e-05,-2.1e-05,-2.2e-05
68.17,0.6089674919604382,0.5733388762517734,-19.948664,1.376092,-1.125727,5.1e-05,0.0002268928027592,-0.0092327917430499,-0.8805880542820762,1.6132172543237666,0.8029718447291788,-0.0451178486112395,-0.0019419999999999,0.000327,-0.097593,0.000694,-3.099999999999996e-05,-0.000711
69.17,0.6089672889786463,0.5733390888328763,-19.957563,1.33607,-1.073567,0.015632,0.0524296907299096,-0.0102276294166867,-0.9409246450288804,1.5599540425320424,1.0160846908855916,-0.0684646848153823,0.000902,-0.0068999999999999,-0.098268,0.000346,-9.199999999999988e-05,-0.001744
70.18,0.608967081982597,0.5733392898948061,-19.976753,1.234231,-1.174568,0.018715,0.0868999434567976,-0.0062831853071794,-1.107778069159661,1.448411333462018,1.109323768316105,-0.0292557331942712,0.001846,-0.0109449999999999,-0.097608,-0.0002689999999999,-8.099999999999987e-05,-0.002132
71.18,0.6089668659108355,0.573339476994102,-19.989799,1.03298,-1.290919,0.006455,0.0739496004069997,0.0042411500823462,-1.3177757880536458,1.325603001897216,1.099153085010869,-0.0604488009076948,0.000833,-0.0051889999999999,-0.097378,-0.0006839999999999,-3.199999999999986e-05,-0.002174
72.18,0.608966638494434,0.5733396318048065,-19.978609,0.768354,-1.361777,-0.025192,0.0094596845458092,0.0072605696882965,-1.53451075711301,1.2688608222381277,1.017569506892195,-0.0367224502635284,0.002289,-0.0061869999999999,-0.098871,0.000432,-0.0001719999999999,-0.002117
73.18,0.6089663974644643,0.5733397387934898,-19.955606,0.466404,-1.38281,-0.017007,0.0254643537865972,-0.0016929693744345,-1.7462544335775183,1.2688080232944556,0.9048983485615996,-0.020351653620927,9.200000000000598e-05,-0.0022559999999999,-0.097687,-0.0005789999999999,-2.799999999999989e-05,-0.001741
74.19,0.6089661491041117,0.5733397911533673,-19.936834,0.171219,-1.402233,-0.018121,-0.0203505390782538,-0.0062133721370998,-1.9265291429501636,1.2981092395810951,0.8091878748098837,-0.0173723053120335,0.00065,-0.0020679999999999,-0.098675,0.000324,-8.599999999999991e-05,-0.001504
75.19,0.608965898649364,0.5733397937713611,-19.928699,-0.102608,-1.398919,0.0046,0.0001396263401595,-0.0136310214580757,-2.0796992555584786,1.3481311511050134,0.7303428050930288,-0.0236667731876845,0.000424,-0.0036259999999999,-0.097316,0.000301,2.000000000000008e-05,-0.00129
76.19,0.6089656438312933,0.5733397499635969,-19.939575,-0.349265,-1.378178,0.013945,0.0340164671213694,-0.0114144533080429,-2.210180297330377,1.4076481530189595,0.6480016388619558,-0.0095719780887092,5.500000000000598e-05,-0.0076559999999999,-0.09761,6.955993819156966e-20,-7.99999999999993e-06,-0.001136
77.19,0.6089653911076176,0.5733396674095234,-19.958149,-0.582908,-1.332051,0.022261,0.0484328867428426,-0.0070860367630969,-2.325180111557453,1.4846975276514962,0.5456478982642764,-0.0037079845349958,0.001078,-0.0076549999999999,-0.098585,5.000000000000006e-05,-3.199999999999994e-05,-0.000944
78.2,0.6089651469360553,0.5733395502979306,-19.981884,-0.797895,-1.272747,0.027111,0.0537910475464652,-0.0034382986264287,-2.4211905340833213,1.559985095262537,0.4692740911616027,0.000113614195451,0.000856,-0.0085329999999999,-0.098239,-5.399999999999996e-05,-4.499999999999996e-05,-0.000692
79.2,0.6089649135855343,0.5733394014213453,-20.00812,-0.983642,-1.21634,0.029666,0.0577354916559724,-0.0012391837689158,-2.4934471476625943,1.627933339794252,0.4000356922465093,-0.0072721034225366,0.001561,-0.0062619999999999,-0.0982,-2.199999999999997e-05,-1.8999999999999967e-05,-0.000538
80.2,0.6089646908815217,0.5733392247940251,-20.032993,-1.143458,-1.167685,0.020241,0.0533721685259865,3.4906585040017646e-05,-2.549158092292838,1.6223341237231428,0.2598700381667033,-0.0143611079202927,0.000273,-0.0063409999999999,-0.098032,-0.000291,-2.199999999999998e-05,-0.000353
81.2,0.6089644796966822,0.5733390277463525,-20.044903,-1.225516,-1.087942,0.004069,0.0390081087820732,0.0005410520681183,-2.585932074912604,1.6404009406313815,0.1366023219808791,-0.0113329125607984,6.0000000000060175e-06,-0.0040129999999999,-0.098276,-0.000255,-1.6e-05,2.3999999999999984e-05
82.21,0.608964281776345,0.5733388226701653,-20.040695,-1.26603,-1.034233,-0.007242,0.0229859862487653,-0.0009075712110369,-2.5875030806789088,1.6554763610675085,0.03208386367923,0.0141676591959381,6.900000000000597e-05,-0.0035179999999999,-0.097504,8.199999999999997e-05,-1.0000000000000232e-06,0.00038
83.21,0.6089640899646602,0.573338615848649,-20.040241,-1.276432,-1.033422,0.010564,0.0327598300599335,-0.0023038346126325,-2.553416748027582,1.6907815343308077,-0.0122582064365044,0.0426386382395133,0.00021,-0.0035889999999999,-0.097665,0.0002189999999999,2.999999999999996e-05,0.000646
84.21,0.6089638998983047,0.5733384102488631,-20.062132,-1.251536,-1.100978,0.034073,0.0483630735727628,-0.0022165681500327,-2.491544860950968,1.7084681340659051,-0.0438196774844139,0.0405374228525466,0.000333,-0.0037049999999999,-0.098017,-0.000105,7.899999999999994e-05,0.000823
85.21,0.608963691505992,0.5733382114558614,-20.100014,-1.183538,-1.213948,0.036726,0.044313909708136,0.0013089969389958,-2.410753604782735,1.7280379735408475,-0.0616457185408226,0.0057501516002593,0.000423,-0.0021389999999999,-0.09821,-0.000136,7.699999999999995e-05,0.00095
86.22,0.6089634578064052,0.5733380276726912,-20.12443,-1.075272,-1.332016,0.010495,0.0381878040336359,0.0056374134839416,-2.3170468248832825,1.7311912377084293,-0.090496904166869,-0.0167191027500935,0.000859,-0.0034109999999999,-0.098511,0.0001899999999999,3.299999999999994e-05,0.001016
87.22,0.6089631982759454,0.5733378643098732,-20.119186,-0.943918,-1.432608,-0.014628,0.0542448331519837,0.0050265482457436,-2.2160967715084205,1.7205789227295218,-0.1043443972041501,-0.008506253465533,0.000309,-0.0038879999999999,-0.0977,-7.000000000000067e-06,1.599999999999993e-05,0.001093
88.22,0.6089629221648577,0.573337724683533,-20.099852,-0.794806,-1.517984,-0.016515,0.056007615696498,0.0012915436464757,-2.108078431368953,1.73875573608522,-0.1048436947657174,0.0179754828479552,8.800000000000597e-05,-0.0038209999999999,-0.097603,5.799999999999993e-05,3.599999999999993e-05,0.001138
89.22,0.6089626294731422,0.5733376105389999,-20.092875,-0.62059,-1.60304,0.005487,0.0609643507721619,-0.001815142422074,-1.994719366265092,1.745073307761897,-0.0823775336806998,0.0424527416857438,-1.7999999999994027e-05,-0.0037179999999999,-0.097567,-5.400000000000007e-05,8.299999999999993e-05,0.001168
90.23,0.608962321946128,0.5733375257159982,-20.10998,-0.418271,-1.681485,0.025068,0.0565661210571362,-0.0012740903539558,-1.878061733594716,1.7569390752457874,-0.048297204447335,0.0383147183214166,7.000000000000598e-05,-0.0033379999999999,-0.097729,-1.0000000000000705e-06,0.0001239999999999,0.001152
91.23,0.6089620016782101,0.5733374756250487,-20.139252,-0.201192,-1.736113,0.024753,0.0555887366760194,0.0034732052114687,-1.7621369995838372,1.7523372593075304,-0.0339161914498744,0.010756995170959,0.000618,-0.0030619999999999,-0.098014,-6.400000000000006e-05,0.0001219999999999,0.001106
92.23,0.6089616728581791,0.5733374602661513,-20.154282,0.008315,-1.749155,0.001511,0.0495149908790791,0.0092851516206098,-1.6502789001833984,1.7319788794325603,-0.0312778877848847,-0.0198021170648,0.001056,-0.0027849999999999,-0.098595,-3.0000000000000653e-06,6.699999999999993e-05,0.001062
93.23,0.6089613456089443,0.5733374778939767,-20.139883,0.201182,-1.720239,-0.026456,0.047071529926287,0.0120078652537209,-1.543097846845992,1.7049624306531643,-0.0077717338310549,-0.021749546305907,0.000764,-0.0027149999999999,-0.097983,2.5999999999999937e-05,1.999999999999994e-05,0.001015
94.24,0.6089610270863559,0.573337526065064,-20.10675,0.379095,-1.664418,-0.032202,0.0480838208924437,0.0096167641784887,-1.4409959808845685,1.6837611314505003,0.0215872113274546,0.001809680809997,0.000418,-0.0022879999999999,-0.097445,-0.000132,3.999999999999943e-06,0.000931
95.24,0.608960721304671,0.573337600765156,-20.081343,0.542744,-1.599143,-0.01327,0.0440172037352969,0.0057944931166211,-1.3463994321324484,1.6770710301036138,0.0467881389200126,0.0304213124734137,0.000418,-0.0027309999999999,-0.097787,-6.100000000000005e-05,3.599999999999995e-05,0.000852
96.24,0.6089604284384225,0.5733376983290612,-20.081465,0.687065,-1.534583,0.011335,0.038152897448596,0.0050789081233035,-1.259953221921292,1.6638637578162263,0.0668519901981994,0.0365927651074061,0.000493,-0.0017869999999999,-0.097839,-7.300000000000004e-05,6.699999999999996e-05,0.000764
97.24,0.6089601481385446,0.5733378171859833,-20.098513,0.804745,-1.467452,0.017672,0.0270176968208722,0.008918632477691,-1.1822512508889669,1.644264046700014,0.0716693048272156,0.0233903248433453,0.000982,-0.0008329999999999,-0.098308,-6.900000000000004e-05,6.899999999999996e-05,0.000688
98.25,0.608959881277702,0.5733379527980662,-20.109753,0.898927,-1.390698,0.002132,0.0225147473507268,0.0142418866962736,-1.1119667022848152,1.609212852074054,0.1001325460407805,0.0051337561374935,0.001302,-0.0008169999999999,-0.098202,2.699999999999996e-05,3.299999999999996e-05,0.000613
99.25,0.6089596297757568,0.5733381013255855,-20.102423,0.973935,-1.303086,-0.014897,0.0216595360172496,0.0170169602069447,-1.0492220807690338,1.57783463466789,0.1279206748273549,0.0062656492209066,0.001349,-0.0015079999999999,-0.097835,2.0999999999999965e-05,4.999999999999967e-06,0.000535
100.25,0.6089593955525712,0.5733382603250804,-20.084248,1.033521,-1.216221,-0.017385,0.026145032194875,0.0167202542341058,-0.994297057900963,1.562572348023848,0.141463009114121,0.0206166789909468,0.001363,-0.0018579999999999,-0.097882,-3.0000000000000028e-05,-2.000000000000028e-06,0.000459
101.25,0.6089591761646842,0.573338426654958,-20.07197,1.080296,-1.143741,-0.005226,0.0239284640448422,0.0154985237577096,-0.9473822759947972,1.549508994039312,0.1514199477838322,0.0370023958200119,0.001355,-0.0009409999999999,-0.097802,-0.000136,1.7999999999999977e-05,0.000377
102.26,0.6089589700412995,0.5733385999661529,-20.073792,1.118217,-1.088253,0.006481,0.0134564885328762,0.0160919357033877,-0.9082343314330548,1.5363219512080186,0.1671491998529413,0.0370479008974404,0.001592,-0.0003519999999999,-0.097958,-6.500000000000001e-05,3.899999999999998e-05,0.000326
103.26,0.6089587736917587,0.573338779211467,-20.082067,1.147401,-1.042932,0.005808,0.0071034900556169,0.0192858882345374,-0.8747067310351684,1.5168138790600334,0.1633013973271749,0.0238474589809099,0.001944,-0.0002669999999999,-0.098117,4.099999999999999e-05,4.399999999999999e-05,0.000273
104.26,0.608958584149002,0.5733389622965055,-20.081966,1.166586,-0.995744,-0.008825,0.0100181899064474,0.0235793981944434,-0.8464846872172497,1.5034842512752855,0.1891387453506673,0.015720709124232,0.002226,-0.0009449999999999,-0.098006,8.599999999999999e-05,1.9999999999999988e-05,0.000227
105.26,0.6089584021111609,0.5733391474759392,-20.068842,1.181094,-0.951564,-0.017532,0.0173311194723036,0.0256214334192768,-0.8229226375955714,1.494705418748127,0.1991437138627561,0.0177941433605199,0.002329,-0.0015469999999999,-0.097874,1.699999999999999e-05,-6.00000000000001e-06,0.000172
106.27,0.6089582287999662,0.5733393349243008,-20.052561,1.194298,-0.917979,-0.0141,0.0201760061530544,0.0249582083035189,-0.804631517221501,1.491014833707074,0.2084901058635708,0.0249535921955814,0.002439,-0.0017719999999999,-0.097892,-1.1000000000000008e-05,-1.000000000000001e-05,0.000139
107.27,0.6089580593284959,0.5733395232453271,-20.043346,1.209055,-0.898115,-0.006247,0.0202458193231342,0.0235619449019235,-0.7901977141206775,1.5053310530535546,0.217326437543155,0.0167281221742499,0.002311,-0.0017889999999999,-0.097857,1.999999999999993e-06,8.999999999999993e-06,0.000113
108.27,0.6089578933476839,0.5733397152315449,-20.0382,1.22461,-0.885734,-0.00784,0.0195127810372966,0.0237015712420829,-0.7784696775059292,1.4986793411328607,0.2251871451475931,0.0024539930420882,0.002488,-0.0013419999999999,-0.098168,-2.5000000000000008e-05,5.999999999999994e-06,9.2e-05
109.27,0.6089577291122014,0.5733399096612235,-20.025282,1.237636,-0.86982,-0.020042,0.0175580122750629,0.0243124364802811,-0.7686953450025699,1.4891060573959118,0.2387924682225178,-0.0056836219966557,0.00225,-0.0014699999999999,-0.09792,1.0999999999999996e-05,-1.7000000000000003e-05,6.7e-05
110.28,0.6089575681928443,0.5733401053126326,-20.002207,1.244732,-0.852003,-0.025582,0.0184830367786199,0.0227416401534861,-0.761522390842724,1.4913663255072136,0.23232094330279,-0.0016053709893762,0.001937,-0.0016249999999999,-0.097838,-6.000000000000003e-06,-3.8e-05,4.4e-05
111.28,0.6089574095424153,0.573340302883904,-19.980165,1.248209,-0.840243,-0.017927,0.0184306769010601,0.0190589954317781,-0.7566003354592975,1.4935616551844768,0.2330722371353317,0.0055341930158912,0.001546,-0.0017519999999999,-0.097768,-8.000000000000001e-06,-3.5e-05,2.9e-05
112.28,0.6089572526373156,0.5733405002806424,-19.969139,1.249379,-0.838152,-0.005787,0.0171914931321441,0.0151843644923508,-0.753563270574609,1.4856124292300374,0.2351464595939704,0.0076066422715658,0.001402,-0.0015739999999999,-0.097897,-2.8000000000000003e-05,-1.2000000000000002e-05,3.5e-05
113.28,0.6089570964303475,0.5733406973283149,-19.96636,1.250388,-0.837715,-0.003137,0.0149400183970714,0.0133517687777566,-0.7502822610203694,1.4906048083725416,0.2373706075206981,-0.0026248708373306,0.001245,-0.0015129999999999,-0.098031,5.2e-05,-8.000000000000001e-06,4e-05
114.29,0.6089569390016489,0.5733408943759875,-19.961521,1.254921,-0.829921,-0.008237,0.0182735972683806,0.0124791041517595,-0.7463199970992005,1.4810765425334107,0.2480886520245546,-0.0066768454315512,0.001066,-0.0018329999999999,-0.097923,1.2999999999999998e-05,-1.5000000000000002e-05,3.4e-05
115.29,0.6089567827946809,0.5733410924708576,-19.951757,1.263981,-0.817151,-0.010614,0.0206996049286527,0.0109432144100045,-0.7426725382152128,1.4910564706102685,0.2612100417577657,-0.0026330243363578,0.000965,-0.0015169999999999,-0.097934,-5.2e-05,-2.2e-05,2.4e-05
116.29,0.6089566304274372,0.5733412917874582,-19.942102,1.271453,-0.808301,-0.007734,0.0160919357033877,0.0087266462599717,-0.7400019226602722,1.483945633013209,0.2524587509058612,0.0004591972103009,0.000698,-0.0013509999999999,-0.097933,-3.4e-05,-1.9e-05,1.5999999999999996e-05
117.29,0.6089564789328581,0.5733414921512563,-19.936401,1.271414,-0.808054,-0.003749,0.0124092909816796,0.0066497044500983,-0.7383092150852264,1.490581921529225,0.2417073297865567,-0.0026259576719649,0.00047,-0.0011419999999999,-0.097929,-1.3e-05,-1.2000000000000002e-05,2.7e-05
118.3,0.6089563277873449,0.5733416916423898,-19.932949,1.266757,-0.810671,-0.004039,0.0111352006277238,0.005253441048503,-0.7359879969932442,1.4812997601601712,0.2322078608930693,-0.0066733915578365,0.00046,-0.0012319999999999,-0.09792,4.1e-05,-1.3000000000000004e-05,4.7e-05
119.3,0.6089561759437,0.5733418914825892,-19.928215,1.266621,-0.807551,-0.005246,0.0138055543832751,0.0039444441095073,-0.7317988577226072,1.4898968258819434,0.2409811229583782,-0.0005811614481855,0.000347,-0.0014549999999999,-0.097835,3.199999999999999e-05,-1.4000000000000003e-05,6.3e-05
120.3,0.6089560251472527,0.5733420909737227,-19.924948,1.274448,-0.797947,-0.001205,0.016912240451825,0.0024260076602722,-0.7258653316777723,1.4899379259737977,0.2409846402041778,0.0065677336700429,0.000207,-0.0014429999999999,-0.09783,-2.4000000000000004e-05,9.999999999999964e-07,6e-05
121.3,0.6089558753980028,0.5733422923847183,-19.92864,1.284679,-0.787995,0.006804,0.0152890842474703,0.0019722220547535,-0.7196862552604738,1.5008268130945732,0.2375055466930414,0.009591608437916,0.000266,-0.0011629999999999,-0.097797,-2.7e-05,1.3999999999999996e-05,6.2e-05
122.31,0.6089557279176809,0.5733424943193127,-19.937946,1.289557,-0.78259,0.009313,0.0116587994033221,0.0028099800957108,-0.7134906854817448,1.4922570046237775,0.2272919173846813,-0.0005863641070109,0.000384,-0.0010639999999999,-0.098044,1.7999999999999997e-05,2e-05,8.1e-05
123.31,0.6089555811354909,0.5733426978247036,-19.944178,1.290801,-0.778508,0.001757,0.0115889862332423,0.004642575810305,-0.705863387211019,1.4865389093259926,0.2185543112552949,-0.0138385185844217,0.000482,-0.0014369999999999,-0.098105,6e-05,3.999999999999994e-06,9.7e-05
124.31,0.6089554352259655,0.5733429011555614,-19.939861,1.293308,-0.770131,-0.009759,0.0164933614313464,0.005253441048503,-0.6965961252152424,1.498033344924194,0.2230257629536512,-0.0179681307923736,0.000424,-0.0016009999999999,-0.098023,-3.0000000000000008e-05,-1.3000000000000006e-05,0.000109
125.31,0.6089552903636375,0.5733431058826827,-19.92753,1.301552,-0.7556,-0.013264,0.0169296937443449,0.0039793506945471,-0.6859141865942614,1.493813895476552,0.217200362383803,-0.0097805746515217,0.000248,-0.0012499999999999,-0.097903,-5.000000000000007e-06,-2.6000000000000005e-05,0.000111
126.32,0.608955148991968,0.5733433116570015,-19.917828,1.31179,-0.740708,-0.005014,0.0152541776624304,0.0014137166941154,-0.6749361005058027,1.495351592040422,0.2128883052701278,0.0004278625807809,3.300000000000599e-05,-0.0013479999999999,-0.097866,-2.000000000000001e-05,-1.2000000000000009e-05,0.000112
127.32,0.6089550109364243,0.573343518129452,-19.918495,1.319055,-0.729511,0.004459,0.013840460968315,-0.0003141592653588,-0.6637838480112868,1.4889485488750749,0.2048682293277079,-0.0026098283351149,-4.6999999999993993e-05,-0.0010999999999999,-0.098016,5.9999999999999925e-06,1.9999999999999923e-06,0.000124
128.32,0.6089548742771439,0.5733437270453635,-19.924578,1.322813,-0.719368,0.004946,0.0126361837844389,-0.0006632251157578,-0.6516190602045183,1.4933227185857565,0.2005868798761508,-0.0067102049295032,-3.7999999999994e-05,-0.0013159999999999,-0.098035,4.599999999999999e-05,5.999999999999992e-06,0.000137
129.32,0.6089547393631927,0.573343935961275,-19.928213,1.32761,-0.704172,0.001231,0.0158999494856683,-0.0002268928027591,-0.6381445249671771,1.490380388743587,0.2063312638356635,-0.0036366343632768,-3.0999999999994004e-05,-0.0016589999999999,-0.09793,2.4999999999999994e-05,-3.0000000000000085e-06,0.000135
130.33,0.6089546075908342,0.5733441455753181,-19.930424,1.337834,-0.68683,0.003524,0.0193033415270572,-0.0004537856055184,-0.6244265861123524,1.5049348273163146,0.2007297150598892,0.0075440413830866,-2.2999999999994003e-05,-0.0013079999999999,-0.097912,-5.700000000000001e-05,-8.205133554287266e-21,0.000134
131.33,0.608954479309134,0.5733443565856247,-19.937601,1.349562,-0.674094,0.009632,0.0142767932813136,-0.0008726646259971,-0.6110569800696395,1.497202641307959,0.1811359765588815,0.0014504749326145,1.3000000000005998e-05,-0.0010519999999999,-0.097966,3.999999999999991e-06,1.599999999999999e-05,0.000139
132.33,0.608954353296362,0.5733445700393922,-19.94771,1.357256,-0.664356,0.008176,0.0123743843966397,8.726646259971105e-05,-0.5971643337566895,1.4958539657465348,0.169561653256005,-0.0097753851818936,2.0000000000006005e-05,-0.0013079999999999,-0.098059,3.199999999999999e-05,1.499999999999999e-05,0.000157
133.33,0.6089542302506498,0.5733447845403572,-19.951073,1.36021,-0.649887,-0.001846,0.0146607657167523,0.0013962634015955,-0.5818580929226719,1.4966019044787584,0.1659587037015313,-0.0148842693223647,5.4000000000006e-05,-0.0015129999999999,-0.09796,4.599999999999999e-05,9.999999999999898e-07,0.000166
134.34,0.6089541096483986,0.5733450002630529,-19.945036,1.365312,-0.627926,-0.00859,0.0182037840983008,0.0014486232791552,-0.5653997602494133,1.4914672099305215,0.1738419314479204,-0.0097599900369559,1.700000000000599e-05,-0.0017579999999999,-0.09781,5.99999999999999e-06,-1.600000000000001e-05,0.00016
135.34,0.6089539930604045,0.5733452154621496,-19.938375,1.375678,-0.604326,-0.003007,0.0202632726156541,-0.0001919862177193,-0.5491502038612784,1.503039816357051,0.1768730318840523,0.0044936239834506,-6.699999999999401e-05,-0.0015839999999999,-0.097916,-6.800000000000001e-05,-8.00000000000001e-06,0.000154
136.34,0.6089538803121348,0.5733454322320426,-19.941067,1.387592,-0.586411,0.007281,0.0166504410640259,-0.001483529864195,-0.5335472745077142,1.508316470779247,0.1603261932825034,0.0065212039209673,-9.9999999999994e-05,-0.0012109999999999,-0.098008,-1.0000000000000013e-05,9.99999999999999e-06,0.00016
137.34,0.608953770181859,0.5733456514453967,-19.951389,1.395979,-0.572397,0.010153,0.0152018177848706,-0.0012566370614357,-0.5176125231567615,1.5040056907641697,0.1559395556681172,-0.0006103941539148,-7.6999999999994e-05,-0.0013389999999999,-0.09804,9.999999999999896e-07,1.899999999999999e-05,0.000169
138.35,0.6089536635422418,0.5733458715314154,-19.959209,1.40003,-0.556588,0.003536,0.0146956723017922,0.0001570796326795,-0.5007520491705508,1.5005573798608058,0.1392844014432967,-0.0097849423532096,7.2000000000006e-05,-0.0014749999999999,-0.098072,1.899999999999999e-05,7.99999999999999e-06,0.00017
139.35,0.6089535605678158,0.5733460931882304,-19.958498,1.404537,-0.538583,-0.004043,0.017208946424664,0.0010122909661567,-0.4835783933033613,1.501311294935277,0.1342360937506531,-0.014893458037915,6.7000000000006e-05,-0.0015429999999999,-0.097968,1.899999999999999e-05,-4.000000000000011e-06,0.000173
140.35,0.6089534593387192,0.5733463157177101,-19.952185,1.411682,-0.521518,-0.006921,0.0181863308057809,0.0004537856055186,-0.4663871445173123,1.4991941194448262,0.1291548396909407,-0.016926109046645,-5.5999999999994e-05,-0.0016749999999999,-0.097965,-9.00000000000001e-06,-9.00000000000001e-06,0.000176
141.35,0.6089533626474787,0.5733465396434531,-19.945385,1.420945,-0.503175,-0.006506,0.0184306769010601,-0.0007679448708775,-0.4488987010662344,1.505629654465192,0.1342868132142234,-0.0159307740487838,-0.0001799999999999,-0.0015759999999999,-0.097942,-9.000000000000012e-06,-1.0000000000000013e-05,0.000181
142.36,0.608953268748765,0.5733467642673279,-19.939802,1.429454,-0.480973,-0.004877,0.0167202542341056,-0.0020071286397933,-0.4310267564186152,1.5043680781774176,0.1198273094359485,-0.0128580799936946,-0.0002939999999999,-0.0014609999999999,-0.097865,3.699999999999999e-05,-1.200000000000001e-05,0.000178
143.36,0.6089531793879073,0.5733469899384,-19.936932,1.43579,-0.457865,-0.000514,0.018133970928221,-0.0034557519189486,-0.4131367127066527,1.5030080954259015,0.1125888265456584,-0.0097869680838881,-0.0003799999999999,-0.0015959999999999,-0.097933,9.99999999999999e-06,-5.000000000000011e-06,0.000174
144.36,0.6089530947394385,0.5733472161330712,-19.938032,1.439788,-0.43829,0.002111,0.0189193690916185,-0.0044854961776252,-0.3955438636597199,1.5008056203880316,0.1132835672256501,-0.0138638743981323,-0.0005299999999999,-0.0017239999999999,-0.097922,1.399999999999999e-05,-1.0000000000000103e-06,0.000171
145.36,0.608953014454293,0.5733474435494726,-19.939777,1.442095,-0.420033,0.000328,0.0190939020168179,-0.0050963614158234,-0.3783350568613965,1.5000818310483206,0.1111060741442591,-0.0169245760941844,-0.0005269999999999,-0.0016399999999999,-0.097977,7.99999999999999e-06,-4.00000000000001e-06,0.00017
146.37,0.6089529364380754,0.5733476711404072,-19.938578,1.445967,-0.398642,-0.002527,0.019669860669976,-0.0057595865315811,-0.3612306382056343,1.5051838446712569,0.1090015257453168,-0.0118372222606198,-0.0006239999999999,-0.0019159999999999,-0.097893,1.399999999999999e-05,-1.100000000000001e-05,0.000169
147.37,0.6089528619125163,0.5733478994294733,-19.937626,1.453488,-0.376643,0.001906,0.0210661240715715,-0.0071034900556168,-0.344231672343277,1.5082365692919892,0.0974844562661521,-0.0026535600280426,-0.0007819999999999,-0.0016529999999999,-0.097767,-5.6000000000000006e-05,-1.00000000000001e-06,0.000164
148.37,0.6089527922738792,0.5733481294638687,-19.944012,1.463302,-0.361853,0.010611,0.0175056523975031,-0.0080285145591738,-0.3277381887388827,1.51274567875038,0.0830947058615624,-0.0026666819891572,-0.0006399999999999,-0.0013199999999999,-0.098046,-2.200000000000001e-05,2.399999999999999e-05,0.000169
149.37,0.608952725078703,0.5733483612435933,-19.955076,1.470855,-0.352302,0.009326,0.0147305788868321,-0.0066147978650583,-0.3110524222107974,1.5048130991340516,0.0764959419629398,-0.0189760808327947,-0.0004779999999999,-0.0010449999999999,-0.098206,2.499999999999999e-05,2.499999999999999e-05,0.000181
150.38,0.6089526601524547,0.5733485942450486,-19.957232,1.471901,-0.333699,-0.00488,0.0147131255943121,-0.0041887902047863,-0.2930760894206152,1.499692204466422,0.0785988833371579,-0.0301914068369572,-0.0004559999999999,-0.0015819999999999,-0.098063,6.599999999999999e-05,-5.000000000000011e-06,0.000177
151.38,0.6089525994149969,0.5733488263738391,-19.945993,1.469402,-0.303559,-0.013959,0.0202458193231342,-0.0040491638646267,-0.2751162499918663,1.4953369098965867,0.0814368871528342,-0.0209836744585607,-0.0006139999999999,-0.0017509999999999,-0.097738,2.499999999999999e-05,-2.600000000000001e-05,0.000162
152.38,0.6089525442625924,0.5733490579790308,-19.934397,1.471046,-0.275823,-0.005822,0.0223925743030872,-0.0066147978650583,-0.2583958735847134,1.5070346343341858,0.0743583015255215,-0.0046857830152235,-0.0007469999999999,-0.0018549999999999,-0.097689,-3.9000000000000006e-05,-9.000000000000009e-06,0.00015
153.38,0.608952494171643,0.5733492901078212,-19.936325,1.479055,-0.261006,0.009025,0.0204203522483336,-0.008883725892651,-0.2431242426297626,1.5151858114275207,0.0535114673553241,-0.0067529158298675,-0.0007939999999999,-0.0013329999999999,-0.097891,-6.500000000000001e-05,1.599999999999999e-05,0.000152
154.39,0.6089524463496214,0.5733495238074081,-19.947397,1.487274,-0.251448,0.009993,0.0133168621927167,-0.0081855941918533,-0.2280102672661448,1.510101395885174,0.0541717339135264,-0.0108189380463418,-0.0006589999999999,-0.0009839999999999,-0.098112,3.099999999999999e-05,1.999999999999999e-05,0.000167
155.39,0.6089524002729291,0.5733497585541926,-19.953268,1.490316,-0.233255,0.000716,0.0130027029273577,-0.0063704517697793,-0.2115167836617504,1.5056915108136948,0.0570054016731225,-0.0179521154368581,-0.0006729999999999,-0.0016609999999999,-0.097995,4.1999999999999984e-05,9.999999999999898e-07,0.000166
156.39,0.6089523576868955,0.5733499938245757,-19.950541,1.488078,-0.209314,-0.004453,0.0194080612821769,-0.0058643062867009,-0.194726070485743,1.506520695581223,0.0476268527809333,-0.0159096925379185,-0.0006489999999999,-0.0017929999999999,-0.097885,-2.300000000000001e-05,-1.300000000000001e-05,0.000154
157.39,0.6089523177188555,0.573350228745893,-19.947132,1.486198,-0.191797,-0.001321,0.0193033415270572,-0.0070860367630969,-0.1790358048564082,1.507451011443363,0.0295849447140665,-0.0128443002786169,-0.0007599999999999,-0.0014479999999999,-0.097931,-1.700000000000001e-05,-6.0000000000000095e-06,0.000158
158.4,0.6089522817650729,0.5733504631436116,-19.948732,1.489021,-0.181143,0.003318,0.0149574716895914,-0.008272860654453,-0.1633449807217133,1.510401147631433,0.0223980697101817,-0.018981531995798,-0.0008249999999999,-0.0013429999999999,-0.097991,1.399999999999999e-05,2.999999999999989e-06,0.00017
159.4,0.6089522489528829,0.5733506985885277,-19.950865,1.495253,-0.165931,0.000491,0.0152890842474703,-0.0084473935796525,-0.1468344452505283,1.5131428444100552,0.0339839428009201,-0.0210370264617095,-0.0008049999999999,-0.0012389999999999,-0.098016,1.899999999999999e-05,-1.0409497792752504e-20,0.00017
160.4,0.6089522192822857,0.5733509356042401,-19.947632,1.499397,-0.140446,-0.005417,0.0166329877715059,-0.0083775804095727,-0.1294860819252153,1.510966764759892,0.0332354443767991,-0.023070627323539,-0.0009599999999999,-0.0016139999999999,-0.09789,2.799999999999999e-05,-8.00000000000001e-06,0.000159
161.4,0.6089521938004786,0.5733511726199525,-19.941256,1.498422,-0.112588,-0.005301,0.0196175007924162,-0.0091280719879303,-0.1132541184559399,1.5074301895815236,0.0295844655209959,-0.0138652288855447,-0.0010229999999999,-0.0017309999999999,-0.097867,-5.1000000000000006e-05,-1.3000000000000008e-05,0.000146
162.41,0.6089521735546594,0.573351409286599,-19.940136,1.496649,-0.092828,0.003263,0.0178721715404219,-0.0106988683147251,-0.0981571949591135,1.5119728713381229,0.0151981252893897,-0.0036674053825256,-0.0011339999999999,-0.0014979999999999,-0.097862,-1.700000000000001e-05,-4.000000000000008e-06,0.000145
163.41,0.6089521580212289,0.5733516459532457,-19.948555,1.497408,-0.082967,0.012164,0.0152367243699104,-0.0116587994033221,-0.083670665461588,1.5078766344711196,-0.0065151001163085,-0.0056880891803367,-0.0010149999999999,-0.0013249999999999,-0.097975,-1.200000000000001e-05,1.499999999999999e-05,0.000153
164.41,0.6089521431859304,0.573351883143491,-19.960382,1.499946,-0.075143,0.009379,0.0133168621927167,-0.0106988683147251,-0.0686962466249598,1.5106870227930376,-0.0064851644975108,-0.0220378189743961,-0.0008569999999999,-0.0011109999999999,-0.098218,9.999999999999898e-07,1.699999999999999e-05,0.000167
165.41,0.608952129921428,0.5733521206828022,-19.964327,1.501689,-0.057842,-0.00193,0.0151145513222708,-0.0090757121103703,-0.0523774530253977,1.5012024994344064,-0.000100286889139,-0.0271087936919126,-0.0008409999999999,-0.0013439999999999,-0.09802,9.9999999999999e-07,1.99999999999999e-06,0.000162
166.42,0.6089521203221171,0.5733523587457121,-19.957397,1.501616,-0.032007,-0.010085,0.0168947871593051,-0.0084997534572124,-0.0360410839602683,1.5020130410014432,-0.0080333824725555,-0.0271097060966452,-0.0009219999999999,-0.0015119999999999,-0.097934,-4.000000000000009e-06,-1.400000000000001e-05,0.000154
167.42,0.6089521147370636,0.5733525959359576,-19.947796,1.50128,-0.006917,-0.00766,0.0172787595947438,-0.0095993108859686,-0.0204552064734955,1.511501997592264,-0.0129728107948785,-0.0159120952949539,-0.0010949999999999,-0.0013999999999999,-0.09783,-1.5000000000000007e-05,-1.5000000000000007e-05,0.000146
168.42,0.6089521147370636,0.5733528333007357,-19.944401,1.501267,0.010622,0.001177,0.0149749249821113,-0.0116238928182821,-0.0056373785773564,1.5065320244367484,-0.0195305778189216,-0.0138485528331111,-0.0011609999999999,-0.0014659999999999,-0.097842,5.999999999999991e-06,-2.000000000000009e-06,0.00015
169.42,0.6089521184022549,0.5733530696183166,-19.949783,1.501085,0.022346,0.007986,0.0152541776624304,-0.0126885436619987,0.0091804318654901,1.5088533635614163,-0.0317788311936072,-0.0128329914426561,-0.0012489999999999,-0.0013909999999999,-0.0979,-1.0000000000000013e-05,3.999999999999991e-06,0.000157
170.43,0.6089521222419794,0.5733533059358972,-19.958717,1.500424,0.032561,0.008204,0.0150272848596711,-0.0127583568320783,0.0246964089157197,1.50681317515783,-0.0455253443029713,-0.0209906326220627,-0.0012179999999999,-0.0015579999999999,-0.098034,3.499999999999999e-05,9.99999999999999e-06,0.000163
171.43,0.6089521278270329,0.5733535433006756,-19.964899,1.499694,0.047344,0.003143,0.0168598805742652,-0.0121649448864005,0.0407359847415476,1.5046099304516272,-0.0433851997756083,-0.0220039051256802,-0.0011439999999999,-0.0014399999999999,-0.097993,-4.00000000000001e-06,3.99999999999999e-06,0.000167
172.43,0.6089521372518109,0.573353780141855,-19.964569,1.498413,0.06804,-0.002361,0.0170344134994646,-0.0117111592808818,0.0572817060504539,1.5082168907126057,-0.0440649812392949,-0.0261023610345989,-0.0011659999999999,-0.0015649999999999,-0.097964,2.799999999999999e-05,-6.00000000000001e-06,0.000161
173.43,0.6089521515635107,0.5733540168085016,-19.959822,1.497772,0.091607,-0.004482,0.0182386906833407,-0.0122522113490002,0.0736179878491208,1.509011516206145,-0.0491095462280175,-0.0230409728854795,-0.0012319999999999,-0.0014209999999999,-0.097915,-2.200000000000001e-05,-7.000000000000009e-06,0.000157
174.44,0.608952169540402,0.5733542534751481,-19.955919,1.496565,0.113338,-0.00165,0.0158650429006284,-0.0132645023151567,0.0896226570899088,1.5163756017154773,-0.0576858280891457,-0.0148963821008097,-0.0013229999999999,-0.0014309999999999,-0.097899,-4.000000000000009e-06,-1.0000000000000097e-06,0.000157
175.44,0.6089521924042153,0.5733544896181959,-19.957201,1.495046,0.13123,0.005067,0.0158999494856683,-0.0138055543832751,0.1053131670653378,1.5092885074402398,-0.0649886268350081,-0.0026145762396455,-0.0012969999999999,-0.0014329999999999,-0.097829,-2.200000000000001e-05,4.999999999999991e-06,0.000157
176.44,0.6089522184096211,0.5733547257612437,-19.96666,1.493611,0.144991,0.013808,0.0154985237577096,-0.0136484747505956,0.1209862237482469,1.5081672217972573,-0.0909978677877942,0.0004607129446026,-0.0013029999999999,-0.0013599999999999,-0.097838,-1.600000000000001e-05,1.699999999999999e-05,0.000163
177.44,0.6089522459858232,0.5733549619042915,-19.983208,1.492203,0.153166,0.018072,0.0138928208458748,-0.0125314640293192,0.1370781769049271,1.5154880854250363,-0.1024680077482855,-0.0118178964648623,-0.0010919999999999,-0.0011249999999999,-0.098089,1.9999999999999893e-06,2.099999999999999e-05,0.000174
178.45,0.6089522742601571,0.5733551989200039,-19.997231,1.490526,0.161599,0.009107,0.0127409035395586,-0.0107337748997651,0.1540776663660594,1.505326971204271,-0.1040379444873737,-0.0311812684446549,-0.0008469999999999,-0.0012849999999999,-0.098151,5.999999999999999e-05,1.4999999999999989e-05,0.000183
179.45,0.6089523053270178,0.5733554347139859,-19.996695,1.487249,0.182516,-0.008669,0.0154810704651897,-0.0092502450355698,0.1721243708316807,1.5095033432957694,-0.0924353701008235,-0.0352851956805987,-0.0009169999999999,-0.0013049999999999,-0.097963,1.199999999999999e-05,-1.200000000000001e-05,0.000179
180.45,0.6089523404081357,0.573355669984369,-19.98103,1.483788,0.217542,-0.017131,0.0188495559215387,-0.009773843811168,0.1902932483449417,1.5107810681751097,-0.0736408984748924,-0.0199769918527559,-0.0010839999999999,-0.0015669999999999,-0.097759,-3.2000000000000005e-05,-1.600000000000001e-05,0.000156
181.45,0.6089523836923012,0.5733559056038181,-19.966955,1.48004,0.254602,-0.007215,0.0187273828738991,-0.0115715329407224,0.2067866097762881,1.501620934548144,-0.0845774157766233,0.0035476998613787,-0.0012099999999999,-0.0012289999999999,-0.097809,-3.9000000000000006e-05,-6.000000000000009e-06,0.000139
182.46,0.6089524336087179,0.5733561396524707,-19.970303,1.47598,0.274354,0.013868,0.013229595730117,-0.012897983172238,0.2211332162276815,1.494859587881169,-0.1178737903221865,0.0178783230987175,-0.0011999999999999,-0.0011359999999999,-0.097835,-8.000000000000008e-06,1.8999999999999998e-05,0.000138
183.46,0.6089524859685954,0.5733563731775247,-19.992907,1.472872,0.273732,0.028392,0.0115366263556825,-0.0119729586686809,0.2349387531576641,1.4973391231617796,-0.1460106340248361,0.0097075200632216,-0.0009349999999999,-0.0011549999999999,-0.098082,-1.900000000000001e-05,3.8e-05,0.000165
184.46,0.6089525374558084,0.5733566061789798,-20.019989,1.472195,0.265974,0.022889,0.0113097335529232,-0.0088313660150911,0.2504896542462262,1.5061453345545042,-0.1646872590652994,-0.0148298323409109,-0.0005439999999999,-0.0014759999999999,-0.098219,0.0001059999999999,2.999999999999999e-05,0.000188
185.46,0.6089525863250274,0.5733568383077703,-20.032112,1.471025,0.274425,0.001116,0.0171042266695444,-0.0055501470213419,0.2685712652968874,1.5080106540552964,-0.1451725138199099,-0.0352662963737987,-0.0003869999999999,-0.0016729999999999,-0.098152,1.6999999999999986e-05,4.9999999999999886e-06,0.000194
186.47,0.6089526365905099,0.5733570699129621,-20.020725,1.467195,0.307452,-0.020234,0.0207694180987325,-0.0044680428851053,0.2879618907398369,1.5171275193374258,-0.1212322705763232,-0.0322431526680835,-0.0005129999999999,-0.0016669999999999,-0.097802,-2.300000000000001e-05,-1.900000000000001e-05,0.000172
187.47,0.6089526954081056,0.5733573011690879,-19.995796,1.459783,0.351447,-0.023756,0.0208741378538521,-0.0060039326268603,0.3060434843372057,1.5113412921285447,-0.1140763292337261,-0.012820115825496,-0.0007529999999999,-0.0014639999999999,-0.097789,-5.000000000000001e-05,-2.200000000000001e-05,0.000148
188.47,0.6089527633014136,0.5733575324252138,-19.978636,1.451751,0.384054,-0.007449,0.016615534478986,-0.0084124869946125,0.3216816344350749,1.5008952826040796,-0.138026964667612,0.0117339560023672,-0.0009419999999999,-0.0012339999999999,-0.097604,-3.2000000000000005e-05,-6.000000000000009e-06,0.000139
189.47,0.6089528378269726,0.5733577621105435,-19.984121,1.446649,0.393357,0.016912,0.0126885436619987,-0.0100007366139274,0.3356616868369644,1.499139946304842,-0.1690992914948387,0.0209400512668419,-0.0009029999999999,-0.0009909999999999,-0.097904,-4.000000000000001e-05,2.199999999999999e-05,0.000155
190.48,0.6089529135742622,0.573357991795873,-20.009682,1.44452,0.387338,0.029072,0.0087615528450115,-0.0089535390627308,0.3505319269705412,1.4973350969580823,-0.2030660119159875,0.0076809556088787,-0.0005829999999999,-0.0012139999999999,-0.098156,6.599999999999999e-05,3.299999999999999e-05,0.000178
191.48,0.6089529870526237,0.5733582206085379,-20.036644,1.44357,0.386014,0.020165,0.0135612082879959,-0.0059864793343404,0.3674267141298462,1.495726071634992,-0.1944246032868519,-0.0106974421290622,-0.0003339999999999,-0.0013139999999999,-0.098198,4.399999999999999e-05,2.399999999999999e-05,0.000191
192.48,0.608953058785656,0.5733584488976041,-20.044918,1.440353,0.404299,-0.002977,0.0174532925199432,-0.0033684854563489,0.3863286299289448,1.5012639695880643,-0.1784743534342301,-0.0239987489032215,-0.0001359999999999,-0.0015829999999999,-0.098112,2.299999999999999e-05,2.9999999999999886e-06,0.000187
193.48,0.6089531354056101,0.5733586768376044,-20.03093,1.43256,0.441608,-0.019956,0.0201585528605345,-0.0024783675378319,0.4053701720682031,1.5068775080715828,-0.1625171809300896,-0.0168751968140485,-0.0003229999999999,-0.0016329999999999,-0.097743,2.399999999999999e-05,-1.200000000000001e-05,0.000162
194.49,0.6089532193559472,0.5733589037304071,-20.009808,1.422195,0.48001,-0.016392,0.0204028989558137,-0.003630284844148,0.4227012915405067,1.4962557979950484,-0.1749184525953071,-0.0015136521607422,-0.0005139999999999,-0.0016479999999999,-0.09776,-4.2e-05,-1.2000000000000009e-05,0.000147
195.49,0.6089533118583974,0.5733591278306831,-20.001383,1.413815,0.500577,0.001657,0.0169471470368649,-0.0053407075111024,0.4378681852870448,1.4972343952740776,-0.1929607537635089,0.0066575945569486,-0.0005979999999999,-0.0013159999999999,-0.097863,-3.5000000000000004e-05,1.999999999999991e-06,0.000146
196.49,0.6089534082005722,0.5733593507092286,-20.010633,1.408778,0.504658,0.01468,0.0125140107367993,-0.0059690260418205,0.4523719062777028,1.500439332161719,-0.218921055973516,0.0066525239221209,-0.0005309999999999,-0.0011099999999999,-0.098004,7.99999999999999e-06,1.2999999999999987e-05,0.000156
197.49,0.6089535047172798,0.5733595732387082,-20.025648,1.405894,0.507902,0.012671,0.0121649448864004,-0.0051487212933831,0.4674689519475762,1.4939212456867788,-0.2197263943902788,-0.0045567431252683,-0.0003389999999999,-0.0013489999999999,-0.09807,6.799999999999999e-05,1.399999999999999e-05,0.000162
198.5,0.6089536001867899,0.5733597950700562,-20.032593,1.401692,0.522169,0.001097,0.0168947871593051,-0.0038397243543875,0.4835783933033614,1.498960405487105,-0.2189464427109102,-0.0086609982202432,-0.0002639999999999,-0.0014949999999999,-0.097902,-5.0000000000000106e-06,6.99999999999999e-06,0.000165
199.5,0.6089536987978926,0.5733600167268712,-20.028826,1.394184,0.546498,-0.00669,0.0179768912955415,-0.0029496064358702,0.4999320934879632,1.4908937367879231,-0.2067650576853845,-0.0045488254420718,-0.0002169999999999,-0.0015259999999999,-0.097889,3.999999999999991e-06,4.999999999999991e-06,0.000157
200.5,0.6089538017723185,0.5733602382091532,-20.022295,1.3842,0.570669,-0.004711,0.0178721715404219,-0.0025132741228717,0.5161636555315106,1.4909412739704837,-0.2096532433972497,-0.0014842015646519,-0.0002769999999999,-0.0014649999999999,-0.097816,-2.200000000000001e-05,-5.00000000000001e-06,0.00015
201.5,0.6089539096336662,0.5733604572479744,-20.01968,1.375352,0.587595,0.000729,0.0164410015537865,-0.0028972465583105,0.5314876638173133,1.4897179436168602,-0.2270033624745945,-0.0024958990727339,-0.0003099999999999,-0.0014439999999999,-0.098013,4.999999999999991e-06,-3.0000000000000094e-06,0.000151
202.51,0.6089540206366066,0.5733606750650649,-20.021694,1.369529,0.59974,0.003173,0.0153414441250301,-0.0035953782591082,0.5464800595452369,1.4868797959781752,-0.2328157090114245,-0.0065686463908014,-0.0003239999999999,-0.0013339999999999,-0.097939,-5.00000000000001e-06,3.999999999999991e-06,0.000152
203.51,0.6089541346066069,0.5733608907877605,-20.023516,1.364999,0.613143,-0.000268,0.0152890842474703,-0.0038048177693474,0.5617691263394147,1.4964293985862884,-0.2464243243907377,-0.0086440141859247,-0.0002689999999999,-0.0014819999999999,-0.097946,3.399999999999999e-05,7.99999999999999e-06,0.000157
