Time [s],Longitude [rad],Latitude [rad],Altitude [m],V North [m/s],V East [m/s],V Down [m/s],Roll [rad],Pitch [rad],Yaw [rad]
1.0025062656641603,0.609673659680711,0.5734647794170904,-10.738838,0.007842999999999822,0.003833000000000003,0.005795999999999996,-0.0041538836197465,0.0104370689269261,3.119845816203359
2.0050125313283207,0.6096736935400984,0.5734644601963702,-10.715885,0.002263000000000126,-0.01679900000000001,0.016749,0.0008552113334772,0.0084823001646925,3.1344716229751937
3.007518796992481,0.6096737211163006,0.573464141150183,-10.706233,-0.009015999999999913,-0.05248599999999999,0.0041010000000000005,0.0046425758103049,0.0073303828583761,-3.130754124028324
4.010025062656641,0.6096737385695931,0.5734638194860018,-10.678985,-0.004995000000000083,-0.050967000000000005,-0.032038,0.0130201562198776,0.0070860367630969,-3.1138244128306862
5.012531328320802,0.6096737472962394,0.5734634962510243,-10.623218,0.0009540000000001214,-0.012946,-0.017769,0.0068242373752978,0.0035779249665883,-3.101083579104297
6.015037593984962,0.6096737544520894,0.5734631730160469,-10.570864,0.01113799999999987,0.008962999999999999,0.025408,-0.0027227136331111,0.0002268928027593,-3.0900706038840906
7.017543859649122,0.6096737607352747,0.5734628532717279,-10.565763,0.012699000000000016,-0.023971,0.060883999999999994,0.0122173047639603,-0.00609119908946,-3.0787782712638103
8.020050125313283,0.6096737628296697,0.5734625354472711,-10.608986,-0.002647000000000066,-0.067826,0.022579,0.0144687794990329,-0.0103847090493662,-3.067067286515853
9.022556390977442,0.6096737516595625,0.5734622165756168,-10.643324,-0.007913999999999977,-0.04623100000000001,-0.033091999999999996,0.0059341194567807,-0.0105941485596054,-3.061621649810121
10.025062656641603,0.6096737322864078,0.5734618961331661,-10.632156,0.0002309999999998702,0.011753,-0.040912000000000004,0.0022689280275926,-0.0089535390627308,-3.0640999998946605
11.027568922305765,0.6096737179747079,0.5734615760397812,-10.603238,0.00043600000000010297,0.03781500000000001,0.006350999999999999,0.0053930673886624,-0.0095469510084089,-3.06886492328553
12.030075187969924,0.6096737116915226,0.573461254899199,-10.596615,4.999999999810711e-06,0.015832,0.029373000000000003,0.0028274333882308,-0.010419615634406,-3.0709765447876403
13.032581453634084,0.6096737087244629,0.5734609323623532,-10.620914,-0.0017329999999997625,-0.007725000000000003,0.025712,0.0073478361508961,-0.0107861347773248,-3.07108147398227
14.035087719298245,0.6096737029648763,0.5734606110472378,-10.661548,-0.0047120000000000495,-0.017522999999999997,0.003927,0.0053407075111026,-0.0089884456477706,-3.071412772380884
15.037593984962406,0.6096736916202363,0.5734602895575897,-10.691954,0.0020929999999999005,-0.009621999999999999,-0.019935,0.0038222710618675,-0.0052185344634629,-3.075304978785879
16.040100250626566,0.6096736790538656,0.5734599671952768,-10.695365,0.006673000000000151,0.0069159999999999985,-0.031703999999999996,0.0051312680008633,-0.0012391837689158,-3.0821817854782467
17.042606516290725,0.6096736691054889,0.5734596479745566,-10.670823,0.005727999999999955,0.033394,-0.016919,0.0060213859193804,0.0008726646259973,-3.0904543668800195
18.045112781954884,0.6096736666620279,0.5734593282302376,-10.64589,-0.010098000000000162,0.028458,0.014292,0.0014835298641951,0.000628318530718,-3.095795336190509
19.047619047619047,0.6096736671856267,0.573459007787787,-10.641478,-0.013723999999999847,-0.0037550000000000014,0.021026,0.0010646508437165,-8.726646259971105e-05,-3.0972265236304377
20.050125313283207,0.6096736684073571,0.5734586849018753,-10.643428,-0.0026090000000000835,-0.013087999999999999,-0.013352,0.0059515727493006,0.0017453292519944,-3.0989019175393047
21.052631578947366,0.6096736677092255,0.5734583607942332,-10.627099,0.014406000000000141,0.013234,-0.015286000000000001,0.0005235987755982,0.0021991148575128,-3.103335018932785
22.05513784461153,0.6096736694545547,0.5734580389555192,-10.607635,0.014079000000000175,0.024768000000000005,0.010662000000000001,0.0002268928027592,-0.0002443460952792,-3.106825625076896
23.05764411027569,0.6096736764358718,0.5734577207819965,-10.605637,-0.0016640000000003319,0.0025599999999999998,0.017523,0.0094945911308491,-0.0037000980142278,-3.1049233209119778
24.06015037593985,0.6096736834171887,0.5734574022594081,-10.61278,-0.011823999999999835,-0.017167,-0.0001730000000000004,0.0077143552938149,-0.0052534410485027,-3.100420179455615
25.062656641604008,0.6096736865587814,0.5734570805952269,-10.616152,-0.008249000000000173,-0.015462,-0.004745,0.0028972465583105,-0.0056374134839416,-3.097470730099377
26.065162907268167,0.6096736858606496,0.5734567557894531,-10.613294,0.0007760000000001099,-0.007363,-0.005822,0.0039269908169872,-0.0050090949532237,-3.09638869577631
27.06766917293233,0.6096736844643862,0.5734564334271403,-10.604094,0.012413000000000007,0.008991,-0.004301,0.0005585053606381,-0.0051312680008632,-3.097941846824368
28.07017543859649,0.6096736856861168,0.5734561140318871,-10.601252,0.009202000000000155,0.016884999999999997,0.01759,0.0049916416607037,-0.0077318085863347,-3.0994779634589253
29.07268170426065,0.6096736890022423,0.5734557956838316,-10.623626,-0.005389000000000088,-0.004622999999999999,0.027268999999999998,0.0007853981633974,-0.0105068820970057,-3.097610286626366
30.07518796992481,0.6096736921438349,0.5734554766376444,-10.660575,-0.014235999999999915,-0.026312000000000002,-0.006199999999999997,0.0064053583548191,-0.0106465084371654,-3.0947130226147634
31.07769423558897,0.609673691969302,0.5734551541007986,-10.670613,-0.002120000000000122,-0.0028859999999999997,-0.038814,0.0053930673886624,-0.0087266462599715,-3.094835265475573
32.08020050125313,0.609673689700374,0.5734548306912882,-10.644892,0.006010999999999989,0.030393999999999997,-0.021095,-0.0035604716740684,-0.0071558499331767,-3.096528234850008
33.08270676691729,0.6096736954599605,0.5734545100743046,-10.625714,0.0067070000000000185,0.022393999999999997,0.0306,0.0003141592653589,-0.0077841684638946,-3.095707982461448
34.08521303258145,0.6096737040120739,0.5734541913771831,-10.650726,-0.001104000000000216,-0.028183999999999997,0.043173,0.0051661745859032,-0.0089186324776908,-3.0911702311260174
35.08771929824561,0.6096737048847386,0.5734538716328642,-10.696466,-0.00017999999999984695,-0.048177,-0.004402000000000003,0.0072082098107365,-0.008569566627292,-3.0868069079960314
36.09022556390977,0.609673694761829,0.5734535520630781,-10.715149,0.00883300000000009,-0.012598999999999999,-0.040163,0.0049392817831439,-0.0071034900556168,-3.0876620495163385
37.092731829573935,0.6096736830681229,0.5734532337150225,-10.699828,0.0031010000000000204,0.024329,-0.018399000000000002,0.004293509959906,-0.0081332343142934,-3.091780886924705
38.095238095238095,0.6096736773085364,0.5734529143197694,-10.684242,-0.016515000000000057,0.027544,0.012659,-0.0013264502315156,-0.0098960168588078,-3.095306382200564
39.097744360902254,0.6096736802755961,0.5734525926555883,-10.686674,-0.012976000000000099,0.014711,0.017405,0.0047996554429844,-0.0095644043009288,-3.0975929729601868
40.100250626566414,0.6096736846389191,0.5734522680243475,-10.702311,0.006622000000000128,-0.005263,0.007994999999999999,-0.0038222710618675,-0.0075921822461753,-3.0983956498831784
41.10275689223057,0.609673687605979,0.5734519461856333,-10.722018,0.014600999999999864,-0.013792,0.0015400000000000032,0.0063355451847394,-0.0076445421237349,-3.0986225426859377
42.10526315789473,0.6096736855115839,0.5734516269649131,-10.743366,0.004002999999999979,-0.009969,0.00281,0.0085695666272921,-0.0100880030765271,-3.0990414566130013
43.10776942355889,0.6096736801010632,0.5734513082677918,-10.76382,-0.013171999999999962,-0.010897,-0.006948000000000001,0.0002443460952792,-0.0106814150222052,-3.0997048562616847
44.11027568922306,0.609673673643345,0.5734509866036106,-10.765826,-0.009869000000000128,0.010854,-0.02749,0.0023387411976724,-0.0071907565182165,-3.1029685696030365
45.11278195488722,0.6096736729452132,0.5734506631941002,-10.743466,0.005707000000000129,0.043601,-0.013463999999999999,-0.000296705972839,-0.0034033920413889,-3.1071571852748976
46.11528822055138,0.6096736813227935,0.5734503417044521,-10.728624,0.010979000000000294,0.036035,0.028193,-0.0027052603405912,-0.0028099800957108,-3.108065053191908
47.11779448621554,0.6096736935400984,0.5734500230073306,-10.755054,0.0021499999999998742,-0.024030000000000003,0.040637,0.0035604716740684,-0.0031241393610697,-3.102619416486175
48.1203007518797,0.6096737008704812,0.5734497039611434,-10.80161,-0.0035570000000002544,-0.060797,-0.005095000000000002,0.0111352006277238,-0.0025132741228717,-3.097522932897304
49.122807017543856,0.6096736949363617,0.5734493836932256,-10.812875,0.0020450000000002966,-0.027628,-0.05777,0.0054454272662223,-0.000558505360638,-3.097540508362872
50.125313283208015,0.6096736837662546,0.5734490623781103,-10.766129,0.0025849999999998374,0.04073,-0.041981000000000004,-0.0028797932657906,3.4906585040017646e-05,-3.101380250170552
51.127819548872175,0.6096736807991949,0.5734487417611267,-10.708363,-0.008395000000000152,0.055989,0.021759,-0.0014835298641951,-0.0016406094968746,-3.1020958526171616
52.130325814536334,0.6096736910966375,0.5734484211441432,-10.698591,-0.010211999999999666,0.0011800000000000005,0.060561000000000004,-0.0002268928027592,-0.0034732052114687,-3.097453154633809
53.1328320802005,0.6096737005214155,0.5734480977346328,-10.739743,-0.00021700000000013375,-0.054016,0.027302000000000003,0.0032637657012293,-0.0042236967898261,-3.0918855543199477
54.13533834586466,0.6096736984270203,0.5734477741505895,-10.775792,0.013365999999999989,-0.042383,-0.033242,0.0076096355386952,-0.0024783675378319,-3.090943059070578
55.13784461152882,0.6096736886531765,0.5734474535336058,-10.765201,0.014791999999999916,0.010980999999999998,-0.044249000000000004,0.0004363323129985,-0.0009948376736366,-3.0946608372701285
56.14035087719298,0.6096736794029315,0.5734471364072807,-10.729123,-0.004445999999999728,0.036019,-0.004719999999999995,-0.0024085543677521,-0.0010995574287564,-3.098256093356189
57.14285714285714,0.609673680624662,0.5734468170120276,-10.704268,-0.01687700000000003,0.02325,0.019593999999999997,0.0044680428851054,-0.0006632251157578,-3.0984654281466733
58.1453634085213,0.6096736879550448,0.5734464937770501,-10.700676,-0.007557000000000258,-0.002028000000000002,0.018815,-0.0029496064358704,0.0008901179185172,-3.097174059033123
59.14786967418546,0.6096736916202363,0.5734461689712764,-10.708206,0.00472600000000023,-0.024181,0.0001299999999999999,-0.0006806784082777,0.0029146998508304,-3.096004653527701
60.15037593984962,0.6096736895258411,0.5734458464344306,-10.703848,0.00998399999999977,-0.01599,-0.020311,0.0054977871437821,0.0054628805587422,-3.095515978790436
61.15288220551378,0.6096736841153205,0.5734455277373093,-10.679586,0.009028999999999954,0.008716,-0.012871,0.006457718232379,0.0065100781099389,-3.0964059919891977
62.15538847117794,0.6096736788793327,0.5734452092147206,-10.653621,0.000456000000000234,0.01378,0.006769000000000001,0.0061959188445798,0.0057246799465413,-3.0972787264283648
63.1578947368421,0.6096736797519974,0.5734448899940005,-10.636463,-0.0070190000000001085,0.0008029999999999999,0.008726999999999999,-0.0003141592653589,0.004921828490624,-3.097418265502062
64.16040100250626,0.609673680450129,0.5734445683298194,-10.620701,-0.010445999999999955,-0.014682,-0.006644999999999998,0.0032288591161895,0.0048869219055842,-3.096092007256764
65.16290726817043,0.6096736774830693,0.5734442450948418,-10.588116,-0.006473999999999869,-0.0032430000000000002,-0.027035000000000003,0.002460914245312,0.0065100781099389,-3.0972265236304377
66.16541353383458,0.6096736778321351,0.5734439223834632,-10.53782,0.012939999999999952,0.028268,0.002926000000000005,-0.0100705497840072,0.0054628805587422,-3.1007344434407287
67.16791979949875,0.609673680450129,0.573443600719282,-10.51357,0.010749999999999815,0.008758000000000002,0.041024,0.0076619954162551,0.0013962634015955,-3.1008742443138138
68.1704260651629,0.6096736820209253,0.5734432813240289,-10.525149,-0.006069000000000102,-0.028291,0.018709,0.0075572756611354,-0.0017104226669544,-3.0975753974946185
69.17293233082707,0.6096736807991949,0.5734429600089137,-10.528322,-0.009668999999999706,-0.014164,-0.031096,-0.0001396263401595,-0.0023038346126325,-3.0964235849080577
70.17543859649122,0.6096736788793327,0.5734426367739361,-10.497598,0.0013319999999996668,0.028647,-0.020684,-0.0044680428851054,-0.0027227136331111,-3.099338406931936
71.17794486215539,0.6096736801010632,0.5734423156333539,-10.467077,0.00658000000000003,0.015053999999999998,0.018430000000000002,0.0005585053606381,-0.0045029494701454,-3.100856668848246
72.18045112781954,0.6096736835917217,0.5734419976343641,-10.464487,0.005579000000000001,-0.018177,0.029672999999999998,0.0063180918922194,-0.0076619954162551,-3.100036416459686
73.1829573934837,0.6096736828935899,0.5734416785881769,-10.482234,-0.006539999999999768,-0.020659999999999998,0.003944000000000001,0.0037699111843077,-0.009494591130849,-3.098064351484565
74.18546365914787,0.609673680624662,0.5734413584947919,-10.487952,-0.007842999999999822,0.012452,-0.021402,-0.0019896753472735,-0.0099832833214075,-3.0990590495318617
75.18796992481202,0.6096736816718594,0.5734410349107487,-10.4779,0.00540699999999994,0.037907,-0.0009100000000000002,-0.0051312680008633,-0.0105592419745657,-3.101205542712427
76.19047619047619,0.609673687431446,0.5734407132465676,-10.487479,0.011644999999999683,-0.003357000000000006,0.033461,0.0048694686130641,-0.0130725160974374,-3.0988843420737373
77.19298245614034,0.6096736910966375,0.5734403952475778,-10.524179,-0.0015540000000000553,-0.047306,0.010789,0.0082205007768932,-0.0156206968053491,-3.0949226192046355
78.19548872180451,0.6096736869078473,0.5734400765504565,-10.547212,-0.008866999999999958,-0.018004,-0.029309,0.0020071286397934,-0.0157428698529886,-3.094608372672813
79.19799498746866,0.6096736792283985,0.57343975575894,-10.542977,-0.008766000000000052,0.033053,-0.01752,-0.0008377580409572,-0.0135612082879958,-3.09731359810682
80.20050125313283,0.6096736795774644,0.5734394333966271,-10.539304,0.0039010000000003764,0.036936,0.017192,-0.003385938748869,-0.011990411961201,-3.0981338679486723
81.203007518797,0.6096736888277093,0.5734391110343142,-10.564449,0.014125999999999639,-0.002715000000000002,0.030445000000000003,0.0023212879051524,-0.012932889757278,-3.0963711203107427
82.20551378446115,0.6096736958090264,0.5734387930353245,-10.609174,0.007894999999999985,-0.032833,0.005041999999999998,0.0058643062867009,-0.0149051118120315,-3.092199800851769
83.20802005012531,0.6096736952854276,0.5734384759089993,-10.643511,-0.0064229999999998455,-0.024753,-0.019868,0.0066322511575784,-0.0157254165604687,-3.08963411449146
84.21052631578947,0.609673687605979,0.5734381565137464,-10.651873,-0.012048000000000059,-0.0035689999999999993,-0.026285000000000003,0.0052359877559829,-0.0148527519344716,-3.089442372619836
85.21303258145363,0.6096736811482608,0.5734378325806372,-10.643209,-0.005096999999999685,0.015679,-0.005096,-0.0034906585039886,-0.0144513262065129,-3.091623754932148
86.21553884711778,0.609673680624662,0.5734375103928573,-10.643624,0.004916999999999838,0.017827,0.020923,-0.0012740903539558,-0.0153414441250301,-3.0943638869511942
87.21804511278195,0.6096736834171887,0.5734371885541432,-10.672853,0.006867999999999874,-0.003665999999999999,0.028323,0.006754424205218,-0.0169995069144246,-3.093962810289086
88.22055137844612,0.6096736830681229,0.5734368689843572,-10.717286,0.0013399999999998968,-0.019941,-0.0009989999999999999,0.0024085543677521,-0.0182212373908208,-3.0924616002395684
89.22305764411027,0.6096736795774644,0.5734365499381698,-10.748582,-0.0023799999999996047,0.0013350000000000002,-0.016991000000000003,0.0008377580409572,-0.0192509816494974,-3.093316741759875
90.22556390977444,0.6096736774830693,0.573436229844785,-10.766677,-0.0014280000000002069,0.019271,-0.0050019999999999995,0.0006806784082777,-0.0189891822616983,-3.0958478007878245
91.2280701754386,0.609673678181201,0.5734359090532685,-10.789086,0.002813999999999872,0.007776,0.010084,0.0007679448708775,-0.0176801853227024,-3.0964235849080577
92.23057644110276,0.6096736794029315,0.5734355887853508,-10.823308,0.0011689999999999756,-0.012613,0.012615000000000001,0.0031590459461097,-0.0170344134994646,-3.095550867922183
93.23308270676692,0.6096736802755961,0.573435268517433,-10.86343,-0.0035759999999998016,-0.013205,-0.004461,0.003996803987067,-0.0149749249821113,-3.0954462005269407
94.23558897243107,0.609673678006668,0.573434946678719,-10.891603,-0.0028440000000000687,0.003084,-0.015394000000000001,-0.0033510321638291,-0.0128805298797181,-3.097941846824368
95.23809523809524,0.60967367573774,0.5734346239673402,-10.901956,0.0015420000000001544,0.017838,-0.018339,0.002443460952792,-0.0106639617296853,-3.1007344434407287
96.2406015037594,0.6096736774830693,0.5734343036994225,-10.904165,0.007169999999999899,0.015857000000000003,0.004378,0.0015533430342749,-0.0100356431989674,-3.1023403208854883
97.24310776942356,0.6096736821954583,0.5734339843041694,-10.920262,-0.0015070000000001471,-0.011647000000000001,0.016008,0.0043633231299858,-0.0098436569812478,-3.101572271294856
98.24561403508773,0.6096736827190571,0.5734336645598506,-10.9429,-0.007966999999999835,-0.022375,-0.006293,0.0018151424220741,-0.0082205007768931,-3.0997048562616847
99.24812030075188,0.6096736814973265,0.5734333432447352,-10.947041,-0.004764999999999908,0.008871,-0.024557000000000002,-0.0009773843811168,-0.0054628805587422,-3.100088619257613
100.25062656641605,0.6096736814973265,0.5734330205333564,-10.936004,0.006097000000000019,0.029647,-2.599999999999998e-05,-0.0031590459461097,-0.0031939525311495,-3.101607160426604
101.2531328320802,0.6096736877805119,0.5734327006145046,-10.941515,0.009170999999999818,-1.5000000000001124e-05,0.027602,-0.0002094395102393,-0.0028972465583105,-3.100420179455615
102.25563909774436,0.6096736917947692,0.5734323815683173,-10.967982,-0.0004729999999999457,-0.034342,0.004132999999999998,0.0114319066005628,-0.0025481807079117,-3.097156483567555
103.25814536340852,0.6096736900494399,0.5734320607768009,-10.976338,-0.004633999999999805,-0.014839000000000001,-0.036367,5.235987755982988e-05,5.2359877559915446e-05,-3.0959870780621337
104.26065162907268,0.6096736863842485,0.5734317403343501,-10.952227,-0.0023810000000001885,0.020228,-0.016247,-0.0028972465583105,0.0019722220547535,-3.0980465142196096
105.26315789473684,0.6096736860351826,0.5734314195428336,-10.928663,-0.006441999999999837,0.009138,0.009814000000000003,-0.0016755160819145,0.0044854961776255,-3.0983261334190715
106.265664160401,0.609673687431446,0.5734310970059879,-10.914661,0.0032249999999995893,-0.007429000000000002,0.007125999999999999,-0.0017278759594743,0.0071383966406568,-3.097767401165631
107.26817042606515,0.6096736891767752,0.5734307751672737,-10.900239,0.0035560000000001146,-0.008927,-0.009503,0.0059166661642607,0.008325220532013,-3.096894684179756
108.27067669172932,0.6096736881295777,0.5734304545502902,-10.871544,0.0035840000000000316,0.005901,-0.013149000000000001,0.0053232542185827,0.0093724180832095,-3.097261133509505
109.27318295739347,0.6096736870823802,0.5734301339333066,-10.840826,-0.0005310000000000592,0.0012240000000000003,0.009652,-0.003385938748869,0.0092327917430501,-3.0975929729601868
110.27568922305764,0.6096736860351826,0.5734298126181914,-10.823477,-0.00710199999999972,-0.015255000000000001,0.010863999999999999,0.0009773843811168,0.0093724180832095,-3.096632902245249
111.2781954887218,0.6096736820209253,0.5734294918266748,-10.805824,-0.0005429999999999602,-0.004421,-0.010821999999999998,0.0028274333882308,0.0109955742875642,-3.0976454375575013
112.28070175438596,0.6096736790538656,0.5734291705115595,-10.775275,0.009157999999999777,0.014227,-0.009780999999999998,-0.0023387411976724,0.0111701072127636,-3.100577311448172
113.28320802005013,0.6096736771340034,0.5734288504181747,-10.746516,0.00378299999999987,0.011333,0.013862999999999997,0.0001047197551196,0.0093026049131297,-3.1035270226037968
114.28571428571428,0.6096736764358718,0.573428529975724,-10.730725,-0.012002999999999986,-0.010461999999999999,0.003483,0.0037350045992678,0.008918632477691,-3.104382425923492
115.28822055137844,0.6096736748650754,0.5734282074388782,-10.702505,-0.010540999999999912,-0.009548000000000001,-0.023978000000000003,-0.0054105206811824,0.0102101761241668,-3.105638905905295
116.2907268170426,0.6096736724216144,0.5734278838548349,-10.646639,0.0023940000000002293,0.024154000000000002,-0.024648999999999997,-0.0058643062867009,0.011711159280882,-3.1088155273169726
117.29323308270676,0.609673675912273,0.5734275609689233,-10.587539,0.01444999999999963,0.04048,0.022413000000000002,-0.001832595714594,0.0107163216072452,-3.1108573705555886
118.29573934837092,0.6096736872569132,0.5734272403519397,-10.573821,0.005943000000000254,-0.003570999999999998,0.054949,0.0009948376736367,0.0068940505453776,-3.107506320938467
119.29824561403508,0.6096736938891643,0.5734269209566866,-10.598404,-0.002683000000000213,-0.049629,0.012468,0.0078190750489345,0.0034732052114687,-3.101676921236806
120.30075187969923,0.6096736905730387,0.5734266008633018,-10.606564,-0.00787799999999983,-0.033169,-0.038849,0.008307767239493,0.0021642082724731,-3.100088619257613
121.3032581453634,0.6096736820209253,0.5734262779773902,-10.568131,-0.0020299999999999763,0.014886,-0.037269,-0.0061086523819801,0.0019547687622336,-3.1033874835301
122.30576441102755,0.6096736769594705,0.5734259557896103,-10.514144,0.0035319999999998686,0.036938,0.007940999999999997,-0.0046600291028248,-0.0008377580409573,-3.1068429212897835
123.30827067669172,0.6096736802755961,0.5734256349980937,-10.48867,0.005285000000000206,0.022423,0.04124,-0.0031764992386296,-0.0057595865315811,-3.105865816161347
124.31077694235589,0.6096736900494399,0.5734253138575114,-10.510427,-0.000468000000000135,-0.008032999999999998,0.044829,0.0047123889803846,-0.0112399203828434,-3.1014851793651816
125.31328320802004,0.6096736942382301,0.573424992542396,-10.558186,-0.0038800000000001056,-0.040459999999999996,0.0027760000000000007,0.0056723200689815,-0.0146258591317123,-3.096720255974312
126.3157894736842,0.6096736902239729,0.5734246710527479,-10.582824,0.0026960000000002537,-0.029897999999999997,-0.039771,0.0025481807079117,-0.0152716309549503,-3.0959870780621337
127.31829573934836,0.6096736823699912,0.5734243492140338,-10.570828,-0.0010889999999998956,0.020384,-0.022988,-0.0025830872929516,-0.0152541776624304,-3.099146124008244
128.32080200501252,0.6096736801010632,0.5734240278989184,-10.562186,-0.006072000000000077,0.036266,0.029918,-0.0034382986264288,-0.0167900674041854,-3.101380250170552
129.32330827067668,0.6096736835917217,0.5734237055366056,-10.598619,-0.00464600000000015,-0.009407,0.045355000000000006,-0.0005061454830783,-0.0193906079896568,-3.10035040119212
130.32581453634086,0.609673684987985,0.5734233819525624,-10.661705,0.005272999999999861,-0.031757,0.0007529999999999967,0.0038222710618675,-0.0203156324932138,-3.099128810342064
131.328320802005,0.6096736816718594,0.5734230594157166,-10.707423,0.009765999999999941,0.0040170000000000015,-0.023357000000000003,0.0022514747350726,-0.0203505390782539,-3.101781588632048
132.33082706766916,0.6096736762613388,0.5734227389732659,-10.736686,0.002435000000000187,0.024396,-0.006291999999999999,-0.0034906585039886,-0.0201061929829746,-3.1056564988241555
133.33333333333331,0.609673675912273,0.5734224204506775,-10.763517,5.100000000002325e-05,0.006491,-0.0011079999999999979,-5.421926498478528e-20,-0.0183783170235001,-3.107279689935095
134.3358395989975,0.6096736787047997,0.5734221008808914,-10.787663,-0.0031409999999998384,-0.0033889999999999997,-0.004580000000000001,0.0013439035240356,-0.0166329877715059,-3.107593674667529
135.33834586466165,0.6096736794029315,0.5734217809620394,-10.807468,-0.008561000000000263,-0.0027939999999999996,-0.0052759999999999994,-0.0008203047484373,-0.0143291531588733,-3.1067734222789696
136.3408521303258,0.6096736816718594,0.5734214585997266,-10.824155,-0.008455000000000101,0.007256,-0.00047600000000000073,-0.0016929693744344,-0.0113446401379631,-3.10569137050261
137.34335839598998,0.6096736842898535,0.5734211343175517,-10.836551,0.0034010000000002094,0.0066370000000000005,-0.008671,-0.0027925268031909,-0.0069464104229373,-3.105534255963346
138.34586466165413,0.6096736869078473,0.5734208110825741,-10.845337,0.015604000000000173,-0.005196000000000003,0.002053000000000001,0.0032463124087094,-0.0042411500823462,-3.1045917607139764
139.34837092731829,0.6096736881295777,0.5734204897674589,-10.858862,0.0061869999999997205,-0.024249999999999997,0.0038829999999999993,0.0041713369122664,-0.0040317105721068,-3.103352594398353
140.35087719298244,0.6096736853370509,0.5734201681032777,-10.865308,-0.0078990000000001,-0.013842,-0.020418,0.0029496064358704,-0.0023911010752322,-3.1035094471382294
141.35338345864662,0.6096736813227935,0.5734198464390966,-10.844698,-0.007191999999999865,0.024339,-0.023274,-0.0017802358370342,-0.0002443460952792,-3.1063718220180854
142.35588972431077,0.6096736818463924,0.573419523378652,-10.813119,-0.008392999999999873,0.031709,0.00042000000000000023,-0.0028274333882308,0.0010471975511967,-3.106947850484413
143.35839598997492,0.6096736893513082,0.5734192006672734,-10.79145,0.003349999999999742,0.007550000000000001,0.018375,-0.0011519173063162,0.0023212879051526,-3.104853542648483
144.36090225563908,0.6096736977288887,0.5734188774322958,-10.789934,0.00611600000000001,-0.027365000000000004,0.012932,0.0048694686130641,0.0022165681500327,-3.100856668848246
145.36340852130326,0.6096737003468825,0.5734185562917136,-10.789341,0.007780000000000342,-0.021537,-0.009909000000000001,0.0004537856055185,0.0023387411976725,-3.097750104952744
146.3659147869674,0.6096736972052899,0.5734182363728616,-10.778424,0.003230999999999984,-0.0004540000000000004,-0.006049999999999999,-0.0007330382858376,0.0016231562043547,-3.0978720685608727
147.36842105263156,0.6096736921438349,0.5734179162794768,-10.765062,-0.0021409999999999485,-0.005607999999999999,0.0006829999999999996,0.0040142572795869,-0.0002268928027591,-3.0980989788169246
148.37092731829574,0.6096736879550448,0.5734175949643615,-10.744724,-0.010506000000000348,-0.0007980000000000001,-0.015555,0.0019547687622336,-0.0010471975511965,-3.0984654281466733
149.3734335839599,0.6096736860351826,0.5734172706821864,-10.708343,-0.009172999999999654,0.026482,-0.009554999999999998,-0.0078539816339744,0.0005410520681183,-3.10024575125017
150.37593984962405,0.6096736886531765,0.5734169464000115,-10.680064,-0.00124800000000036,0.017681,0.024062999999999994,-0.0010297442586766,0.0015533430342751,-3.1004553303867497
151.3784461152882,0.6096736938891643,0.5734166217687705,-10.681197,0.006657000000000135,-0.017574,0.024677,-0.0008028514559173,0.002460914245312,-3.097907219492008
152.38095238095238,0.6096736949363617,0.5734162994064577,-10.688299,0.017008000000000134,-0.023735,-0.011983,0.0037873644768276,0.0036477381366681,-3.096126896388512
153.38345864661653,0.6096736916202363,0.5734159796621388,-10.676027,0.005856999999999779,-0.0006700000000000005,-0.022532,0.0057246799465414,0.0023911010752322,-3.096667791376997
154.38596491228068,0.6096736883041106,0.5734156602668857,-10.647593,-0.009974999999999845,0.015251,-0.004527000000000003,0.0011344640137963,0.001850049007114,-3.098081665150745
155.3884711779449,0.6096736860351826,0.5734153391263033,-10.623583,-0.017519000000000062,0.0009249999999999996,0.008540000000000002,-0.0035604716740684,0.0022340214425526,-3.097156483567555
156.39097744360902,0.6096736856861168,0.5734150171130563,-10.608237,-0.0018280000000001628,-0.006921,0.008646,-0.0010297442586766,0.0035430183815485,-3.0963711203107427
157.39348370927317,0.609673684987985,0.5734146928308812,-10.592495,0.009368000000000265,0.002033,-0.012925,0.0015882496193148,0.0057944931166211,-3.096877387966869
158.39598997493732,0.6096736848134521,0.573414371690299,-10.565274,0.01887099999999986,0.018393,-0.0019819999999999977,-0.0010471975511965,0.0053930673886626,-3.0987623610123154
159.3984962406015,0.6096736869078473,0.5734140529931775,-10.548745,-0.0011999999999998678,-0.0007660000000000028,0.017175,6.98131700797732e-05,0.0029845130209102,-3.098552781875736
160.40100250626566,0.6096736884786436,0.5734137348196547,-10.54247,-0.013964000000000087,-0.025362,0.0011969999999999993,0.0072780229808163,0.0025307274153918,-3.096161785520259
161.4035087719298,0.6096736853370509,0.5734134117592103,-10.528057,-0.012229000000000045,-0.023752,-0.017132,0.0015009831567151,0.0049741883681839,-3.09511464032894
162.406015037594,0.6096736795774644,0.5734130871279695,-10.492037,0.0009320000000001549,0.015375,-0.019765,-0.0061086523819801,0.0081681408993334,-3.099163699473811
163.40852130325814,0.6096736773085364,0.5734127628457945,-10.443095,0.012566000000000077,0.048331,-0.0014259999999999967,-0.0046425758103049,0.0092676983280899,-3.104259921263295
164.4110275689223,0.6096736830681229,0.5734124424033438,-10.411086,0.009758999999999851,0.022398,0.030007,-0.0025307274153917,0.0077492618788548,-3.104015714794356
165.41353383458645,0.6096736937146313,0.5734121226590247,-10.407172,0.0007579999999998144,-0.023208,0.019811,0.0069464104229374,0.0073478361508962,-3.0998095236569267
166.41604010025063,0.6096736984270203,0.5734118020420412,-10.411665,-0.007403999999999744,-0.042363,-0.004812,0.0036477381366681,0.0089535390627308,-3.095515978790436
167.41854636591478,0.6096736935400984,0.57341148037786,-10.390457,-0.003455000000000208,-0.019383,-0.040029,0.001832595714594,0.0120602251312809,-3.0954810896586884
168.42105263157893,0.6096736858606496,0.5734111574919484,-10.330515,0.0021439999999999237,0.022576000000000002,-0.02974899999999999,-0.0045727626402251,0.0131597825600373,-3.098343447085252
169.4235588972431,0.6096736827190571,0.5734108356532344,-10.260564,-0.00757399999999997,0.034945000000000004,0.009757999999999996,-0.00307177948351,0.0106988683147253,-3.100001265528551
170.42606516290726,0.6096736870823802,0.5734105127673227,-10.212046,-0.006168999999999869,0.014339999999999999,0.024847999999999995,0.0016406094968746,0.0087790061375314,-3.0981863150926947
171.42857142857142,0.6096736975543557,0.5734101905795428,-10.191828,0.00642900000000024,-0.009181000000000002,0.028988000000000003,-0.0054105206811824,0.0071907565182167,-3.095062175731625
172.43107769423557,0.6096737031394093,0.5734098669954995,-10.191529,0.012976999999999794,-0.029573,0.008549,0.0005235987755982,0.0062482787221398,-3.091658923316576
173.43358395989975,0.6096737020922118,0.5734095481238451,-10.187117,0.012338999999999878,-0.028898,-0.012065,0.0090757121103705,0.0035604716740684,-3.090192584945513
174.4360902255639,0.6096736933655654,0.5734092301248555,-10.168829,-0.011782999999999877,-0.011147,-0.017486,0.0050963614158234,0.000314159265359,-3.0911177665287024
175.43859649122803,0.6096736855115839,0.5734089096824049,-10.130046,-0.018298999999999843,0.024732,-0.017542,-0.003665191429188,-8.726646259971105e-05,-3.0935438963620223
176.44110275689223,0.6096736841153205,0.5734085850511639,-10.085707,-0.009209000000000245,0.043386999999999995,0.008306999999999995,-0.004590215932745,0.001239183768916,-3.0955860188533184
177.4436090225564,0.6096736926674338,0.5734082590236597,-10.066825,0.012891999999999904,0.015676000000000002,0.039696,-0.0027227136331111,0.0004014257279587,-3.094119680482255
178.44611528822054,0.609673701743146,0.5734079370104127,-10.088304,0.017867999999999995,-0.037857,0.03218,0.0050440015382636,-0.0025656340004316,-3.0893025542934582
179.4486215538847,0.6096737013940801,0.5734076177896925,-10.119019,0.007103999999999999,-0.044365,-0.013974999999999998,0.0088488193076112,-0.0056374134839416,-3.0863528256845405
180.45112781954887,0.6096736912711704,0.573407299092571,-10.124506,-0.010248999999999953,-0.004866999999999996,-0.027969,-0.0023387411976724,-0.0077841684638946,-3.0880633879778348
181.45363408521305,0.6096736794029315,0.5734069789991862,-10.101681,-0.017726999999999826,0.028853999999999998,-0.025505000000000003,-0.0037175513067479,-0.0068416906678177,-3.092339619178146
182.4561403508772,0.609673678006668,0.5734066547170111,-10.066183,-0.002283000000000257,0.043851,0.002930000000000002,-0.0084997534572123,-0.0049741883681837,-3.096318917512816
183.45864661654133,0.6096736860351826,0.5734063299112374,-10.057014,0.0075390000000004065,0.008035,0.042137,0.0013613568165555,-0.0043458698374658,-3.094905305538455
184.4611528822055,0.6096736933655654,0.5734060063271941,-10.088189,0.0021409999999999485,-0.037154,0.03136,0.0047647488579445,-0.0052359877559828,-3.0905068314773345
185.4636591478697,0.6096736914457034,0.5734056837903483,-10.126332,0.003273999999999777,-0.039278,-0.020269,0.0034732052114687,-0.0060039326268603,-3.089773932817837
186.46616541353384,0.6096736828935899,0.5734053617771013,-10.129624,0.01161700000000021,0.020626,-0.035205,-0.0030368728984701,-0.0089360857702109,-3.0948874682735004
187.468671679198,0.6096736769594705,0.5734050420327823,-10.118128,0.0020809999999999995,0.031878,0.009209,0.0019198621771937,-0.0149923782746312,-3.097680064889861
188.47117794486212,0.609673680624662,0.5734047219393976,-10.126219,-0.012826000000000004,-0.003702999999999998,0.022466,0.0059166661642607,-0.0208741378538521,-3.096214250117574
189.4736842105263,0.6096736853370509,0.5734043978317555,-10.149208,-0.01414900000000019,-0.007996,0.005546000000000002,-0.0043807764225057,-0.025220007691318,-3.094695726401876
190.47619047619045,0.6096736877805119,0.5734040719787841,-10.176828,-0.0011670000000001401,0.005687,0.0066779999999999964,-0.0039618974020271,-0.0281347075421485,-3.09485284094114
191.47869674185463,0.6096736872569132,0.5734037475220762,-10.217871,0.010687000000000335,0.0031000000000000003,0.022015,0.0023212879051524,-0.0318697121414164,-3.094311684153267
192.4812030075188,0.6096736877805119,0.5734034246361646,-10.287653,0.008772999999999698,-0.02349,0.028586000000000007,0.0003665191429188,-0.0354650904005247,-3.09265360391058
193.4837092731829,0.6096736865587814,0.5734031040191809,-10.37382,-0.0004659999999998554,-0.021197,0.0021719999999999934,0.002740166925631,-0.0368264472170802,-3.092810735903137
194.48621553884712,0.6096736788793327,0.5734027825295328,-10.447709,-0.005238999999999994,0.00041000000000000064,-0.024027,0.0072780229808163,-0.0362504885639221,-3.095131936541827
195.48872180451127,0.6096736731197462,0.5734024592945552,-10.494737,-0.003191000000000166,0.029107,-0.022479,0.001518436449235,-0.0338419341961699,-3.098657711070365
196.49122807017545,0.6096736732942791,0.5734021357105119,-10.533488,-0.002742999999999718,0.034189,0.009507000000000002,-0.0097912971036881,-0.0308923277602994,-3.1011360437016124
197.4937343358396,0.6096736799265302,0.5734018129991333,-10.595369,0.0021679999999997257,-0.0006120000000000014,0.026941,0.0058992128717408,-0.028623399732707,-3.1008742443138138
198.49624060150376,0.609673685162518,0.57340148941509,-10.677207,0.00418300000000027,-0.034293,0.007611000000000007,0.00307177948351,-0.0256563400043166,-3.0995650379353075
199.4987468671679,0.6096736827190571,0.5734011665291783,-10.746607,-0.001898999999999873,-0.028194,-0.03087100000000001,-0.0003141592653589,-0.0200712863979346,-3.100280902181306
200.5012531328321,0.6096736773085364,0.573400847657524,-10.774478,0.022385999999999573,0.039355,-0.034534999999999996,-0.0334579617607312,-0.0059515727493006,-3.089651689957027
201.50375939849624,0.609673671025351,0.573400535069055,-10.756442,0.11031200000000019,-0.07796900000000001,-0.096447,0.0885056463686324,0.0697608102022133,-2.9337939099269814
202.5062656641604,0.6096736284393174,0.5734002552927758,-10.652039,0.21068599999999993,-0.373908,-0.01253499999999999,0.1585980691287247,0.0591666616426078,-2.6655715184942745
203.50877192982452,0.6096735565317521,0.5734000116448122,-10.561808,0.27119000000000004,-0.352834,-0.02187800000000001,0.0918392252399416,0.0720820981073657,-2.4288527214857947
204.5112781954887,0.6096734062589035,0.5733998228001872,-10.426844,0.32972,-0.25594399999999995,-0.04087199999999999,0.1096939434878436,0.0696560904470937,-2.1862690945918373
205.51378446115288,0.6096731929796689,0.5733996873626372,-10.273053,0.3527870000000001,-0.14831400000000006,0.013019000000000003,0.1171814059788993,0.0565486677646163,-1.953773802386965
206.51629072681703,0.6096729596291479,0.5733996032377673,-10.160965,0.32381899999999997,-0.11013899999999999,0.05849099999999999,0.1390852880914281,0.0417482757077043,-1.7384529689007375
207.5187969924812,0.6096727110942625,0.5733995674585176,-10.088992,0.301244,-0.07100200000000001,0.01460800000000001,0.1020319480715885,0.0398109602379908,-1.5366924186780029
208.5213032581453,0.6096724541817965,0.5733995801994212,-10.017116,0.322038,0.008896999999999933,-0.0023420000000000107,0.1059589388885757,0.0363203017340021,-1.3295565510650973
209.52380952380952,0.6096721950004026,0.5733996432058072,-9.945396,0.362417,-0.013399999999999856,0.005035000000000012,0.0355174502780846,0.0308748744677798,-1.158933145936839
210.52631578947367,0.6096719295358234,0.5733997515907537,-9.875727,0.24052099999999998,-0.05202499999999999,-0.009160000000000001,0.0480663675999238,0.0321838714067754,-1.0920350596803323
211.52882205513785,0.6096716516794065,0.5733999043070632,-9.800696,0.13593100000000002,-0.07679000000000014,0.005202999999999999,0.0142593399887936,0.0275238423039505,-1.0807603025256187
212.531328320802,0.6096713577659605,0.5734000830287787,-9.743898,0.10044299999999995,-0.102155,0.019319999999999997,0.0155683369277894,0.0249233017184791,-1.084024277666358
213.53383458646616,0.6096710420358987,0.5734002685572782,-9.691837,0.09435199999999999,-0.10718800000000006,-0.011049000000000003,0.0121998514714403,0.0260228591472355,-1.086554813095532
214.5363408521303,0.6096707053618861,0.5734004629869568,-9.614786,0.07655400000000001,-0.06868299999999983,-0.026722000000000003,0.0172438530097039,0.0237888377046828,-1.0832908379547928
215.5388471177945,0.6096703568196344,0.573400663525288,-9.536516,0.047368999999999994,-0.039622000000000046,0.032362,0.0114319066005628,0.0102799892942466,-1.078508862697132
216.54135338345864,0.6096700014705988,0.573400868601475,-9.517287,0.044884000000000146,-0.07201000000000013,0.067248,0.001221730476396,-0.0010646508437164,-1.077165028986266
217.5438596491228,0.6096696326825278,0.5734010796117816,-9.533627,0.04752299999999998,-0.10814799999999991,-0.009083999999999998,-0.0031415926535897,1.74532925198978e-05,-1.0760827328638112
218.54636591478692,0.6096692464411643,0.5734012967307405,-9.497931,0.03522399999999992,-0.05056400000000005,-0.07489,0.0015707963267948,-0.0009773843811167,-1.072278141987267
219.54887218045116,0.6096688542656814,0.5734015176894238,-9.432258,0.027576999999999963,0.021638999999999964,0.04067099999999999,0.0045378560551852,-0.020577431881013,-1.070498080683157
220.55137844611528,0.6096684640100606,0.5734017430114302,-9.464367,0.024660000000000126,-0.04367300000000007,0.115642,-0.0135961148730358,-0.0322711378693751,-1.0723127518663331
221.55388471177943,0.6096680685184521,0.573401972173161,-9.554745,0.03316299999999983,-0.08870099999999992,-0.010299000000000003,-0.0088313660150913,-0.0224449341806469,-1.073342339045378
222.5563909774436,0.6096676594132755,0.5734022063963466,-9.599244,0.012851000000000168,-0.032709999999999795,-0.053387,-0.003665191429188,-0.018709929581379,-1.0723127518663331
223.55889724310777,0.60966724262865,0.5734024395723348,-9.621711,-0.0015880000000001449,0.0127609999999998,0.017637,-0.0114842664781226,-0.026476644752754,-1.0723649546642602
224.56140350877192,0.6096668284620187,0.5734026725737899,-9.681567,0.0071830000000001615,-0.013732000000000077,0.038992000000000006,-0.0045378560551852,-0.0288677458279862,-1.0745641916948216
225.56390977443607,0.6096664139463213,0.5734029066224425,-9.755377,0.01072099999999998,-0.043456999999999635,-0.01358100000000001,-0.0098611102737679,-0.0221307749152881,-1.0760129546003168
226.56641604010025,0.6096659908785105,0.5734031424164245,-9.802196,0.007236999999999938,-0.03409300000000037,-0.029431,-0.0114144533080429,-0.0171216799620643,-1.0771820808530577
227.5689223057644,0.6096655601312512,0.5734033799557356,-9.826335,0.007598999999999911,-0.016980999999999913,-0.015416999999999997,-0.0075049157835756,-0.016615534478986,-1.07819461616531
228.57142857142856,0.6096651283367942,0.5734036167969152,-9.845602,-0.0046519999999998785,0.010766000000000275,0.009919,-0.0124965574442794,-0.0183434104384603,-1.07887531202688
229.5739348370927,0.6096647002075287,0.5734038525908972,-9.900725,0.0037000000000000366,0.0020739999999999092,0.051893,-0.0081157810217736,-0.0196698606699761,-1.080253773070105
230.5764411027569,0.609664272427329,0.5734040882103462,-9.984211,0.006697999999999871,-0.040245000000000086,-0.010583999999999996,-0.0168773338667851,-0.0083077672394928,-1.0819821551750632
231.57894736842104,0.6096638371422136,0.5734043269713878,-10.015614,-0.005579000000000001,-0.0038960000000001216,-0.079652,-0.0156206968053492,0.0008028514559175,-1.0818772434337254
232.5814536340852,0.6096634048241579,0.5734045622417709,-9.984695,-0.004637000000000002,0.040297999999999945,-0.028018,-0.01230457122656,-0.003665191429188,-1.0822964191601765
233.58395989974937,0.6096629759967607,0.5734047950686932,-9.970942,-0.008993000000000029,-0.0007699999999997154,0.050196000000000005,-0.0090931654028904,-0.0104894288044858,-1.0856120560467748
234.58646616541355,0.6096625478674952,0.573405028942813,-9.999398,-0.007816999999999963,-0.030521999999999938,0.02354,-0.0209439510239319,-0.0081332343142934,-1.087794241210543
235.58897243107768,0.6096621153749066,0.5734052614206694,-10.026853,-0.00882499999999986,-0.012710000000000221,-0.025414,-0.0120253185462409,-0.0011519173063161,-1.0904467577011403
236.59147869674183,0.6096616785189948,0.5734054925022624,-10.019448,-0.004543000000000186,0.02380300000000002,-0.031225999999999997,-0.0131074226824774,0.0006108652381979,-1.091615883953881
237.593984962406,0.6096612481208012,0.5734057230602565,-10.005224,0.007464000000000137,0.025536000000000225,0.019035,-0.0082205007768932,-0.0048171087355042,-1.0909703390234455
238.59649122807016,0.6096608220859308,0.5734059544909152,-10.018623,-0.008253999999999984,-0.018659000000000425,0.020852,-0.0073129295658562,-0.0041713369122664,-1.093902474713503
239.59899749373432,0.6096603916877372,0.5734061852234424,-10.039338,-0.006725000000000092,-0.026759999999999895,-0.0033480000000000003,-0.0164759081388264,-0.0003665191429187,-1.0959445797515068
240.6015037593985,0.6096599579734182,0.5734064157814367,-10.040408,0.0033650000000000624,-0.0014259999999999273,-0.033535999999999996,-0.0097738438111682,0.0037000980142281,-1.0962236753521932
241.60401002506265,0.6096595235609673,0.5734066456412991,-10.010484,-0.011591000000000129,0.016138000000000208,-0.020466,-0.0102974425867665,0.0006632251157578,-1.0990514228996893
242.6065162907268,0.6096590942099713,0.5734068735812994,-9.976819,-0.008535999999999877,0.021583999999999826,0.016832,-0.0089360857702109,-0.0060562925044203,-1.101424843789599
243.60902255639093,0.609658670444029,0.57340709855424,-9.984262,-0.002518999999999938,-0.01252899999999979,0.057664,-0.008918632477691,-0.0104719755119659,-1.1035543025566643
244.61152882205516,0.6096582381259732,0.573407322479983,-10.022587,-0.012738000000000138,-0.043321000000000165,-0.014421999999999997,-0.0138928208458748,-0.0013962634015953,-1.1068358531629718
245.6140350877193,0.6096578003973968,0.5734075457075943,-10.018222,-0.014511999999999858,0.0102850000000001,-0.043798000000000004,-0.0063879050622992,0.0023911010752322,-1.1091213792717511
246.61654135338344,0.6096573616216229,0.5734077663172119,-10.000615,-0.004265000000000185,0.018966999999999956,0.018577999999999997,-0.0077492618788548,-0.003665191429188,-1.1105877176428136
247.6190476190476,0.6096569294781,0.5734079879740268,-10.009382,0.011030000000000095,-0.01199400000000006,0.017522,-0.0028623399732707,-0.0034208453339088,-1.1119491093659548
248.62155388471177,0.6096564966364456,0.5734082117252368,-10.011659,-0.01041599999999998,-0.010543999999999887,-0.032907,-0.0094073246682494,0.0004712388980385,-1.1122809488166363
249.62406015037595,0.6096560620494619,0.5734084325093873,-9.970521,-0.031007999999999925,0.017735999999999752,-0.03724,-0.0086917396749317,-0.0007155849933175,-1.1150559525141372
250.62656641604008,0.6096556318258012,0.5734086489302146,-9.935852,-0.013239,0.009837000000000096,0.053326000000000005,-0.0054628805587422,-0.0133168621927166,-1.1194720194941186
251.62907268170423,0.609655209979721,0.5734088573225272,-9.971128,-0.10512800000000011,0.13197800000000015,0.048503,0.0685216264332973,0.0490612052735606,-1.1309731458528154
252.6315789473684,0.6096548263563514,0.5734090468652839,-9.819423,-0.07604600000000006,0.21360099999999993,-0.473198,0.0523947841448697,0.3013485311960484,-1.1041300692236051
253.63408521303256,0.6096544842718181,0.5734092318701848,-9.246156,-0.02496699999999996,0.15301299999999984,-0.21308699999999997,0.0170169602069446,0.331944152983509,-1.096468161073812
254.63659147869672,0.6096541660982954,0.5734093985491283,-8.60512,-0.027967000000000075,0.07130800000000015,-0.012044000000000055,-0.009808750396208,0.3398505119483359,-1.0942689240432524
255.6390977443609,0.6096538713121847,0.5734095716857901,-7.954988,-0.004801999999999973,0.01926300000000003,-0.0070749999999999424,0.0103323491718064,0.3459940534620633,-1.0925762164682054
256.64160401002505,0.6096535615162425,0.5734097498839067,-7.281759,0.02456400000000003,0.02679599999999982,-0.040715999999999974,0.0126361837844389,0.3506017226873286,-1.0885793426679682
257.64411027568923,0.6096532504985698,0.5734099324453464,-6.570389,0.0276590000000001,0.046833000000000125,-0.025339,0.0063006385996995,0.3502875808752619,-1.0836924382156763
258.6466165413533,0.6096529485566091,0.5734101207663728,-5.854343,0.005462999999999996,0.027671,0.02264299999999997,0.0102276294166868,0.3466747318703411,-1.07980049361007
259.64912280701753,0.609652648010912,0.5734103092619319,-5.179466,-0.009432000000000107,-0.021513000000000115,0.04160200000000003,0.0025307274153918,0.3438473159354027,-1.0762744747354351
260.6516290726817,0.6096523425782929,0.5734104946158984,-4.512043,-0.006596999999999964,-0.014397999999999911,-0.031704000000000065,0.001221730476396,0.3474601649403237,-1.0765019085902632
261.65413533834584,0.6096520429052603,0.5734106827623919,-3.802001,0.06063700000000005,0.17208599999999996,-0.013708999999999971,0.0374896723328382,0.3509682767368323,-0.9899859201156112
262.65664160401,0.6096517886107883,0.573410892550968,-3.157753,0.1769909999999999,0.24104300000000012,0.12317299999999998,0.0060737457969402,0.3410722424247319,-0.8058709453365122
263.65914786967414,0.6096515632887818,0.5734110974526222,-2.596971,0.035295999999999994,0.1876,0.004529000000000005,-0.0004886921905584,0.3298672286269284,-0.643188561412025
264.6616541353383,0.6096513882322578,0.5734113267888858,-2.021303,0.10494300000000001,0.16689999999999994,0.03683400000000003,0.1342856326484437,0.261432851202938,-0.5566203701394471
265.6641604010025,0.6096512232986435,0.5734115636300654,-1.543976,0.028604000000000074,0.09576699999999994,0.12071199999999999,-0.009826203688728,0.2045002284561756,-0.5293235079047183
266.66666666666663,0.6096511054889191,0.57341180972149,-1.162897,-0.02712800000000004,0.12665300000000002,0.06924799999999998,-0.0029321531433504,0.1693492973210097,-0.5198463875196817
267.6691729323308,0.6096510030380919,0.5734120647140937,-0.837281,0.09618900000000008,0.10572199999999998,0.04216700000000001,0.0063704517697792,0.183416651092084,-0.5460614772307316
268.671679197995,0.6096509098375099,0.5734123097583206,-0.592601,-0.22280500000000014,-0.051443999999999934,0.172372,-0.0257436064669163,0.1868025898409531,-0.527647852196463
269.6741854636591,0.6096508267598376,0.5734125277499442,-0.421725,-0.16232999999999986,0.240292,-0.134746,-0.0155334303427495,0.1054876999905372,-0.4643274640137415
270.6766917293233,0.6096507674186429,0.5734127162455034,-0.273404,0.09423399999999993,-0.08813000000000004,0.47537300000000005,0.0218689755274889,-0.0102625360017265,-0.5237383321252882
271.6791979949875,0.6096506494343855,0.5734129146894393,-0.522204,0.021780000000000133,-0.10717499999999996,0.01125000000000001,-0.0523424242673099,0.0934798347368164,-0.556411052802255
272.6817042606516,0.6096506122588725,0.57341311400604,-0.659846,-0.33089500000000016,0.18798499999999996,-0.17641900000000002,0.0395317075576715,0.027122416575992,-0.4815362708120656
273.6842105263158,0.6096504989870041,0.5734132752744628,-0.444009,0.06527400000000005,0.07925200000000004,-0.34239200000000003,0.0566708408122558,0.0431096325242599,-0.5517334831404485
274.68671679198,0.6096504838026395,0.5734134340994247,-0.339004,0.03981900000000005,0.17435099999999998,0.39027,0.0646644487863899,0.1022413875818279,-0.5146803874667029
275.6892230576441,0.6096504557028385,0.5734136100286134,-0.545755,-0.05222199999999999,-0.21547899999999998,0.14071,-0.0385892297615946,0.1009149373503122,-0.5151512249390139
276.69172932330827,0.6096503829226088,0.5734137828162092,-0.620522,-0.07760300000000009,-0.14262200000000003,-0.291301,0.0106988683147252,0.1070584963173322,-0.5243140987922282
277.6942355889724,0.6096502829152427,0.5734139329145249,-0.427383,0.0035730000000000484,0.18979200000000002,-0.19067100000000003,0.0041887902047863,0.1059589388885757,-0.5200035020589457
278.69674185463657,0.609650242249071,0.5734140943574808,-0.184511,0.06235199999999996,0.304326,0.11227800000000002,0.0437728576400178,0.0874584488174359,-0.5133365537558376
279.69924812030075,0.6096502298572334,0.5734142566731012,-0.371716,-0.08040200000000008,-0.117903,0.527351,-0.0321489648217355,0.0976860782341226,-0.5083447201089168
280.7017543859649,0.6096502078660848,0.5734144052006205,-0.552067,-0.15706999999999993,-0.27093100000000003,-0.45552099999999995,-0.0710523538486891,0.1001644457719546,-0.5082397909142868
281.70426065162906,0.6096501544590096,0.5734145483176193,-0.396466,0.170157,0.226145,-0.03322800000000001,0.1044579557318606,0.093305301811617,-0.5064943569425371
282.70676691729324,0.6096501148400357,0.5734147015575275,-0.336836,-0.030721,0.119177,0.100853,-0.0300720230118622,0.1355247989640671,-0.5019217164753595
283.70927318295736,0.6096500801079835,0.5734148293156287,-0.398859,-0.26744999999999997,-0.20414000000000002,-0.0015000000000000005,-0.0780685774417063,0.0700924227600923,-0.4862138579271653
284.71177944862154,0.6096500637018886,0.5734149720835616,-0.403638,0.24586399999999997,0.07140200000000002,0.062395,0.0822748209390127,0.0601265927312046,-0.5078035633210435
285.7142857142857,0.609650004360694,0.5734151015869922,-0.382423,-0.078202,-0.072078,-0.10719300000000001,-0.0267035375555132,0.0791332282854229,-0.5125333357807771
286.71679197994985,0.6096499870819344,0.5734152508126431,-0.360509,-0.0065870000000000095,0.218664,0.035597000000000004,-0.0023911010752322,0.0148527519344718,-0.4991642707901331
287.719298245614,0.6096499591566664,0.5734153876464565,-0.372597,-0.03038799999999997,-0.073784,0.050251,0.0315555528760574,0.049602257341679,-0.5082046399831511
288.7218045112781,0.6096499403071104,0.573415503187253,-0.324588,-0.15152600000000005,-0.125363,-0.257771,-0.0689928653313358,0.0136310214580757,-0.5097237047509168
289.72431077694233,0.6096499233774167,0.5734156382757372,-0.179493,0.23167400000000005,0.216332,0.295567,0.0647517152489896,0.0466177443207687,-0.5239124985313446
290.7268170426065,0.609649894754017,0.5734157578307909,-0.317858,-0.23897599999999997,-0.193889,0.034891000000000005,0.0109781209950443,0.0452214809191731,-0.498797821460384
291.72932330827064,0.6096498677014136,0.5734158829708982,-0.30842,0.20294299999999998,0.11723399999999999,-0.187629,0.0170169602069447,-0.0526216769476288,-0.5299866283007203
292.7318295739348,0.6096498565313063,0.5734160332437468,-0.259037,-0.03995000000000004,-0.025930999999999996,0.054244,0.1152091839241457,0.0258832328070759,-0.5378232439086379
293.734335839599,0.6096498331438944,0.5734161379635019,-0.27933,-0.317005,-0.118806,0.082889,-0.0659908990179056,-0.011676252695842,-0.5021315748646188
294.7368421052631,0.609649801378902,0.5734162550750947,-0.25154,0.338959,0.221952,-0.21358,0.0620639082009183,-0.0060213859193802,-0.545625249637488
295.7393483709273,0.6096497823548132,0.5734163487992755,-0.150361,-0.26698999999999995,-0.095832,0.018749000000000016,0.0480489143074038,0.0093026049131297,-0.4663519935861775
296.7418546365915,0.6096498142943384,0.5734164781281731,-0.140923,0.17243299999999995,0.224163,0.329076,-0.00923279174305,-0.0247662220857993,-0.4929681599593361
297.7443609022556,0.6096497795622864,0.5734165800554014,-0.392501,-0.13056599999999996,-0.428058,0.08610500000000001,-0.0006457718232379,-0.003351032163829,-0.4528428484697689
298.7468671679198,0.609649764377922,0.57341669332727,-0.335117,0.065963,0.17519099999999999,-0.662853,0.0306305283725004,-0.0212406569967709,-0.457555569062711
299.749373433584,0.6096497380234501,0.5734168174201798,-0.090152,0.11765599999999998,0.353616,0.469671,0.1077391747256099,0.0268955237732326,-0.4331381161213372
300.7518796992481,0.6096497647269876,0.5734169214418031,-0.31336,-0.37131400000000003,-0.25276699999999996,0.057023000000000004,-0.0719599250597262,-0.004276056667386,-0.3953169708569605
301.7543859649123,0.6096497849728071,0.5734170177839778,-0.321838,0.26041800000000004,-0.005828,-0.169382,0.0173136661797837,-0.0724486172502845,-0.3964520108294105
302.7568922305764,0.609649759316467,0.5734171392588938,-0.231536,0.18828299999999998,-0.017195000000000002,-0.062465999999999994,0.0995710338262765,0.0196000474998963,-0.4348483991619523
303.7593984962406,0.6096497652505865,0.573417264573534,-0.306682,-0.39968000000000004,0.009606000000000003,0.300037,-0.0567755605673755,0.0453262006742927,-0.3498163245239312
304.7619047619048,0.6096497261552112,0.5734173624865051,-0.212001,0.1759360000000001,-0.072968,-0.624737,0.0275412955964705,-0.0604232987040436,-0.3850025462165719
305.7644110275689,0.6096497299949356,0.5734174684279907,-0.032277,0.11516099999999996,0.454104,0.613075,0.1579522973054869,0.0589223155473286,-0.337407068448836
306.76691729323306,0.6096497786896217,0.5734175652937642,-0.351624,-0.280373,-0.356385,0.02060999999999999,-0.1540951196585794,-0.0392350015848323,-0.2927090990387991
307.76942355889724,0.6096497560003414,0.5734176689663218,-0.385665,0.159242,-0.129947,-0.403169,-0.0495149908790791,-0.018151424220741,-0.3016104527568955
308.77192982456137,0.6096497607127305,0.5734177696718196,-0.186139,0.03783499999999995,0.331832,0.09464900000000001,0.1935570140461711,0.0221656815003281,-0.2578722922624073
309.77443609022555,0.6096497486699586,0.5734178705518503,-0.180465,-0.15082299999999993,-0.08822799999999999,0.10393000000000001,-0.119712133394291,-0.0028099800957108,-0.2422342119777083
310.77694235588973,0.6096497910814594,0.5734179813802579,-0.203801,0.14567999999999992,-0.015109999999999998,-0.0025200000000000014,-0.0431270858167798,-0.017505652397503,-0.2513273075674285
311.77944862155385,0.6096498055676922,0.5734180822602887,-0.254901,-0.05000199999999999,-0.08165,0.035686,0.0831649388575298,-0.0017627825445141,-0.2080258982649596
312.78195488721803,0.6096498228464519,0.5734181941358937,-0.267984,-0.07829900000000001,0.08928699999999999,-0.057878,0.003665191429188,0.0180816110506614,-0.1971175904399953
313.7844611528822,0.6096498029496984,0.5734182731993088,-0.221712,-0.016513,-0.00026500000000000135,-0.051812000000000004,0.0213802833369305,-0.0263195651200744,-0.1974664643041752
314.78696741854634,0.6096498383798821,0.573418373032142,-0.223245,0.09723900000000008,0.09906999999999999,0.17184100000000002,0.0325503905496942,0.0020420352248333,-0.1891936211030149
315.7894736842105,0.6096498474555943,0.57341846658179,-0.311992,-0.07488300000000003,-0.256949,-0.128805,-0.0648738882966292,-0.0105417886820455,-0.1740791221406221
316.79197994987464,0.6096498567058393,0.5734185802027243,-0.197508,0.09341199999999994,0.150775,-0.139316,0.0629016662418756,0.0006806784082777,-0.1874657625968334
317.7944862155388,0.6096498678759465,0.5734186683418515,-0.186699,-0.17797299999999994,0.22941999999999999,0.285833,0.0562345084992573,0.01228711793404,-0.1369210972722483
318.796992481203,0.609649917966896,0.5734187664293554,-0.304514,0.17273899999999998,-0.27526999999999996,-0.07678800000000001,-0.0492182849062401,-0.0693768377667745,-0.1466427033789046
319.7994987468672,0.6096499240755484,0.5734188592808716,-0.394664,-0.09292699999999998,-0.119923,-0.007969000000000004,0.0087440995524915,0.0498640567294781,-0.1162219461292004
320.8020050125313,0.6096499437977689,0.573418963651561,-0.327283,0.06845000000000001,0.296962,-0.199556,0.1371654259142344,-0.0368089939245603,-0.1184558104921207
321.8045112781955,0.6096499080185194,0.5734190683713161,-0.155293,0.08667599999999998,-0.149927,0.057844000000000007,-0.0479791011373241,0.0310145008079392,-0.0997630724038736
322.8070175438596,0.6096499619491932,0.573419170996676,-0.205189,-0.20492999999999995,0.20476900000000003,0.142121,0.0099309234438477,-0.016249015336067,-0.1062382962886492
323.8095238095238,0.6096499923179223,0.5734192696077788,-0.138249,0.1298459999999999,-0.010121000000000047,-0.126168,0.0738099740668402,-0.0339466539512895,-0.0701274166115955
324.812030075188,0.6096500560224398,0.5734193701387438,-0.327808,-0.04213199999999995,-0.258304,0.467653,-0.0167202542341056,0.0506494548928755,-0.0833217915974063
325.8145363408521,0.6096499219811534,0.5734193125428784,-0.517233,-0.09407600000000005,-0.251899,-0.584236,-0.0772657259857889,-0.0447327887286146,-0.0412246769321067
326.8170426065163,0.609649920410357,0.5734193563506427,-0.162722,0.24419500000000005,0.641922,-0.082652,0.2093871503617597,-0.0167377075266255,-0.0651180249523986
327.8195488721804,0.6096499794024857,0.5734194462350991,-0.137413,-0.185739,-0.09882000000000002,0.441893,-0.0606676447993228,-0.0216420827247296,0.0259704992696756
328.8220551378446,0.6096500675416129,0.5734195204115923,-0.309045,0.06404199999999993,-0.023258999999999974,0.08783800000000003,-0.0605105651666434,-0.0502654824574366,0.0101054563690471
329.8245614035088,0.60965009302342,0.5734195989514086,-0.509915,-0.13832999999999995,-0.37128700000000003,-0.295479,0.0695164641069341,-0.0095818575934487,0.0685914396033771
330.8270676691729,0.6096501268828075,0.5734196654484531,-0.214814,0.10695900000000003,0.41077600000000003,-0.233629,0.0525344104850293,-0.0470017167562071,0.0757298362440339
331.8295739348371,0.6096501658036498,0.5734197658048852,-0.195946,-0.07218400000000003,-0.180684,0.383091,0.0286408530252269,0.0419751685104636,0.1376017582272329
332.83208020050125,0.6096502370130833,0.5734198282876724,-0.235776,0.03916799999999998,0.090639,-0.05187100000000001,0.0850498944496837,-0.0382052573261557,0.1637118838370681
333.8345864661654,0.609650270348872,0.5734199225354519,-0.27507,0.05737700000000001,-0.05677599999999999,-0.023465999999999997,-0.0090058989402907,-0.0068242373752978,0.1856506725346368
334.8370927318296,0.6096503366713836,0.573419997061011,-0.340756,-0.16604199999999997,0.044354000000000005,-0.014234000000000002,0.0112399203828434,0.0016231562043547,0.2376091069132155
335.83959899749374,0.6096503789083515,0.573420062336325,-0.214404,0.026982999999999924,0.086,-0.231411,0.0299673032567426,-0.0525693170700691,0.2798286215189584
336.84210526315786,0.6096504464525936,0.5734201543151766,-0.206391,0.14136000000000004,-0.10445100000000002,0.48372499999999996,0.0608596310170422,0.0600393262686049,0.2987654613563893
337.84461152882204,0.6096503804791479,0.5734202784080865,-0.462601,-0.26128,-0.14550999999999997,-0.21840899999999996,-0.0427431133813411,-0.0393397213399522,0.3466573134844062
338.8471177944862,0.6096503879840637,0.5734203962178109,-0.235295,0.39943600000000007,0.375366,-0.31527900000000003,0.0398458668230305,-0.0720471915223259,0.3776543435465331
