Time [s],Longitude [rad],Latitude [rad],Altitude [m],V North [m/s],V East [m/s],V Down [m/s],Roll [rad],Pitch [rad],Yaw [rad]
2.0050125313283207,0.6096736935400984,0.5734644601963702,-10.715885,-0.0055799999999997,-0.020632,0.0109530000000001,0.0008552113334772,0.0084823001646925,3.1344716229751937
3.007518796992481,0.6096737211163006,0.573464141150183,-10.706233,-0.011279,-0.0356869999999999,-0.012648,0.0046425758103049,0.0073303828583761,-3.130754124028324
4.010025062656641,0.6096737385695931,0.5734638194860018,-10.678985,0.0040209999999999005,0.0015189999999999024,-0.036139,0.0130201562198776,0.0070860367630969,-3.1138244128306862
5.012531328320802,0.6096737472962394,0.5734634962510243,-10.623218,0.0059490000000001,0.038021,0.014268999999999997,0.0068242373752978,0.0035779249665883,-3.101083579104297
6.015037593984962,0.6096737544520894,0.5734631730160469,-10.570864,0.0101839999999997,0.0219089999999999,0.043177,-0.0027227136331111,0.0002268928027593,-3.0900706038840906
7.017543859649122,0.6096737607352747,0.5734628532717279,-10.565763,0.0015610000000001994,-0.0329339999999999,0.035475999999999897,0.0122173047639603,-0.00609119908946,-3.0787782712638103
8.020050125313283,0.6096737628296697,0.5734625354472711,-10.608986,-0.015346,-0.043855,-0.038304999999999895,0.0144687794990329,-0.0103847090493662,-3.067067286515853
9.022556390977442,0.6096737516595625,0.5734622165756168,-10.643324,-0.0052669999999999,0.021594999999999996,-0.0556709999999999,0.0059341194567807,-0.0105941485596054,-3.061621649810121
10.025062656641603,0.6096737322864078,0.5734618961331661,-10.632156,0.008144999999999701,0.057984,-0.007820000000000098,0.0022689280275926,-0.0089535390627308,-3.0640999998946605
11.027568922305765,0.6096737179747079,0.5734615760397812,-10.603238,0.0002050000000003,0.026062000000000002,0.047262999999999895,0.0053930673886624,-0.0095469510084089,-3.06886492328553
12.030075187969924,0.6096737116915226,0.573461254899199,-10.596615,-0.0004310000000002893,-0.021983000000000003,0.023022000000000098,0.0028274333882308,-0.010419615634406,-3.0709765447876403
13.032581453634084,0.6096737087244629,0.5734609323623532,-10.620914,-0.0017379999999995108,-0.023556999999999998,-0.003661000000000001,0.0073478361508961,-0.0107861347773248,-3.07108147398227
14.035087719298245,0.6096737029648763,0.5734606110472378,-10.661548,-0.0029790000000003,-0.0097979999999999,-0.021785,0.0053407075111026,-0.0089884456477706,-3.071412772380884
15.037593984962406,0.6096736916202363,0.5734602895575897,-10.691954,0.0068049999999999,0.007901,-0.023862,0.0038222710618675,-0.0052185344634629,-3.075304978785879
16.040100250626566,0.6096736790538656,0.5734599671952768,-10.695365,0.0045800000000002,0.0165379999999998,-0.011768999999999898,0.0051312680008633,-0.0012391837689158,-3.0821817854782467
17.042606516290725,0.6096736691054889,0.5734596479745566,-10.670823,-0.0009450000000002,0.0264780000000001,0.014784999999999899,0.0060213859193804,0.0008726646259973,-3.0904543668800195
18.045112781954884,0.6096736666620279,0.5734593282302376,-10.64589,-0.015826,-0.004935999999999999,0.031211,0.0014835298641951,0.000628318530718,-3.095795336190509
19.047619047619047,0.6096736671856267,0.573459007787787,-10.641478,-0.0036259999999997006,-0.032213,0.006734,0.0010646508437165,-8.726646259971105e-05,-3.0972265236304377
20.050125313283207,0.6096736684073571,0.5734586849018753,-10.643428,0.0111149999999998,-0.0093329999999999,-0.034378,0.0059515727493006,0.0017453292519944,-3.0989019175393047
21.052631578947366,0.6096736677092255,0.5734583607942332,-10.627099,0.0170150000000001,0.0263219999999999,-0.001934,0.0005235987755982,0.0021991148575128,-3.103335018932785
22.05513784461153,0.6096736694545547,0.5734580389555192,-10.607635,-0.00032699999999999917,0.011533999999999999,0.025948,0.0002268928027592,-0.0002443460952792,-3.106825625076896
23.05764411027569,0.6096736764358718,0.5734577207819965,-10.605637,-0.0157430000000004,-0.0222080000000001,0.006861000000000001,0.0094945911308491,-0.0037000980142278,-3.1049233209119778
24.06015037593985,0.6096736834171887,0.5734574022594081,-10.61278,-0.0101599999999995,-0.0197269999999999,-0.017696,0.0077143552938149,-0.0052534410485027,-3.100420179455615
25.062656641604008,0.6096736865587814,0.5734570805952269,-10.616152,0.0035749999999997,0.0017050000000000017,-0.004572,0.0028972465583105,-0.0056374134839416,-3.097470730099377
26.065162907268167,0.6096736858606496,0.5734567557894531,-10.613294,0.0090250000000002,0.008099,-0.0010769999999999998,0.0039269908169872,-0.0050090949532237,-3.09638869577631
27.06766917293233,0.6096736844643862,0.5734564334271403,-10.604094,0.011636999999999901,0.016354,0.0015209999999999998,0.0005585053606381,-0.0051312680008632,-3.097941846824368
28.07017543859649,0.6096736856861168,0.5734561140318871,-10.601252,-0.0032109999999998997,0.0078939999999999,0.021891,0.0049916416607037,-0.0077318085863347,-3.0994779634589253
29.07268170426065,0.6096736890022423,0.5734557956838316,-10.623626,-0.0145910000000001,-0.021507999999999798,0.0096789999999999,0.0007853981633974,-0.0105068820970057,-3.097610286626366
30.07518796992481,0.6096736921438349,0.5734554766376444,-10.660575,-0.0088469999999999,-0.021689000000000097,-0.033468999999999804,0.0064053583548191,-0.0106465084371654,-3.0947130226147634
31.07769423558897,0.609673691969302,0.5734551541007986,-10.670613,0.0121159999999998,0.0234260000000001,-0.0326140000000001,0.0053930673886624,-0.0087266462599715,-3.094835265475573
32.08020050125313,0.609673689700374,0.5734548306912882,-10.644892,0.008131,0.0332799999999998,0.017719000000000002,-0.0035604716740684,-0.0071558499331767,-3.096528234850008
33.08270676691729,0.6096736954599605,0.5734545100743046,-10.625714,0.0006960000000001002,-0.008,0.051695,0.0003141592653589,-0.0077841684638946,-3.095707982461448
34.08521303258145,0.6096737040120739,0.5734541913771831,-10.650726,-0.007811000000000201,-0.050577999999999804,0.012573000000000004,0.0051661745859032,-0.0089186324776908,-3.0911702311260174
35.08771929824561,0.6096737048847386,0.5734538716328642,-10.696466,0.0009240000000004001,-0.019993000000000097,-0.047575000000000006,0.0072082098107365,-0.008569566627292,-3.0868069079960314
36.09022556390977,0.609673694761829,0.5734535520630781,-10.715149,0.0090129999999998,0.035578000000000096,-0.035761,0.0049392817831439,-0.0071034900556168,-3.0876620495163385
37.092731829573935,0.6096736830681229,0.5734532337150225,-10.699828,-0.005732000000000001,0.0369279999999999,0.021764,0.004293509959906,-0.0081332343142934,-3.091780886924705
38.095238095238095,0.6096736773085364,0.5734529143197694,-10.684242,-0.019615999999999998,0.003214999999999999,0.031058,-0.0013264502315156,-0.0098960168588078,-3.095306382200564
39.097744360902254,0.6096736802755961,0.5734525926555883,-10.686674,0.0035389999999999987,-0.012832999999999999,0.004746,0.0047996554429844,-0.0095644043009288,-3.0975929729601868
40.100250626566414,0.6096736846389191,0.5734522680243475,-10.702311,0.0195980000000001,-0.019974,-0.0094100000000001,-0.0038222710618675,-0.0075921822461753,-3.0983956498831784
41.10275689223057,0.609673687605979,0.5734519461856333,-10.722018,0.0079789999999997,-0.008529,-0.0064549999999999,0.0063355451847394,-0.0076445421237349,-3.0986225426859377
42.10526315789473,0.6096736855115839,0.5734516269649131,-10.743366,-0.0105979999999999,0.003823,0.00127,0.0085695666272921,-0.0100880030765271,-3.0990414566130013
43.10776942355889,0.6096736801010632,0.5734513082677918,-10.76382,-0.0171749999999998,-0.000928,-0.009758,0.0002443460952792,-0.0106814150222052,-3.0997048562616847
44.11027568922306,0.609673673643345,0.5734509866036106,-10.765826,0.003302999999999801,0.021751,-0.020542,0.0023387411976724,-0.0071907565182165,-3.1029685696030365
45.11278195488722,0.6096736729452132,0.5734506631941002,-10.743466,0.0155760000000002,0.032747,0.014026000000000101,-0.000296705972839,-0.0034033920413889,-3.1071571852748976
46.11528822055138,0.6096736813227935,0.5734503417044521,-10.728624,0.0052720000000001,-0.007566000000000003,0.0416569999999999,-0.0027052603405912,-0.0028099800957108,-3.108065053191908
47.11779448621554,0.6096736935400984,0.5734500230073306,-10.755054,-0.0088290000000004,-0.06006499999999999,0.012444,0.0035604716740684,-0.0031241393610697,-3.102619416486175
48.1203007518797,0.6096737008704812,0.5734497039611434,-10.80161,-0.005707,-0.036766999999999994,-0.045732,0.0111352006277238,-0.0025132741228717,-3.097522932897304
49.122807017543856,0.6096736949363617,0.5734493836932256,-10.812875,0.0056020000000004,0.033169,-0.052675,0.0054454272662223,-0.000558505360638,-3.097540508362872
50.125313283208015,0.6096736837662546,0.5734490623781103,-10.766129,0.0005399999999996003,0.068358,0.015789000000000004,-0.0028797932657906,3.4906585040017646e-05,-3.101380250170552
51.127819548872175,0.6096736807991949,0.5734487417611267,-10.708363,-0.0109799999999999,0.015258999999999995,0.06373999999999999,-0.0014835298641951,-0.0016406094968746,-3.1020958526171616
52.130325814536334,0.6096736910966375,0.5734484211441432,-10.698591,-0.0018169999999994996,-0.054809,0.038801999999999996,-0.0002268928027592,-0.0034732052114687,-3.097453154633809
53.1328320802005,0.6096737005214155,0.5734480977346328,-10.739743,0.009994999999999499,-0.055196,-0.033259,0.0032637657012293,-0.0042236967898261,-3.091885554319948
54.13533834586466,0.6096736984270203,0.5734477741505895,-10.775792,0.013583000000000001,0.011633000000000004,-0.060544,0.0076096355386952,-0.0024783675378319,-3.090943059070578
55.13784461152882,0.6096736886531765,0.5734474535336058,-10.765201,0.0014260000000000002,0.0533639999999999,-0.011006999999999996,0.0004363323129985,-0.0009948376736366,-3.0946608372701285
56.14035087719298,0.6096736794029315,0.5734471364072807,-10.729123,-0.019237999999999603,0.025038000000000102,0.0395290000000001,-0.0024085543677521,-0.0010995574287564,-3.098256093356189
57.14285714285714,0.609673680624662,0.5734468170120276,-10.704268,-0.0124310000000003,-0.012769000000000003,0.0243139999999998,0.0044680428851054,-0.0006632251157578,-3.0984654281466733
58.1453634085213,0.6096736879550448,0.5734464937770501,-10.700676,0.0093199999999998,-0.025278,-0.0007789999999999013,-0.0029496064358704,0.0008901179185172,-3.097174059033123
59.14786967418546,0.6096736916202363,0.5734461689712764,-10.708206,0.0122830000000004,-0.022153000000000003,-0.018685000000000097,-0.0006806784082777,0.0029146998508304,-3.096004653527701
60.15037593984962,0.6096736895258411,0.5734458464344306,-10.703848,0.0052579999999995,0.008191,-0.0204409999999999,0.0054977871437821,0.0054628805587422,-3.095515978790436
61.15288220551378,0.6096736841153205,0.5734455277373093,-10.679586,-0.0009549999999997998,0.024706,0.007439999999999999,0.006457718232379,0.0065100781099389,-3.0964059919891977
62.15538847117794,0.6096736788793327,0.5734452092147206,-10.653621,-0.0085729999999997,0.005064000000000001,0.01964,0.0061959188445798,0.0057246799465413,-3.0972787264283648
63.1578947368421,0.6096736797519974,0.5734448899940005,-10.636463,-0.0074750000000003,-0.012977000000000101,0.0019579999999999,-0.0003141592653589,0.004921828490624,-3.097418265502062
64.16040100250626,0.609673680450129,0.5734445683298194,-10.620701,-0.0034269999999998,-0.0154849999999999,-0.015371999999999799,0.0032288591161895,0.0048869219055842,-3.096092007256764
65.16290726817043,0.6096736774830693,0.5734442450948418,-10.588116,0.0039720000000001,0.011439000000000001,-0.0203900000000001,0.002460914245312,0.0065100781099389,-3.0972265236304377
66.16541353383458,0.6096736778321351,0.5734439223834632,-10.53782,0.0194139999999997,0.031511000000000004,0.029961,-0.0100705497840072,0.0054628805587422,-3.1007344434407287
67.16791979949875,0.609673680450129,0.573443600719282,-10.51357,-0.0021900000000001,-0.01951,0.038098,0.0076619954162551,0.0013962634015955,-3.1008742443138138
68.1704260651629,0.6096736820209253,0.5734432813240289,-10.525149,-0.0168189999999999,-0.037049,-0.022314999999999998,0.0075572756611354,-0.0017104226669544,-3.0975753974946185
69.17293233082707,0.6096736807991949,0.5734429600089137,-10.528322,-0.0035999999999996,0.014127,-0.049805,-0.0001396263401595,-0.0023038346126325,-3.0964235849080577
70.17543859649122,0.6096736788793327,0.5734426367739361,-10.497598,0.0110009999999993,0.042811,0.010411999999999998,-0.0044680428851054,-0.0027227136331111,-3.099338406931936
71.17794486215539,0.6096736801010632,0.5734423156333539,-10.467077,0.0052480000000004,-0.013593000000000098,0.039113999999999996,0.0005585053606381,-0.0045029494701454,-3.100856668848246
72.18045112781954,0.6096736835917217,0.5734419976343641,-10.464487,-0.0010010000000000002,-0.0332309999999999,0.011242999999999902,0.0063180918922194,-0.0076619954162551,-3.100036416459686
73.1829573934837,0.6096736828935899,0.5734416785881769,-10.482234,-0.0121189999999997,-0.002482999999999902,-0.0257289999999999,0.0037699111843077,-0.009494591130849,-3.098064351484565
74.18546365914787,0.609673680624662,0.5734413584947919,-10.487952,-0.0013030000000001,0.0331119999999999,-0.025346,-0.0019896753472735,-0.0099832833214075,-3.0990590495318617
75.18796992481202,0.6096736816718594,0.5734410349107487,-10.4779,0.0132499999999997,0.025455000000000005,0.020492,-0.0051312680008633,-0.0105592419745657,-3.101205542712427
76.19047619047619,0.609673687431446,0.5734407132465676,-10.487479,0.0062379999999997,-0.041264,0.034371,0.0048694686130641,-0.0130725160974374,-3.0988843420737373
77.19298245614034,0.6096736910966375,0.5734403952475778,-10.524179,-0.0131989999999996,-0.043949,-0.022671999999999998,0.0082205007768932,-0.0156206968053491,-3.0949226192046355
78.19548872180451,0.6096736869078473,0.5734400765504565,-10.547212,-0.0073129999999998994,0.029302,-0.040098,0.0020071286397934,-0.0157428698529886,-3.094608372672813
79.19799498746866,0.6096736792283985,0.57343975575894,-10.542977,0.00010099999999989978,0.051057,0.011789,-0.0008377580409572,-0.0135612082879958,-3.09731359810682
80.20050125313283,0.6096736795774644,0.5734394333966271,-10.539304,0.0126670000000003,0.0038829999999999976,0.034712,-0.003385938748869,-0.011990411961201,-3.0981338679486723
81.203007518797,0.6096736888277093,0.5734391110343142,-10.564449,0.0102249999999993,-0.039651,0.013253000000000001,0.0023212879051524,-0.012932889757278,-3.0963711203107427
82.20551378446115,0.6096736958090264,0.5734387930353245,-10.609174,-0.0062309999999997,-0.030118000000000002,-0.0254030000000001,0.0058643062867009,-0.0149051118120315,-3.092199800851769
83.20802005012531,0.6096736952854276,0.5734384759089993,-10.643511,-0.0143179999999997,0.00808,-0.0249099999999999,0.0066322511575784,-0.0157254165604687,-3.08963411449146
84.21052631578947,0.609673687605979,0.5734381565137464,-10.651873,-0.005625000000000199,0.021184000000000102,-0.006416999999999999,0.0052359877559829,-0.0148527519344716,-3.089442372619836
85.21303258145363,0.6096736811482608,0.5734378325806372,-10.643209,0.0069510000000004,0.019247999999999897,0.021189,-0.0034906585039886,-0.0144513262065129,-3.091623754932148
86.21553884711778,0.609673680624662,0.5734375103928573,-10.643624,0.0100139999999994,0.0021480000000000006,0.026019,-0.0012740903539558,-0.0153414441250301,-3.0943638869511942
87.21804511278195,0.6096736834171887,0.5734371885541432,-10.672853,0.0019509999999999996,-0.021492999999999898,0.0074,0.006754424205218,-0.0169995069144246,-3.093962810289086
88.22055137844612,0.6096736830681229,0.5734368689843572,-10.717286,-0.005528,-0.016275000000000102,-0.0293219999999999,0.0024085543677521,-0.0182212373908208,-3.0924616002395684
89.22305764411027,0.6096736795774644,0.5734365499381698,-10.748582,-0.0037199999999994,0.021276,-0.0159920000000001,0.0008377580409572,-0.0192509816494974,-3.093316741759875
90.22556390977444,0.6096736774830693,0.573436229844785,-10.766677,0.0009519999999993999,0.017936,0.0119890000000001,0.0006806784082777,-0.0189891822616983,-3.0958478007878245
91.2280701754386,0.609673678181201,0.5734359090532685,-10.789086,0.004242,-0.011495,0.015085999999999898,0.0007679448708775,-0.0176801853227024,-3.0964235849080577
92.23057644110276,0.6096736794029315,0.5734355887853508,-10.823308,-0.0016449999999999002,-0.020388999999999997,0.0025310000000000003,0.0031590459461097,-0.0170344134994646,-3.095550867922183
93.23308270676692,0.6096736802755961,0.573435268517433,-10.86343,-0.0047449999999997,-0.0005920000000000005,-0.017076,0.003996803987067,-0.0149749249821113,-3.0954462005269407
94.23558897243107,0.609673678006668,0.573434946678719,-10.891603,0.0007319999999997997,0.016288999999999998,-0.010933,-0.0033510321638291,-0.0128805298797181,-3.097941846824368
95.23809523809524,0.60967367573774,0.5734346239673402,-10.901956,0.0043860000000001,0.014754,-0.0029450000000000014,0.002443460952792,-0.0106639617296853,-3.1007344434407287
96.2406015037594,0.6096736774830693,0.5734343036994225,-10.904165,0.0056279999999997,-0.001981,0.022717,0.0015533430342749,-0.0100356431989674,-3.1023403208854883
97.24310776942356,0.6096736821954583,0.5734339843041694,-10.920262,-0.0086769999999999,-0.027504,0.011630000000000001,0.0043633231299858,-0.0098436569812478,-3.101572271294856
98.24561403508773,0.6096736827190571,0.5734336645598506,-10.9429,-0.0064599999999997,-0.010728,-0.022301,0.0018151424220741,-0.0082205007768931,-3.0997048562616847
99.24812030075188,0.6096736814973265,0.5734333432447352,-10.947041,0.0032019999999999002,0.031246,-0.018264,-0.0009773843811168,-0.0054628805587422,-3.100088619257613
100.25062656641605,0.6096736814973265,0.5734330205333564,-10.936004,0.0108619999999999,0.020776,0.024530999999999997,-0.0031590459461097,-0.0031939525311495,-3.101607160426604
101.2531328320802,0.6096736877805119,0.5734327006145046,-10.941515,0.003073999999999801,-0.029662,0.027628,-0.0002094395102393,-0.0028972465583105,-3.100420179455615
102.25563909774436,0.6096736917947692,0.5734323815683173,-10.967982,-0.009643999999999701,-0.034326999999999996,-0.0234690000000001,0.0114319066005628,-0.0025481807079117,-3.097156483567555
103.25814536340852,0.6096736900494399,0.5734320607768009,-10.976338,-0.0041609999999999,0.019503,-0.0404999999999999,5.235987755982988e-05,5.2359877559915446e-05,-3.0959870780621337
104.26065162907268,0.6096736863842485,0.5734317403343501,-10.952227,0.0022529999999996997,0.035067,0.020119999999999996,-0.0028972465583105,0.0019722220547535,-3.0980465142196096
105.26315789473684,0.6096736860351826,0.5734314195428336,-10.928663,-0.0040609999999997,-0.01109,0.026061,-0.0016755160819145,0.0044854961776255,-3.0983261334190715
106.265664160401,0.609673687431446,0.5734310970059879,-10.914661,0.009666999999999301,-0.016567,-0.0026880000000001,-0.0017278759594743,0.0071383966406568,-3.097767401165631
107.26817042606515,0.6096736891767752,0.5734307751672737,-10.900239,0.0003310000000005999,-0.0014979999999999993,-0.0166289999999999,0.0059166661642607,0.008325220532013,-3.096894684179756
108.27067669172932,0.6096736881295777,0.5734304545502902,-10.871544,2.7999999999900067e-05,0.014828,-0.003646,0.0053232542185827,0.0093724180832095,-3.097261133509505
109.27318295739347,0.6096736870823802,0.5734301339333066,-10.840826,-0.004115,-0.004677,0.022801000000000002,-0.003385938748869,0.0092327917430501,-3.0975929729601868
110.27568922305764,0.6096736860351826,0.5734298126181914,-10.823477,-0.0065709999999996995,-0.016479,0.001211999999999899,0.0009773843811168,0.0093724180832095,-3.096632902245249
111.2781954887218,0.6096736820209253,0.5734294918266748,-10.805824,0.006558999999999799,0.010834,-0.0216859999999998,0.0028274333882308,0.0109955742875642,-3.0976454375575013
112.28070175438596,0.6096736790538656,0.5734291705115595,-10.775275,0.009700999999999599,0.018647999999999998,0.0010410000000000003,-0.0023387411976724,0.0111701072127636,-3.100577311448172
113.28320802005013,0.6096736771340034,0.5734288504181747,-10.746516,-0.005374999999999899,-0.0028940000000000007,0.023643999999999797,0.0001047197551196,0.0093026049131297,-3.1035270226037968
114.28571428571428,0.6096736764358718,0.573428529975724,-10.730725,-0.0157859999999997,-0.021794999999999898,-0.0103799999999999,0.0037350045992678,0.008918632477691,-3.104382425923492
115.28822055137844,0.6096736748650754,0.5734282074388782,-10.702505,0.0014619999999999998,0.000913999999999901,-0.027461,-0.0054105206811824,0.0102101761241668,-3.105638905905295
116.2907268170426,0.6096736724216144,0.5734278838548349,-10.646639,0.0129350000000001,0.033701999999999996,-0.0006709999999999008,-0.0058643062867009,0.011711159280882,-3.1088155273169726
117.29323308270676,0.609673675912273,0.5734275609689233,-10.587539,0.0120559999999994,0.016326000000000004,0.047061999999999896,-0.001832595714594,0.0107163216072452,-3.1108573705555886
118.29573934837092,0.6096736872569132,0.5734272403519397,-10.573821,-0.0085069999999994,-0.0440509999999999,0.032535999999999995,0.0009948376736367,0.0068940505453776,-3.107506320938467
119.29824561403508,0.6096736938891643,0.5734269209566866,-10.598404,-0.0086260000000004,-0.0460580000000001,-0.042481,0.0078190750489345,0.0034732052114687,-3.101676921236806
120.30075187969923,0.6096736905730387,0.5734266008633018,-10.606564,-0.0051949999999996,0.016460000000000002,-0.051317,0.008307767239493,0.0021642082724731,-3.100088619257613
121.3032581453634,0.6096736820209253,0.5734262779773902,-10.568131,0.0058479999999999,0.048055,0.001580000000000005,-0.0061086523819801,0.0019547687622336,-3.1033874835301
122.30576441102755,0.6096736769594705,0.5734259557896103,-10.514144,0.0055619999999997,0.022052,0.045209999999999896,-0.0046600291028248,-0.0008377580409573,-3.1068429212897835
123.30827067669172,0.6096736802755961,0.5734256349980937,-10.48867,0.0017530000000004,-0.014515,0.0332990000000001,-0.0031764992386296,-0.0057595865315811,-3.105865816161347
124.31077694235589,0.6096736900494399,0.5734253138575114,-10.510427,-0.0057530000000003,-0.0304559999999999,0.003589000000000002,0.0047123889803846,-0.0112399203828434,-3.1014851793651816
125.31328320802004,0.6096736942382301,0.573424992542396,-10.558186,-0.003412,-0.032427,-0.042053,0.0056723200689815,-0.0146258591317123,-3.096720255974312
126.3157894736842,0.6096736902239729,0.5734246710527479,-10.582824,0.0065760000000003,0.010561999999999998,-0.042547,0.0025481807079117,-0.0152716309549503,-3.0959870780621337
127.31829573934836,0.6096736823699912,0.5734243492140338,-10.570828,-0.003785,0.050281999999999896,0.016783,-0.0025830872929516,-0.0152541776624304,-3.099146124008244
128.32080200501252,0.6096736801010632,0.5734240278989184,-10.562186,-0.0049830000000002,0.015882,0.052906,-0.0034382986264288,-0.0167900674041854,-3.101380250170552
129.32330827067668,0.6096736835917217,0.5734237055366056,-10.598619,0.0014259999999999004,-0.045673,0.015437,-0.0005061454830783,-0.0193906079896568,-3.10035040119212
130.32581453634086,0.609673684987985,0.5734233819525624,-10.661705,0.0099189999999999,-0.022350000000000002,-0.0446020000000001,0.0038222710618675,-0.0203156324932138,-3.099128810342064
131.328320802005,0.6096736816718594,0.5734230594157166,-10.707423,0.004493000000000099,0.035774,-0.0241099999999999,0.0022514747350726,-0.0203505390782539,-3.101781588632048
132.33082706766916,0.6096736762613388,0.5734227389732659,-10.736686,-0.0073309999999997995,0.020379,0.0170650000000001,-0.0034906585039886,-0.0201061929829746,-3.1056564988241555
133.33333333333331,0.609673675912273,0.5734224204506775,-10.763517,-0.0023840000000000766,-0.017905,0.005184,-5.421926498478528e-20,-0.0183783170235001,-3.107279689935095
134.3358395989975,0.6096736787047997,0.5734221008808914,-10.787663,-0.0031919999999998235,-0.0098799999999999,-0.0034720000000001,0.0013439035240356,-0.0166329877715059,-3.107593674667529
135.33834586466165,0.6096736794029315,0.5734217809620394,-10.807468,-0.0054200000000004,0.000595,-0.0006959999999998998,-0.0008203047484373,-0.0143291531588733,-3.1067734222789696
136.3408521303258,0.6096736816718594,0.5734214585997266,-10.824155,0.0001060000000001008,0.0100499999999999,0.0047999999999999,-0.0016929693744344,-0.0113446401379631,-3.10569137050261
137.34335839598998,0.6096736842898535,0.5734211343175517,-10.836551,0.0118560000000003,-0.0006190000000000006,-0.008195,-0.0027925268031909,-0.0069464104229373,-3.105534255963346
138.34586466165413,0.6096736869078473,0.5734208110825741,-10.845337,0.012202999999999901,-0.011833,0.010724000000000001,0.0032463124087094,-0.0042411500823462,-3.1045917607139764
139.34837092731829,0.6096736881295777,0.5734204897674589,-10.858862,-0.0094170000000004,-0.0190539999999999,0.0018299999999998998,0.0041713369122664,-0.0040317105721068,-3.103352594398353
140.35087719298244,0.6096736853370509,0.5734201681032777,-10.865308,-0.0140859999999998,0.0104079999999999,-0.0243009999999999,0.0029496064358704,-0.0023911010752322,-3.1035094471382294
141.35338345864662,0.6096736813227935,0.5734198464390966,-10.844698,0.0007070000000003003,0.038181,-0.002856000000000001,-0.0017802358370342,-0.0002443460952792,-3.1063718220180854
142.35588972431077,0.6096736818463924,0.573419523378652,-10.813119,-0.0012009999999999998,0.0073700000000000015,0.023694,-0.0028274333882308,0.0010471975511967,-3.106947850484413
143.35839598997492,0.6096736893513082,0.5734192006672734,-10.79145,0.0117429999999995,-0.024159,0.017955,-0.0011519173063162,0.0023212879051526,-3.104853542648483
144.36090225563908,0.6096736977288887,0.5734188774322958,-10.789934,0.0027660000000003,-0.034915,-0.005442999999999998,0.0048694686130641,0.0022165681500327,-3.100856668848246
145.36340852130326,0.6096737003468825,0.5734185562917136,-10.789341,0.0016640000000002998,0.005828,-0.022841,0.0004537856055185,0.0023387411976725,-3.097750104952744
146.3659147869674,0.6096736972052899,0.5734182363728616,-10.778424,-0.0045490000000004,0.021083,0.0038590000000000993,-0.0007330382858376,0.0016231562043547,-3.0978720685608727
147.36842105263156,0.6096736921438349,0.5734179162794768,-10.765062,-0.0053719999999998005,-0.0051539999999999,0.0067329999999998,0.0040142572795869,-0.0002268928027591,-3.0980989788169246
148.37092731829574,0.6096736879550448,0.5734175949643615,-10.744724,-0.0083650000000004,0.0048099999999999,-0.0162379999999999,0.0019547687622336,-0.0010471975511965,-3.0984654281466733
149.3734335839599,0.6096736860351826,0.5734172706821864,-10.708343,0.0013330000000007,0.02728,0.006000000000000099,-0.0078539816339744,0.0005410520681183,-3.10024575125017
150.37593984962405,0.6096736886531765,0.5734169464000115,-10.680064,0.0079249999999993,-0.008801,0.0336179999999998,-0.0010297442586766,0.0015533430342751,-3.1004553303867497
151.3784461152882,0.6096736938891643,0.5734166217687705,-10.681197,0.007905000000000401,-0.035254999999999995,0.0006140000000001006,-0.0008028514559173,0.002460914245312,-3.097907219492008
152.38095238095238,0.6096736949363617,0.5734162994064577,-10.688299,0.010350999999999999,-0.006161,-0.03666,0.0037873644768276,0.0036477381366681,-3.096126896388512
153.38345864661653,0.6096736916202363,0.5734159796621388,-10.676027,-0.0111510000000004,0.023065,-0.010549,0.0057246799465414,0.0023911010752322,-3.096667791376997
154.38596491228068,0.6096736883041106,0.5734156602668857,-10.647593,-0.0158319999999995,0.015921,0.018005,0.0011344640137963,0.001850049007114,-3.098081665150745
155.3884711779449,0.6096736860351826,0.5734153391263033,-10.623583,-0.0075440000000002,-0.0143260000000001,0.013067,-0.0035604716740684,0.0022340214425526,-3.097156483567555
156.39097744360902,0.6096736856861168,0.5734150171130563,-10.608237,0.0156909999999999,-0.0078459999999999,0.00010599999999999846,-0.0010297442586766,0.0035430183815485,-3.0963711203107427
157.39348370927317,0.609673684987985,0.5734146928308812,-10.592495,0.011196000000000301,0.008954,-0.021571,0.0015882496193148,0.0057944931166211,-3.096877387966869
158.39598997493732,0.6096736848134521,0.573414371690299,-10.565274,0.0095029999999996,0.01636,0.0109430000000001,-0.0010471975511965,0.0053930673886626,-3.0987623610123154
159.3984962406015,0.6096736869078473,0.5734140529931775,-10.548745,-0.0200709999999996,-0.019159,0.0191569999999999,6.98131700797732e-05,0.0029845130209102,-3.098552781875736
160.40100250626566,0.6096736884786436,0.5734137348196547,-10.54247,-0.0127640000000002,-0.024596,-0.0159780000000001,0.0072780229808163,0.0025307274153918,-3.096161785520259
161.4035087719298,0.6096736853370509,0.5734134117592103,-10.528057,0.0017350000000000004,0.0016100000000000003,-0.0183289999999999,0.0015009831567151,0.0049741883681839,-3.09511464032894
162.406015037594,0.6096736795774644,0.5734130871279695,-10.492037,0.0131610000000001,0.039126999999999995,-0.002633,-0.0061086523819801,0.0081681408993334,-3.099163699473811
163.40852130325814,0.6096736773085364,0.5734127628457945,-10.443095,0.011633999999999901,0.032956,0.018339000000000102,-0.0046425758103049,0.0092676983280899,-3.104259921263295
164.4110275689223,0.6096736830681229,0.5734124424033438,-10.411086,-0.0028070000000002,-0.025932999999999998,0.0314329999999999,-0.0025307274153917,0.0077492618788548,-3.104015714794356
165.41353383458645,0.6096736937146313,0.5734121226590247,-10.407172,-0.009001,-0.045606,-0.010196,0.0069464104229374,0.0073478361508962,-3.0998095236569267
166.41604010025063,0.6096736984270203,0.5734118020420412,-10.411665,-0.0081619999999995,-0.019155,-0.024623,0.0036477381366681,0.0089535390627308,-3.095515978790436
167.41854636591478,0.6096736935400984,0.57341148037786,-10.390457,0.0039489999999995,0.022979999999999997,-0.035217,0.001832595714594,0.0120602251312809,-3.0954810896586884
168.42105263157893,0.6096736858606496,0.5734111574919484,-10.330515,0.0055990000000001,0.041958999999999996,0.010280000000000102,-0.0045727626402251,0.0131597825600373,-3.098343447085252
169.4235588972431,0.6096736827190571,0.5734108356532344,-10.260564,-0.0097179999999998,0.012368999999999998,0.0395069999999998,-0.00307177948351,0.0106988683147253,-3.100001265528551
170.42606516290726,0.6096736870823802,0.5734105127673227,-10.212046,0.0014050000000001006,-0.020605000000000095,0.015090000000000001,0.0016406094968746,0.0087790061375314,-3.0981863150926947
171.42857142857142,0.6096736975543557,0.5734101905795428,-10.191828,0.012598,-0.0235209999999999,0.0041400000000000985,-0.0054105206811824,0.0071907565182167,-3.095062175731625
172.43107769423557,0.6096737031394093,0.5734098669954995,-10.191529,0.0065479999999995,-0.020392,-0.020439,0.0005235987755982,0.0062482787221398,-3.091658923316576
173.43358395989975,0.6096737020922118,0.5734095481238451,-10.187117,-0.0006379999999999008,0.0006749999999999985,-0.020614,0.0090757121103705,0.0035604716740684,-3.090192584945513
174.4360902255639,0.6096736933655654,0.5734092301248555,-10.168829,-0.024121999999999602,0.017751,-0.005421000000000002,0.0050963614158234,0.000314159265359,-3.0911177665287024
175.43859649122803,0.6096736855115839,0.5734089096824049,-10.130046,-0.006516000000000001,0.035879,-5.5999999999997024e-05,-0.003665191429188,-8.726646259971105e-05,-3.0935438963620223
176.44110275689223,0.6096736841153205,0.5734085850511639,-10.085707,0.009089999999999602,0.018654999999999897,0.0258489999999999,-0.004590215932745,0.001239183768916,-3.0955860188533184
177.4436090225564,0.6096736926674338,0.5734082590236597,-10.066825,0.0221010000000001,-0.0277109999999999,0.031389000000000104,-0.0027227136331111,0.0004014257279587,-3.094119680482255
178.44611528822054,0.609673701743146,0.5734079370104127,-10.088304,0.004976000000000001,-0.053533,-0.007516000000000002,0.0050440015382636,-0.0025656340004316,-3.0893025542934582
179.4486215538847,0.6096737013940801,0.5734076177896925,-10.119019,-0.010764000000000001,-0.006508,-0.046154999999999904,0.0088488193076112,-0.0056374134839416,-3.0863528256845405
180.45112781954887,0.6096736912711704,0.573407299092571,-10.124506,-0.0173529999999998,0.0394980000000001,-0.0139940000000001,-0.0023387411976724,-0.0077841684638946,-3.0880633879778348
181.45363408521305,0.6096736794029315,0.5734069789991862,-10.101681,-0.007477999999999898,0.0337209999999998,0.002464000000000001,-0.0037175513067479,-0.0068416906678177,-3.092339619178146
182.4561403508772,0.609673678006668,0.5734066547170111,-10.066183,0.015443999999999599,0.0149970000000001,0.028435,-0.0084997534572123,-0.0049741883681837,-3.096318917512816
183.45864661654133,0.6096736860351826,0.5734063299112374,-10.057014,0.009822000000000601,-0.035816,0.039207,0.0013613568165555,-0.0043458698374658,-3.094905305538455
184.4611528822055,0.6096736933655654,0.5734060063271941,-10.088189,-0.0053980000000005005,-0.045189,-0.010777000000000002,0.0047647488579445,-0.0052359877559828,-3.0905068314773345
185.4636591478697,0.6096736914457034,0.5734056837903483,-10.126332,0.0011329999999998,-0.002124000000000001,-0.051628999999999994,0.0034732052114687,-0.0060039326268603,-3.089773932817837
186.46616541353384,0.6096736828935899,0.5734053617771013,-10.129624,0.0083430000000005,0.059904,-0.014936000000000001,-0.0030368728984701,-0.0089360857702109,-3.0948874682735004
187.468671679198,0.6096736769594705,0.5734050420327823,-10.118128,-0.0095360000000003,0.011251999999999998,0.044414,0.0019198621771937,-0.0149923782746312,-3.097680064889861
188.4711779448621,0.609673680624662,0.5734047219393976,-10.126219,-0.014906999999999901,-0.0355809999999999,0.013257,0.0059166661642607,-0.0208741378538521,-3.096214250117574
189.4736842105263,0.6096736853370509,0.5734043978317555,-10.149208,-0.0013230000000001001,-0.0042930000000001,-0.01692,-0.0043807764225057,-0.025220007691318,-3.094695726401876
190.47619047619045,0.6096736877805119,0.5734040719787841,-10.176828,0.012982,0.013683,0.0011319999999999004,-0.0039618974020271,-0.0281347075421485,-3.09485284094114
191.47869674185463,0.6096736872569132,0.5734037475220762,-10.217871,0.0118540000000004,-0.0025870000000000003,0.0153370000000001,0.0023212879051524,-0.0318697121414164,-3.094311684153267
192.4812030075188,0.6096736877805119,0.5734034246361646,-10.287653,-0.0019140000000006999,-0.02659,0.0065710000000000005,0.0003665191429188,-0.0354650904005247,-3.09265360391058
193.4837092731829,0.6096736865587814,0.5734031040191809,-10.37382,-0.0092389999999994,0.002293,-0.0264140000000001,0.002740166925631,-0.0368264472170802,-3.092810735903137
194.48621553884712,0.6096736788793327,0.5734027825295328,-10.447709,-0.0047730000000001,0.021607,-0.0261989999999999,0.0072780229808163,-0.0362504885639221,-3.095131936541827
195.48872180451127,0.6096736731197462,0.5734024592945552,-10.494737,0.0020479999999998,0.028697,0.0015480000000000008,0.001518436449235,-0.0338419341961699,-3.098657711070365
196.49122807017545,0.6096736732942791,0.5734021357105119,-10.533488,0.0004480000000003999,0.005081999999999996,0.031986,-0.0097912971036881,-0.0308923277602994,-3.1011360437016124
197.4937343358396,0.6096736799265302,0.5734018129991333,-10.595369,0.0049109999999994,-0.034801,0.017433999999999998,0.0058992128717408,-0.028623399732707,-3.1008742443138138
198.49624060150376,0.609673685162518,0.57340148941509,-10.677207,0.0020150000000004995,-0.033680999999999996,-0.01933,0.00307177948351,-0.0256563400043166,-3.0995650379353075
199.4987468671679,0.6096736827190571,0.5734011665291783,-10.746607,-0.006082,0.006098999999999997,-0.038482,-0.0003141592653589,-0.0200712863979346,-3.100280902181306
200.5012531328321,0.6096736773085364,0.573400847657524,-10.774478,0.0242849999999993,0.067549,-0.0036639999999999,-0.0334579617607312,-0.0059515727493006,-3.089651689957027
201.50375939849624,0.609673671025351,0.573400535069055,-10.756442,0.0879260000000006,-0.117324,-0.061912000000000106,0.0885056463686324,0.0697608102022133,-2.9337939099269814
202.5062656641604,0.6096736284393174,0.5734002552927758,-10.652039,0.1003739999999998,-0.295939,0.0839120000000001,0.1585980691287247,0.0591666616426078,-2.6655715184942745
203.5087719298245,0.6096735565317521,0.5734000116448122,-10.561808,0.060504000000000085,0.021074000000000037,-0.009343000000000101,0.0918392252399416,0.0720820981073657,-2.4288527214857947
204.5112781954887,0.6096734062589035,0.5733998228001872,-10.426844,0.058530000000000026,0.09689000000000009,-0.0189939999999999,0.1096939434878436,0.0696560904470937,-2.1862690945918373
205.51378446115288,0.6096731929796689,0.5733996873626372,-10.273053,0.02306700000000006,0.10762999999999989,0.0538909999999999,0.1171814059788993,0.0565486677646163,-1.953773802386965
206.51629072681703,0.6096729596291479,0.5733996032377673,-10.160965,-0.02896800000000016,0.0381750000000001,0.0454719999999999,0.1390852880914281,0.0417482757077043,-1.7384529689007375
207.5187969924812,0.6096727110942625,0.5733995674585176,-10.088992,-0.0225749999999999,0.03913699999999991,-0.043882999999999894,0.1020319480715885,0.0398109602379908,-1.5366924186780029
208.5213032581453,0.6096724541817965,0.5733995801994212,-10.017116,0.02079399999999998,0.0798989999999999,-0.01695,0.1059589388885757,0.0363203017340021,-1.3295565510650973
209.52380952380952,0.6096721950004026,0.5733996432058072,-9.945396,0.040379,-0.0222969999999997,0.007377,0.0355174502780846,0.0308748744677798,-1.158933145936839
210.52631578947367,0.6096719295358234,0.5733997515907537,-9.875727,-0.12189600000000009,-0.0386250000000001,-0.014195,0.0480663675999238,0.0321838714067754,-1.0920350596803323
211.52882205513785,0.6096716516794065,0.5733999043070632,-9.800696,-0.1045899999999999,-0.024765000000000197,0.0143629999999999,0.0142593399887936,0.0275238423039505,-1.0807603025256187
212.531328320802,0.6096713577659605,0.5734000830287787,-9.743898,-0.0354880000000001,-0.0253649999999999,0.014117,0.0155683369277894,0.0249233017184791,-1.084024277666358
213.53383458646616,0.6096710420358987,0.5734002685572782,-9.691837,-0.006090999999999999,-0.00503300000000001,-0.0303689999999999,0.0121998514714403,0.0260228591472355,-1.086554813095532
214.5363408521303,0.6096707053618861,0.5734004629869568,-9.614786,-0.017797999999999897,0.038505000000000206,-0.015673,0.0172438530097039,0.0237888377046828,-1.0832908379547928
215.5388471177945,0.6096703568196344,0.573400663525288,-9.536516,-0.0291850000000001,0.029060999999999802,0.059084,0.0114319066005628,0.0102799892942466,-1.078508862697132
216.54135338345864,0.6096700014705988,0.573400868601475,-9.517287,-0.0024849999999998,-0.032388000000000104,0.034886,0.001221730476396,-0.0010646508437164,-1.077165028986266
217.5438596491228,0.6096696326825278,0.5734010796117816,-9.533627,0.0026389999999998012,-0.036137999999999795,-0.0763319999999999,-0.0031415926535897,1.74532925198978e-05,-1.0760827328638112
218.5463659147869,0.6096692464411643,0.5734012967307405,-9.497931,-0.012298999999999997,0.0575839999999999,-0.0658060000000001,0.0015707963267948,-0.0009773843811167,-1.072278141987267
219.5488721804512,0.6096688542656814,0.5734015176894238,-9.432258,-0.007647000000000001,0.0722029999999999,0.1155609999999999,0.0045378560551852,-0.020577431881013,-1.070498080683157
220.55137844611528,0.6096684640100606,0.5734017430114302,-9.464367,-0.0029169999999998017,-0.0653119999999999,0.0749710000000001,-0.0135961148730358,-0.0322711378693751,-1.0723127518663331
221.55388471177943,0.6096680685184521,0.573401972173161,-9.554745,0.008502999999999698,-0.04502799999999991,-0.125941,-0.0088313660150913,-0.0224449341806469,-1.073342339045378
222.5563909774436,0.6096676594132755,0.5734022063963466,-9.599244,-0.0203119999999997,0.05599100000000021,-0.043087999999999994,-0.003665191429188,-0.018709929581379,-1.0723127518663331
223.55889724310777,0.60966724262865,0.5734024395723348,-9.621711,-0.0144390000000002,0.0454709999999995,0.071024,-0.0114842664781226,-0.026476644752754,-1.0723649546642602
224.56140350877192,0.6096668284620187,0.5734026725737899,-9.681567,0.0087710000000002,-0.0264929999999998,0.021355,-0.0045378560551852,-0.0288677458279862,-1.0745641916948216
225.56390977443607,0.6096664139463213,0.5734029066224425,-9.755377,0.003537999999999801,-0.0297249999999996,-0.052572999999999995,-0.0098611102737679,-0.0221307749152881,-1.0760129546003168
226.56641604010025,0.6096659908785105,0.5734031424164245,-9.802196,-0.003484000000000001,0.009363999999999303,-0.01585,-0.0114144533080429,-0.0171216799620643,-1.0771820808530577
227.5689223057644,0.6096655601312512,0.5734033799557356,-9.826335,0.00036200000000000034,0.017112000000000398,0.0140140000000001,-0.0075049157835756,-0.016615534478986,-1.07819461616531
228.57142857142856,0.6096651283367942,0.5734036167969152,-9.845602,-0.0122509999999997,0.027747000000000098,0.0253359999999999,-0.0124965574442794,-0.0183434104384603,-1.07887531202688
229.5739348370927,0.6096647002075287,0.5734038525908972,-9.900725,0.0083519999999998,-0.0086920000000003,0.041974,-0.0081157810217736,-0.0196698606699761,-1.080253773070105
230.5764411027569,0.609664272427329,0.5734040882103462,-9.984211,0.0029979999999997994,-0.042318999999999905,-0.0624769999999999,-0.0168773338667851,-0.0083077672394928,-1.0819821551750632
231.57894736842104,0.6096638371422136,0.5734043269713878,-10.015614,-0.012276999999999798,0.0363489999999999,-0.0690680000000001,-0.0156206968053492,0.0008028514559175,-1.0818772434337254
232.5814536340852,0.6096634048241579,0.5734045622417709,-9.984695,0.0009420000000000001,0.044194000000000004,0.051634,-0.01230457122656,-0.003665191429188,-1.0822964191601765
233.58395989974937,0.6096629759967607,0.5734047950686932,-9.970942,-0.004356,-0.041067999999999605,0.078214,-0.0090931654028904,-0.0104894288044858,-1.0856120560467748
234.58646616541355,0.6096625478674952,0.573405028942813,-9.999398,0.0011760000000000988,-0.0297520000000002,-0.026656,-0.0209439510239319,-0.0081332343142934,-1.087794241210543
235.58897243107768,0.6096621153749066,0.5734052614206694,-10.026853,-0.0010079999999998996,0.0178119999999997,-0.048954,-0.0120253185462409,-0.0011519173063161,-1.0904467577011403
236.59147869674183,0.6096616785189948,0.5734054925022624,-10.019448,0.0042819999999997,0.0365130000000002,-0.005811999999999901,-0.0131074226824774,0.0006108652381979,-1.091615883953881
237.593984962406,0.6096612481208012,0.5734057230602565,-10.005224,0.0120070000000002,0.0017330000000001997,0.0502609999999999,-0.0082205007768932,-0.0048171087355042,-1.0909703390234455
238.59649122807016,0.6096608220859308,0.5734059544909152,-10.018623,-0.015718,-0.0441950000000006,0.0018169999999999992,-0.0073129295658562,-0.0041713369122664,-1.093902474713503
239.59899749373432,0.6096603916877372,0.5734061852234424,-10.039338,0.0015289999999999002,-0.0081009999999994,-0.0242,-0.0164759081388264,-0.0003665191429187,-1.0959445797515068
240.6015037593985,0.6096599579734182,0.5734064157814367,-10.040408,0.01009,0.025333999999999902,-0.0301879999999999,-0.0097738438111682,0.0037000980142281,-1.0962236753521932
241.60401002506265,0.6096595235609673,0.5734066456412991,-10.010484,-0.0149560000000001,0.0175640000000001,0.013069999999999898,-0.0102974425867665,0.0006632251157578,-1.0990514228996893
242.6065162907268,0.6096590942099713,0.5734068735812994,-9.976819,0.003055000000000299,0.0054459999999996005,0.037298,-0.0089360857702109,-0.0060562925044203,-1.101424843789599
243.60902255639093,0.609658670444029,0.57340709855424,-9.984262,0.006016999999999901,-0.034112999999999505,0.040832,-0.008918632477691,-0.0104719755119659,-1.1035543025566643
244.6115288220552,0.6096582381259732,0.573407322479983,-10.022587,-0.0102190000000002,-0.030792000000000402,-0.0720859999999999,-0.0138928208458748,-0.0013962634015953,-1.1068358531629718
245.6140350877193,0.6096578003973968,0.5734075457075943,-10.018222,-0.0017739999999996994,0.0536060000000002,-0.029376000000000096,-0.0063879050622992,0.0023911010752322,-1.1091213792717511
246.61654135338344,0.6096573616216229,0.5734077663172119,-10.000615,0.010246999999999699,0.008681999999999801,0.0623759999999999,-0.0077492618788548,-0.003665191429188,-1.1105877176428136
247.6190476190476,0.6096569294781,0.5734079879740268,-10.009382,0.0152950000000001,-0.0309609999999999,-0.0010559999999999008,-0.0028623399732707,-0.0034208453339088,-1.1119491093659548
248.62155388471177,0.6096564966364456,0.5734082117252368,-10.011659,-0.0214459999999999,0.0014500000000001994,-0.050429,-0.0094073246682494,0.0004712388980385,-1.1122809488166363
249.62406015037595,0.6096560620494619,0.5734084325093873,-9.970521,-0.020592,0.0282799999999995,-0.0043330000000000035,-0.0086917396749317,-0.0007155849933175,-1.1150559525141372
250.62656641604008,0.6096556318258012,0.5734086489302146,-9.935852,0.0177689999999999,-0.0078989999999997,0.09056600000000001,-0.0054628805587422,-0.0133168621927166,-1.1194720194941186
251.62907268170423,0.609655209979721,0.5734088573225272,-9.971128,-0.0918890000000001,0.1221410000000001,-0.004823000000000001,0.0685216264332973,0.0490612052735606,-1.1309731458528154
252.6315789473684,0.6096548263563514,0.5734090468652839,-9.819423,0.029082000000000094,0.0816229999999998,-0.521701,0.0523947841448697,0.3013485311960484,-1.1041300692236051
253.63408521303256,0.6096544842718181,0.5734092318701848,-9.246156,0.051079000000000103,-0.060588000000000114,0.2601110000000001,0.0170169602069446,0.331944152983509,-1.096468161073812
254.63659147869672,0.6096541660982954,0.5734093985491283,-8.60512,-0.0030000000000001,-0.0817049999999997,0.2010429999999999,-0.009808750396208,0.3398505119483359,-1.0942689240432524
255.6390977443609,0.6096538713121847,0.5734095716857901,-7.954988,0.0231650000000001,-0.05204500000000009,0.004969000000000099,0.0103323491718064,0.3459940534620633,-1.0925762164682054
256.64160401002505,0.6096535615162425,0.5734097498839067,-7.281759,0.0293659999999999,0.0075329999999998,-0.033641,0.0126361837844389,0.3506017226873286,-1.0885793426679682
257.64411027568923,0.6096532504985698,0.5734099324453464,-6.570389,0.003095000000000101,0.020037000000000298,0.015376999999999898,0.0063006385996995,0.3502875808752619,-1.0836924382156763
258.6466165413533,0.6096529485566091,0.5734101207663728,-5.854343,-0.0221960000000002,-0.019162000000000096,0.0479819999999999,0.0102276294166868,0.3466747318703411,-1.07980049361007
259.64912280701753,0.609652648010912,0.5734103092619319,-5.179466,-0.014895,-0.0491840000000001,0.0189590000000001,0.0025307274153918,0.3438473159354027,-1.0762744747354351
260.6516290726817,0.6096523425782929,0.5734104946158984,-4.512043,0.0028350000000002,0.007115000000000201,-0.07330600000000001,0.001221730476396,0.3474601649403237,-1.0765019085902632
261.65413533834584,0.6096520429052603,0.5734106827623919,-3.802001,0.0672339999999999,0.18648399999999982,0.0179950000000001,0.0374896723328382,0.3509682767368323,-0.9899859201156112
262.65664160401,0.6096517886107883,0.573410892550968,-3.157753,0.1163539999999999,0.06895700000000018,0.13688199999999978,0.0060737457969402,0.3410722424247319,-0.8058709453365122
263.65914786967414,0.6096515632887818,0.5734110974526222,-2.596971,-0.14169500000000002,-0.0534430000000001,-0.11864399999999989,-0.0004886921905584,0.3298672286269284,-0.643188561412025
264.6616541353383,0.6096513882322578,0.5734113267888858,-2.021303,0.0696470000000001,-0.02070000000000008,0.032305,0.1342856326484437,0.261432851202938,-0.5566203701394471
265.6641604010025,0.6096512232986435,0.5734115636300654,-1.543976,-0.07633899999999999,-0.07113300000000002,0.0838779999999999,-0.009826203688728,0.2045002284561756,-0.5293235079047183
266.66666666666663,0.6096511054889191,0.57341180972149,-1.162897,-0.055732000000000004,0.030886000000000094,-0.051463999999999996,-0.0029321531433504,0.1693492973210097,-0.5198463875196817
267.6691729323308,0.6096510030380919,0.5734120647140937,-0.837281,0.123317,-0.02093100000000009,-0.027080999999999904,0.0063704517697792,0.183416651092084,-0.5460614772307316
268.671679197995,0.6096509098375099,0.5734123097583206,-0.592601,-0.3189940000000001,-0.1571659999999998,0.130205,-0.0257436064669163,0.1868025898409531,-0.527647852196463
269.6741854636591,0.6096508267598376,0.5734125277499442,-0.421725,0.06047500000000028,0.2917359999999999,-0.307118,-0.0155334303427495,0.1054876999905372,-0.4643274640137415
270.6766917293233,0.6096507674186429,0.5734127162455034,-0.273404,0.2565639999999997,-0.328422,0.610119,0.0218689755274889,-0.0102625360017265,-0.5237383321252882
271.6791979949875,0.6096506494343855,0.5734129146894393,-0.522204,-0.0724539999999998,-0.019044999999999895,-0.464123,-0.0523424242673099,0.0934798347368164,-0.556411052802255
272.6817042606516,0.6096506122588725,0.57341311400604,-0.659846,-0.3526750000000002,0.2951599999999998,-0.187669,0.0395317075576715,0.027122416575992,-0.4815362708120656
273.6842105263158,0.6096504989870041,0.5734132752744628,-0.444009,0.3961690000000001,-0.1087329999999999,-0.16597299999999998,0.0566708408122558,0.0431096325242599,-0.5517334831404485
274.68671679198,0.6096504838026395,0.5734134340994247,-0.339004,-0.025455,0.09509899999999989,0.7326619999999999,0.0646644487863899,0.1022413875818279,-0.5146803874667029
275.6892230576441,0.6096504557028385,0.5734136100286134,-0.545755,-0.0920409999999999,-0.3898299999999998,-0.24956,-0.0385892297615946,0.1009149373503122,-0.5151512249390139
276.69172932330827,0.6096503829226088,0.5734137828162092,-0.620522,-0.025381000000000105,0.0728569999999999,-0.432011,0.0106988683147252,0.1070584963173322,-0.5243140987922282
277.6942355889724,0.6096502829152427,0.5734139329145249,-0.427383,0.081176,0.332414,0.10062999999999997,0.0041887902047863,0.1059589388885757,-0.5200035020589457
278.69674185463657,0.609650242249071,0.5734140943574808,-0.184511,0.0587789999999999,0.114534,0.302949,0.0437728576400178,0.0874584488174359,-0.5133365537558376
279.69924812030075,0.6096502298572334,0.5734142566731012,-0.371716,-0.1427539999999999,-0.42222899999999997,0.415073,-0.0321489648217355,0.0976860782341226,-0.5083447201089168
280.7017543859649,0.6096502078660848,0.5734144052006205,-0.552067,-0.0766679999999999,-0.153028,-0.982872,-0.0710523538486891,0.1001644457719546,-0.5082397909142868
281.70426065162906,0.6096501544590096,0.5734145483176193,-0.396466,0.32722699999999993,0.49707599999999996,0.4222929999999999,0.1044579557318606,0.093305301811617,-0.5064943569425371
282.70676691729324,0.6096501148400357,0.5734147015575275,-0.336836,-0.200878,-0.10696800000000001,0.134081,-0.0300720230118622,0.1355247989640671,-0.5019217164753595
283.70927318295736,0.6096500801079835,0.5734148293156287,-0.398859,-0.2367289999999999,-0.32331699999999997,-0.102353,-0.0780685774417063,0.0700924227600923,-0.4862138579271653
284.71177944862154,0.6096500637018886,0.5734149720835616,-0.403638,0.5133139999999998,0.27554199999999995,0.063895,0.0822748209390127,0.0601265927312046,-0.5078035633210435
285.7142857142857,0.609650004360694,0.5734151015869922,-0.382423,-0.32406599999999985,-0.14348,-0.169588,-0.0267035375555132,0.0791332282854229,-0.5125333357807771
286.71679197994985,0.6096499870819344,0.5734152508126431,-0.360509,0.071615,0.290742,0.14279,-0.0023911010752322,0.0148527519344718,-0.4991642707901331
287.719298245614,0.6096499591566664,0.5734153876464565,-0.372597,-0.023800999999999902,-0.292448,0.014654,0.0315555528760574,0.049602257341679,-0.5082046399831511
288.7218045112781,0.6096499403071104,0.573415503187253,-0.324588,-0.12113800000000009,-0.051579,-0.30802199999999996,-0.0689928653313358,0.0136310214580757,-0.5097237047509168
289.72431077694233,0.6096499233774167,0.5734156382757372,-0.179493,0.3832,0.34169499999999997,0.553338,0.0647517152489896,0.0466177443207687,-0.5239124985313446
290.7268170426065,0.609649894754017,0.5734157578307909,-0.317858,-0.4706499999999999,-0.410221,-0.260676,0.0109781209950443,0.0452214809191731,-0.498797821460384
291.72932330827064,0.6096498677014136,0.5734158829708982,-0.30842,0.44191899999999984,0.3111229999999999,-0.22252,0.0170169602069447,-0.0526216769476288,-0.5299866283007203
292.7318295739348,0.6096498565313063,0.5734160332437468,-0.259037,-0.24289299999999991,-0.1431649999999998,0.241873,0.1152091839241457,0.0258832328070759,-0.5378232439086379
293.734335839599,0.6096498331438944,0.5734161379635019,-0.27933,-0.277055,-0.0928750000000001,0.028645000000000004,-0.0659908990179056,-0.011676252695842,-0.5021315748646188
294.7368421052631,0.609649801378902,0.5734162550750947,-0.25154,0.655964,0.340758,-0.296469,0.0620639082009183,-0.0060213859193802,-0.545625249637488
295.7393483709273,0.6096497823548132,0.5734163487992755,-0.150361,-0.6059489999999998,-0.317784,0.23232899999999998,0.0480489143074038,0.0093026049131297,-0.4663519935861775
296.7418546365915,0.6096498142943384,0.5734164781281731,-0.140923,0.4394229999999998,0.31999500000000003,0.31032699999999996,-0.00923279174305,-0.0247662220857993,-0.4929681599593361
297.7443609022556,0.6096497795622864,0.5734165800554014,-0.392501,-0.3029989999999998,-0.6522209999999999,-0.242971,-0.0006457718232379,-0.003351032163829,-0.4528428484697689
298.7468671679198,0.609649764377922,0.57341669332727,-0.335117,0.1965289999999999,0.6032489999999999,-0.748958,0.0306305283725004,-0.0212406569967709,-0.457555569062711
299.749373433584,0.6096497380234501,0.5734168174201798,-0.090152,0.051692999999999906,0.17842500000000008,1.132524,0.1077391747256099,0.0268955237732326,-0.4331381161213372
300.7518796992481,0.6096497647269876,0.5734169214418031,-0.31336,-0.4889699999999999,-0.6063829999999999,-0.412648,-0.0719599250597262,-0.004276056667386,-0.3953169708569605
301.7543859649123,0.6096497849728071,0.5734170177839778,-0.321838,0.631732,0.2469389999999999,-0.226405,0.0173136661797837,-0.0724486172502845,-0.3964520108294105
302.7568922305764,0.609649759316467,0.5734171392588938,-0.231536,-0.07213500000000009,-0.011366999999999999,0.10691600000000011,0.0995710338262765,0.0196000474998963,-0.4348483991619523
303.7593984962406,0.6096497652505865,0.573417264573534,-0.306682,-0.5879629999999999,0.026801,0.3625029999999999,-0.0567755605673755,0.0453262006742927,-0.3498163245239312
304.7619047619048,0.6096497261552112,0.5734173624865051,-0.212001,0.5756160000000001,-0.08257400000000001,-0.924774,0.0275412955964705,-0.0604232987040436,-0.3850025462165719
305.7644110275689,0.6096497299949356,0.5734174684279907,-0.032277,-0.06077500000000019,0.527072,1.237812,0.1579522973054869,0.0589223155473286,-0.337407068448836
306.76691729323306,0.6096497786896217,0.5734175652937642,-0.351624,-0.3955339999999999,-0.810489,-0.5924650000000001,-0.1540951196585794,-0.0392350015848323,-0.2927090990387991
307.76942355889724,0.6096497560003414,0.5734176689663218,-0.385665,0.439615,0.226438,-0.4237789999999999,-0.0495149908790791,-0.018151424220741,-0.3016104527568955
308.77192982456137,0.6096497607127305,0.5734177696718196,-0.186139,-0.1214070000000001,0.46177900000000005,0.497818,0.1935570140461711,0.0221656815003281,-0.2578722922624073
309.77443609022555,0.6096497486699586,0.5734178705518503,-0.180465,-0.1886579999999998,-0.42005999999999993,0.009280999999999998,-0.119712133394291,-0.0028099800957108,-0.2422342119777083
310.77694235588973,0.6096497910814594,0.5734179813802579,-0.203801,0.2965029999999998,0.073118,-0.10644999999999999,-0.0431270858167798,-0.017505652397503,-0.2513273075674285
311.77944862155385,0.6096498055676922,0.5734180822602887,-0.254901,-0.1956819999999998,-0.0665400000000001,0.038206000000000004,0.0831649388575298,-0.0017627825445141,-0.2080258982649596
312.78195488721803,0.6096498228464519,0.5734181941358937,-0.267984,-0.028297000000000093,0.1709369999999999,-0.09356400000000001,0.003665191429188,0.0180816110506614,-0.1971175904399953
313.7844611528822,0.6096498029496984,0.5734182731993088,-0.221712,0.061785999999999994,-0.0895519999999999,0.006066000000000002,0.0213802833369305,-0.0263195651200744,-0.1974664643041752
314.78696741854634,0.6096498383798821,0.573418373032142,-0.223245,0.113752,0.0993349999999999,0.223653,0.0325503905496942,0.0020420352248333,-0.1891936211030149
315.7894736842105,0.6096498474555943,0.57341846658179,-0.311992,-0.172122,-0.35601899999999986,-0.30064599999999997,-0.0648738882966292,-0.0105417886820455,-0.1740791221406221
316.79197994987464,0.6096498567058393,0.5734185802027243,-0.197508,0.16829499999999992,0.407724,-0.010510999999999993,0.0629016662418756,0.0006806784082777,-0.1874657625968334
317.7944862155388,0.6096498678759465,0.5734186683418515,-0.186699,-0.2713849999999998,0.07864499999999991,0.425149,0.0562345084992573,0.01228711793404,-0.1369210972722483
318.796992481203,0.609649917966896,0.5734187664293554,-0.304514,0.3507119999999998,-0.5046899999999999,-0.36262099999999997,-0.0492182849062401,-0.0693768377667745,-0.1466427033789046
319.7994987468672,0.6096499240755484,0.5734188592808716,-0.394664,-0.2656659999999998,0.1553469999999999,0.06881899999999999,0.0087440995524915,0.0498640567294781,-0.1162219461292004
320.8020050125313,0.6096499437977689,0.573418963651561,-0.327283,0.16137699999999988,0.416885,-0.191587,0.1371654259142344,-0.0368089939245603,-0.1184558104921207
321.8045112781955,0.6096499080185194,0.5734190683713161,-0.155293,0.01822599999999991,-0.446889,0.2574,-0.0479791011373241,0.0310145008079392,-0.0997630724038736
322.8070175438596,0.6096499619491932,0.573419170996676,-0.205189,-0.2916059999999998,0.354696,0.08427699999999999,0.0099309234438477,-0.016249015336067,-0.1062382962886492
323.8095238095238,0.6096499923179223,0.5734192696077788,-0.138249,0.3347759999999998,-0.21489,-0.268289,0.0738099740668402,-0.0339466539512895,-0.0701274166115955
324.812030075188,0.6096500560224398,0.5734193701387438,-0.327808,-0.1719779999999998,-0.248183,0.5938209999999999,-0.0167202542341056,0.0506494548928755,-0.0833217915974063
325.8145363408521,0.6096499219811534,0.5734193125428784,-0.517233,-0.05194400000000011,0.006404999999999994,-1.051889,-0.0772657259857889,-0.0447327887286146,-0.0412246769321067
326.8170426065163,0.609649920410357,0.5734193563506427,-0.162722,0.338271,0.893821,0.501584,0.2093871503617597,-0.0167377075266255,-0.0651180249523986
327.8195488721804,0.6096499794024857,0.5734194462350991,-0.137413,-0.429934,-0.740742,0.524545,-0.0606676447993228,-0.0216420827247296,0.0259704992696756
328.8220551378446,0.6096500675416129,0.5734195204115923,-0.309045,0.2497809999999999,0.0755610000000001,-0.354055,-0.0605105651666434,-0.0502654824574366,0.0101054563690471
329.8245614035088,0.60965009302342,0.5734195989514086,-0.509915,-0.2023719999999998,-0.34802800000000006,-0.383317,0.0695164641069341,-0.0095818575934487,0.0685914396033771
330.8270676691729,0.6096501268828075,0.5734196654484531,-0.214814,0.2452889999999999,0.782063,0.06184999999999999,0.0525344104850293,-0.0470017167562071,0.0757298362440339
331.8295739348371,0.6096501658036498,0.5734197658048852,-0.195946,-0.179143,-0.59146,0.61672,0.0286408530252269,0.0419751685104636,0.1376017582272329
332.83208020050125,0.6096502370130833,0.5734198282876724,-0.235776,0.1113519999999999,0.271323,-0.434962,0.0850498944496837,-0.0382052573261557,0.1637118838370681
333.8345864661654,0.609650270348872,0.5734199225354519,-0.27507,0.0182090000000001,-0.1474149999999999,0.0284050000000001,-0.0090058989402907,-0.0068242373752978,0.1856506725346368
334.8370927318296,0.6096503366713836,0.573419997061011,-0.340756,-0.22341899999999992,0.1011299999999999,0.0092319999999999,0.0112399203828434,0.0016231562043547,0.2376091069132155
335.83959899749374,0.6096503789083515,0.573420062336325,-0.214404,0.1930249999999998,0.041645999999999996,-0.217177,0.0299673032567426,-0.0525693170700691,0.2798286215189584
336.84210526315786,0.6096504464525936,0.5734201543151766,-0.206391,0.11437700000000012,-0.19045099999999998,0.7151359999999999,0.0608596310170422,0.0600393262686049,0.2987654613563893
337.84461152882204,0.6096503804791479,0.5734202784080865,-0.462601,-0.40264,-0.04105899999999989,-0.7021339999999998,-0.0427431133813411,-0.0393397213399522,0.3466573134844062
338.8471177944862,0.6096503879840637,0.5734203962178109,-0.235295,0.6607160000000001,0.5208759999999999,-0.09687000000000007,0.0398458668230305,-0.0720471915223259,0.3776543435465331
339.84962406015035,0.6096504530848447,0.5734205098387453,-0.335134,-0.6727320000000001,-0.4990429999999999,0.971417,0.0467399173684081,0.0435983247148183,0.4093146161777102
