Time [s],Longitude [rad],Latitude [rad],Altitude [m],V North [m/s],V East [m/s],V Down [m/s],Roll [rad],Pitch [rad],Yaw [rad]
2.0050125313283207,0.6090211814298222,0.5733726696658165,-15.024001,-0.003789000000000105,-0.0019609999999996,-0.009025000000000002,0.0530056493830677,-0.0005235987755982,1.7847911812885064
3.007518796992481,0.6090215633078625,0.5733726481982666,-15.032573,-0.0002599999999998992,-0.0007879999999999996,-0.012859,0.0561821486216974,-6.981317007981325e-05,1.8070615999972464
4.010025062656641,0.6090219441387053,0.5733726174804717,-15.032977,0.004657999999999905,0.0036209999999999,-0.0037139999999999994,0.060632738214283,0.001239183768916,1.828598840793809
5.012531328320802,0.6090223265403444,0.5733725801304258,-15.028145,0.013821,0.0030149999999998,0.009091,0.0576831317784126,0.0019198621771938,1.8483909268713024
6.015037593984962,0.6090227091165165,0.5733725371953261,-15.027547,0.003014999999999997,-0.0034050000000002,0.0054020000000000006,0.0555538300909795,0.0028099800957108,1.868217762454203
7.017543859649122,0.6090230916926885,0.5733724897223705,-15.030632,-0.0030929999999999014,-0.0069059999999994,-0.005609,0.0536514212063056,0.0035604716740684,1.8872942460850857
8.020050125313283,0.6090234714763337,0.5733724363152953,-15.030818,-0.006863999999999995,-0.002533000000000101,-0.0028420000000000003,0.0545066325397829,0.0024085543677523,1.9062660797740192
9.022556390977442,0.609023848816518,0.5733723750542387,-15.024626,-0.006031000000000106,0.006140999999999501,-0.005498,0.0566359342272159,0.002460914245312,1.9254297775076248
10.025062656641603,0.6090242256331035,0.5733723055901344,-15.009099,0.0009050000000001002,0.0060280000000005,-0.0004159999999999997,0.0561472420366575,0.0023038346126325,1.944296821628268
11.027568922305765,0.6090246031478207,0.5733722296683119,-14.989559,0.010110999999999905,-0.0022530000000004,0.011076,0.0552222175331005,0.0005759586531581,1.963146272830052
12.030075187969924,0.6090249799644063,0.5733721483359688,-14.978917,0.007721000000000096,-0.0086059999999995,0.011004,0.055065137900421,-0.0010646508437164,1.9817166284311487
13.032581453634084,0.6090253527667344,0.5733720619421708,-14.985454,-9.599999999999886e-05,-0.010363000000000299,0.004867,0.056007615696498,-0.0026354471705114,2.001089783128286
14.035087719298245,0.6090257220784042,0.5733719703123851,-15.005229,-0.0078990000000001,-0.005325,-0.010335,0.0583987167717302,-0.002129301687433,2.021283207667276
15.037593984962406,0.6090260854559544,0.5733718723994141,-15.021024,-0.006065999999999898,0.004084000000000199,-0.021403,0.0635125314800736,-0.0009773843811167,2.042122578562428
16.040100250626566,0.6090264456919121,0.5733717668069943,-15.020021,-0.006798000000000103,0.0119989999999998,-0.003559999999999999,0.0642804763509511,-0.0008726646259971,2.061914385387241
17.042606516290725,0.6090268061024027,0.5733716526624613,-15.002364,-4.499999999989929e-05,0.010461,0.003207999999999999,0.0614181363776804,-0.0015882496193146,2.0804848806146783
18.045112781954884,0.609027166861959,0.5733715285695514,-14.97579,0.005739999999999898,0.00011799999999980012,0.0106350000000001,0.0557632696012188,-0.0027750735106708,2.098077729661611
19.047619047619047,0.6090275293668447,0.5733713988915881,-14.954807,0.014891000000000001,-0.0111849999999997,0.0183649999999998,0.0527613032877885,-0.0051312680008632,2.1147107523397017
20.050125313283207,0.6090278883810717,0.5733712655484332,-14.960281,0.011407,-0.0146460000000001,0.017951000000000102,0.0491833783212002,-0.0068940505453776,2.131640480990632
21.052631578947366,0.6090282409375807,0.5733711295872844,-14.994276,-0.001244999999999899,-0.010269999999999998,-0.013903000000000002,0.0524645973149495,-0.0054279739737022,2.149373008737602
22.05513784461153,0.609028585465575,0.5733709913572077,-15.034383,-0.009816000000000002,-0.0006229999999998043,-0.0252979999999999,0.0588175957922089,-0.0020769418098731,2.1689381845590434
23.05764411027569,0.6090289233613182,0.5733708480656761,-15.055043,-0.014848999999999998,0.011162999999999802,-0.0216790000000001,0.0685739863108572,0.0017976891295541,2.1890268020764507
24.06015037593985,0.6090292584645346,0.573370696396564,-15.041753,-0.0084610000000001,0.016685000000000002,-0.006494,0.0721344579849256,0.0027925268031909,2.2091678841911726
25.062656641604008,0.6090295949640144,0.5733705344300094,-14.9995,0.0007910000000000972,0.0097990000000001,0.014985000000000002,0.0642979296434711,0.0002094395102394,2.2291694272321974
26.065162907268167,0.60902993181256,0.5733703646094733,-14.951029,0.014738999999999801,-0.0083360000000001,0.026354999999999996,0.0549255115602615,-0.0041887902047863,2.248804381317134
27.06766917293233,0.6090302660431117,0.5733701888548176,-14.925753,0.011547000000000203,-0.0189780000000001,0.030067999999999998,0.0502131225798768,-0.009773843811168,2.2687535819338915
28.07017543859649,0.6090305939904782,0.5733700099585692,-14.943893,0.0043449999999998976,-0.0202519999999997,0.005079,0.0512603201310734,-0.011397000015523,2.2882487351457432
29.07268170426065,0.6090309102441387,0.5733698279207283,-14.993782,-0.0082649999999998,-0.0105240000000002,-0.025521,0.0569500934925749,-0.0084997534572122,2.307656778974628
30.07518796992481,0.6090312168984883,0.5733696411704983,-15.041019,-0.010785000000000301,0.010918000000000198,-0.036588999999999997,0.0658338193852261,-0.0029496064358702,2.3261050313412555
31.07769423558897,0.6090315148261916,0.5733694465662867,-15.052815,-0.0021449999999998,0.0257889999999998,-0.021661,0.0643502895210309,0.0011170107212763,2.3435410101950187
32.08020050125313,0.6090318115321645,0.5733692444571593,-15.02504,0.007534999999999903,0.0183930000000001,0.010959,0.0590444885949681,0.0009075712110371,2.3598073391972654
33.08270676691729,0.6090321098089336,0.5733690371120441,-14.982488,0.002886000000000097,-0.0010000000000001002,0.033338999999999896,0.0483979801578027,-0.002705260340591,2.377260631717209
34.08521303258145,0.609032407562104,0.5733688248800072,-14.956931,0.0042249999999999024,-0.018608,0.0241710000000001,0.0450818545790135,-0.0067893307902577,2.394836167097962
35.08771929824561,0.6090327019991488,0.5733686077610483,-14.962967,0.0051010000000000985,-0.018791999999999903,0.0021649999999998996,0.045832346157371,-0.008883725892651,2.4122545704861578
36.09022556390977,0.6090329870114157,0.5733683880240953,-14.993314,0.0028129999999999024,-0.0074230000000002,-0.011477999999999898,0.0477522083345648,-0.0071383966406568,2.429864977545366
37.092731829573935,0.6090332624243716,0.5733681661927474,-15.029005,0.00039600000000009766,0.007726000000000205,-0.021667000000000002,0.0468620904160477,-0.0031241393610697,2.446812002409183
38.095238095238095,0.6090335291106813,0.5733679403471422,-15.051009,-0.0036810000000000974,0.0094590000000001,-0.015616999999999898,0.05232497097479,0.0013613568165555,2.464631744258875
39.097744360902254,0.6090337912591349,0.5733677104872797,-15.050418,-0.005711000000000001,0.0064679999999997,-0.0005850000000000993,0.051679199151552,0.0032986722862693,2.4832544422842395
40.100250626566414,0.6090340506150618,0.5733674745187649,-15.03529,-0.0026750000000000038,0.0006930000000002004,0.013399999999999999,0.0483281669877229,0.0034208453339088,2.5025229470394272
41.10275689223057,0.6090343043859351,0.5733672329651964,-15.02183,0.0015410000000000007,-0.0088730000000001,0.015498,0.0481361807700036,0.0027925268031909,2.521686522599985
42.10526315789473,0.6090345527462876,0.5733669870483048,-15.01654,0.004952000000000102,-0.0067059999999998995,-0.0037820000000000995,0.0463908515180092,0.0019896753472736,2.540623449703878
43.10776942355889,0.6090347948234549,0.5733667378152876,-15.015203,0.008084999999999901,0.0006909999999999972,-0.0023929999999999,0.0475253155318055,0.0004014257279587,2.558792344670432
44.11027568922306,0.6090350283485088,0.5733664861388095,-15.013675,-0.0002160000000000009,0.0015309999999998034,-0.0049169999999999995,0.0483281669877229,-0.0006457718232377,2.5769961113154403
45.11278195488722,0.6090352550667786,0.5733662321934033,-15.010262,-0.003089999999999999,0.004035000000000198,0.0039559999999999994,0.0529881960905478,-0.0013264502315155,2.595374323619185
46.11528822055138,0.6090354751527973,0.5733659745828058,-15.010374,-0.0014789999999998,0.0009399999999998992,0.00563,0.0489564855184409,-0.0010646508437164,2.6132289546006247
47.11779448621554,0.6090356896537624,0.5733657129579508,-15.016664,0.0011669999999999008,-0.004442999999999898,-0.004189000000000101,0.0462686784703696,0.0001570796326795,2.6316074287037576
48.1203007518797,0.6090358975224763,0.5733654480169704,-15.024907,0.006966999999999699,-0.005517000000000001,-0.0023719999999999,0.0482059939400833,0.0026703537555514,2.651172604525199
49.122807017543856,0.6090360971881428,0.5733651801089302,-15.032909,-0.0024019999999995018,-0.005814999999999904,0.001041,0.0554142037508199,0.0031764992386298,2.671331139932441
50.125313283208015,0.6090362893488933,0.5733649111536925,-15.041831,-0.005245000000000399,0.002739999999999805,-0.003241,0.052010811709431,0.00310668606855,2.69021560243902
51.127819548872175,0.6090364740047282,0.5733646380096645,-15.040282,0.001578000000000298,0.008365999999999998,-0.015445,0.0484328867428426,0.005253441048503,2.707494204954131
52.130325814536334,0.6090366504575155,0.5733643612004452,-15.021237,0.0028389999999998,0.0066180000000000995,0.0054010000000001,0.0546113522949025,0.0051312680008634,2.725296633137644
53.1328320802005,0.6090368223724469,0.5733640810751003,-14.999831,0.0038560000000001024,-0.0009390000000000995,0.0182349999999999,0.0567755605673755,0.0029845130209102,2.74351797524822
54.13533834586466,0.6090369899240551,0.573363799204426,-14.992552,0.004315999999999999,-0.008482999999999904,0.012500999999999901,0.0499513231920777,0.0,2.762018430412774
55.13784461152882,0.6090371504943463,0.5733635155884226,-15.004387,0.003349999999999901,-0.005341000000000096,-0.0024869999999999025,0.0461814120077699,-0.0004014257279585,2.780588646387531
56.14035087719298,0.6090373019889254,0.5733632312742875,-15.022467,-0.0041880000000001005,5.300000000010158e-05,-0.020752,0.0500909495322372,0.0018849555921538,2.800398046131204
57.14285714285714,0.6090374452804569,0.5733629459129547,-15.033204,-0.0036569999999997993,0.0034279999999998964,-0.0047399999999999,0.0521329847570706,0.0043982297150257,2.820155504876338
58.1453634085213,0.6090375812416056,0.573362658282694,-15.035535,0.0008209999999999988,-0.004092999999999902,0.0038309999999999005,0.050771627940515,0.0068067840827779,2.838812812780769
59.14786967418546,0.6090377083015752,0.5733623669872419,-15.033249,0.0035169999999998015,-0.0030610000000000984,0.0011139999999999995,0.0575260521457331,0.0083426738245329,2.8557427857777946
60.15037593984962,0.6090378268094314,0.5733620744700593,-15.026587,0.0011990000000003994,0.006359000000000101,0.00022800000000009965,0.0588350490847288,0.0075398223686156,2.8715028471239155
61.15288220551378,0.6090379372887731,0.5733617812547448,-15.013186,0.0021119999999996003,0.0116009999999999,-0.0036550000000001,0.0542099265669438,0.0055850536063819,2.886757164412686
62.15538847117794,0.6090380432302587,0.5733614868177,-14.994276,0.0024260000000001,0.005998,0.0038240000000001003,0.0547160720500222,0.0032812189937494,2.902046109033816
63.1578947368421,0.6090381460301516,0.5733611920315895,-14.976721,0.0031570000000001,0.0026880000000001,0.0119719999999998,0.0487470460082016,0.0008726646259973,2.918155567842894
64.16040100250626,0.6090382451648532,0.5733608961982812,-14.975666,-0.0005239999999999999,-0.011011,0.014763000000000099,0.0493404579538797,-0.0010297442586766,2.93639422361965
65.16290726817043,0.6090383359219742,0.5733606014121706,-14.996635,-0.0035879999999999003,-0.022069,-0.006592000000000001,0.0555538300909795,0.0005759586531581,2.95632612802352
66.16541353383458,0.6090384174288503,0.5733603062769941,-15.022557,0.0008069999999997003,-0.011156999999999993,-0.022137999999999998,0.0601091394386847,0.004921828490624,2.9751405504672164
67.16791979949875,0.6090384858457569,0.5733600104436858,-15.029364,0.0073390000000001,0.015951999999999994,-0.020947,0.0633554518473941,0.0079237948040542,2.991145359334345
68.1704260651629,0.6090385444888199,0.5733597151339764,-15.012672,-0.0035360000000001,0.022422999999999898,0.007811000000000099,0.0608072711394824,0.006789330790258,3.0058758335014213
69.17293233082707,0.6090385996412242,0.5733594189516024,-14.98119,-0.0050689999999997,0.014131000000000001,0.009186000000000001,0.0551873109480606,0.004310963252426,3.0212172427198665
70.17543859649122,0.6090386556662932,0.5733591225946953,-14.949384,0.0031659999999997996,0.0001299999999999999,0.0207419999999998,0.0511730536684737,-0.0004014257279585,3.0371871450019547
71.17794486215539,0.6090387095969672,0.5733588246669921,-14.942698,0.0051459999999999995,-0.021347999999999895,0.023362000000000098,0.0470366233412471,-0.0040317105721068,3.056211181488816
72.18045112781954,0.6090387537537971,0.573358528484618,-14.967609,4.0000000000000105e-05,-0.032866000000000006,-0.010525,0.0513650398861931,-0.0029670597283903,3.077050412757628
73.1829573934837,0.609038784471592,0.5733582319531779,-15.00013,0.0034429999999999,0.0004499999999999088,-0.0342069999999999,0.0608770843095622,0.0013613568165555,3.0955684433877506
74.18546365914787,0.6090388022739504,0.5733579369925345,-15.008973,0.0018120000000001,0.02586700000000009,-0.020184000000000098,0.0556410965535792,0.004310963252426,3.110543124023766
75.18796992481202,0.6090388134440575,0.5733576427300227,-14.991271,-0.002875,0.0239739999999999,0.013852,0.0518188254917116,0.0034557519189488,3.124401143004356
76.19047619047619,0.6090388225197696,0.5733573496892411,-14.970054,-0.005073,-0.004458999999999998,0.025210999999999997,0.0494102711239594,-0.0001745329251994,3.13963788482756
77.19298245614034,0.6090388296756196,0.573357056124861,-14.961547,0.0033639999999999,-0.014053,0.0029580000000000006,0.0500211363621574,-0.0021991148575128,-3.1268097148254013
78.19548872180451,0.6090388314209488,0.5733567636076783,-14.961346,0.0068560000000002,-0.003814999999999999,-0.005419,0.0507192680629552,-0.0032288591161895,-3.110194250159586
79.19799498746866,0.6090388233924343,0.573356472486759,-14.96634,-0.0007220000000001999,0.0024980000000000002,-0.0025020000000000003,0.0504923752601959,-0.004276056667386,-3.093840305628889
80.20050125313283,0.6090388082080699,0.5733561825875704,-14.974055,-0.0033,-0.0043269999999999,-0.0024,0.0518711853692714,-0.0037175513067477,-3.0771899692846176
81.203007518797,0.6090387851697237,0.5733558944337108,-14.978086,0.0028030000000000997,0.0033969999999999,-0.0068000000000000005,0.0505796417227956,-0.0019024088846737,-3.061830984600605
82.20551378446115,0.6090387565463239,0.5733556076761147,-14.978771,0.0030150000000000003,0.005049000000000095,0.006649,0.0520282650019509,-0.0019373154697135,-3.046542039979475
83.20802005012531,0.6090387205925414,0.573355322314782,-14.983518,-0.0020100000000001002,-0.0017120000000000954,0.003025,0.050789081233035,-0.0028274333882307,-3.0322826825373888
84.21052631578947,0.6090386783555735,0.5733550381751797,-14.990272,-0.0021379999999999993,0.0032320000000000994,-0.006099,0.0466002910282485,-0.0026529004630313,-3.0190355811548737
85.21303258145363,0.6090386317552825,0.573354755431841,-14.991149,0.0012790000000000995,0.004963999999999899,-0.004217,0.0444360827557756,-0.0023038346126325,-3.0057014052959774
86.21553884711778,0.6090385790463391,0.5733544742592985,-14.986688,0.0040930000000001,-0.00018899999999990105,0.0050000000000001,0.0471238898038469,-0.0018849555921538,-2.9919131471255893
87.21804511278195,0.60903852302127,0.5733541957047498,-14.985588,3.8999999999900226e-05,-0.0020740000000001,0.009069999999999901,0.0465130245656488,-0.0025656340004316,-2.978072703610567
88.22055137844612,0.6090384629819438,0.5733539190700634,-14.992694,0.0003809999999999005,-0.006047,-0.0020020000000000003,0.0509636141582344,-0.0022689280275924,-2.963132632853618
89.22305764411027,0.6090383952631687,0.5733536450533709,-15.002203,-0.0004170000000001013,0.00022300000000009812,-0.007504,0.0515919326889523,-0.0010471975511965,-2.9483672695547933
90.22556390977444,0.6090383219593402,0.5733533727820075,-15.004538,0.0011460000000001,0.0014480000000000048,-0.009925999999999999,0.0485725130830021,0.000314159265359,-2.9332703460579674
91.2280701754386,0.6090382423723263,0.5733531026050394,-14.995945,-0.0025039999999998,0.0089119999999999,0.004637999999999999,0.0472460628514864,0.0004014257279587,-2.919132952224011
92.23057644110276,0.6090381580729235,0.5733528345224663,-14.983259,0.0011789999999998,0.005465999999999999,0.006850000000000101,0.0469842634636873,-0.0005235987755982,-2.905222730445493
93.23308270676692,0.6090380711555268,0.5733525683597553,-14.979816,0.0036560000000001,-0.004691999999999998,0.0155049999999999,0.0456578132321716,-0.0029146998508304,-2.8909108909528
94.23558897243107,0.6090379788276092,0.5733523049895712,-14.995428,0.009725000000000001,-0.004810000000000002,-0.0021490000000001005,0.0348542251623267,-0.0050090949532237,-2.879793265790644
95.23809523809524,0.6090378819618358,0.5733520433647162,-15.022675,0.006666999999999999,-0.033013999999999905,0.0099640000000001,-0.0180641577581413,-0.0043807764225056,-2.781478938838973
96.2406015037594,0.6090377550763991,0.5733518042546087,-15.029981,0.19043799999999989,-0.16613100000000008,-0.09429799999999999,0.072937309440843,0.0211359372416513,-2.5429795569276084
97.24310776942356,0.60903761073767,0.5733516002256193,-14.988478,0.09663700000000008,-0.030374000000000012,0.0650310000000001,0.1098510231205231,0.0037699111843079,-2.277008849669485
98.24561403508773,0.6090374316668887,0.5733514523962316,-14.956106,0.0006300000000000194,0.078881,0.0172069999999998,0.108018427405929,-0.005811946409141,-2.04303018468005
99.24812030075188,0.6090372037268884,0.5733513621627093,-14.946752,-0.0064449999999999785,0.053798,0.026864000000000096,0.1306204412192556,-0.0139451807234345,-1.8322465789304776
100.25062656641605,0.6090369445454945,0.5733513223692023,-14.965672,-0.01588400000000001,0.03188400000000001,-0.022361,0.1360484151929579,-0.0156032435128292,-1.6443618849532875
101.2531328320802,0.6090366686089398,0.5733513255107949,-14.997824,-0.02494400000000002,0.034397000000000094,-0.0149860000000001,0.1125213768760744,-0.0080983277292536,-1.463493833448135
102.25563909774436,0.6090363846438706,0.5733513714129543,-15.010535,-0.007791999999999966,0.0636309999999999,-0.0272449999999999,0.1064999909566939,-0.0012391837689158,-1.2776334246972871
103.25814536340852,0.6090361078346512,0.5733514550142255,-14.991023,-0.004022000000000137,0.07949700000000011,-0.003935000000000001,0.1250179517736463,-0.0029146998508304,-1.0881431150747247
104.26065162907268,0.6090358528420474,0.5733515757910097,-14.970263,-0.013009999999999883,0.0455209999999997,0.051501000000000005,0.1144063324682283,-0.010140362954087,-0.9019689833908296
105.26315789473684,0.60903562507658,0.5733517326961095,-14.985101,-0.028033000000000002,0.003126000000000184,0.022994999999999998,0.10156070917355,-0.0100880030765271,-0.722234366155216
106.265664160401,0.6090354240146503,0.5733519234605966,-15.024855,-0.025409000000000015,0.004283000000000009,-0.036756,0.1031838653779047,-0.0025656340004316,-0.5442808923278472
107.26817042606515,0.6090352494817249,0.5733521435466155,-15.050051,-0.028974,0.042451999999999906,-0.043140000000000005,0.0952949771588904,0.0043458698374658,-0.3624349153895097
108.27067669172932,0.6090351109025824,0.5733523856237827,-15.041068,-0.04918600000000019,0.06068799999999999,0.003589000000000002,0.1042485162216212,0.0055501470213419,-0.1755976633096125
109.27318295739347,0.6090350213671917,0.5733526455033083,-15.013862,0.015008000000000285,0.044075000000000114,0.0393189999999999,0.0404218254761886,0.0012915436464757,-0.0131773231190195
110.27568922305764,0.609034981050086,0.5733529256286533,-15.00654,-0.0002580000000002858,-0.07636600000000002,0.0182150000000001,0.0703193155628515,0.0037000980142281,0.0733387351688017
111.2781954887218,0.609034983493547,0.5733532312358053,-15.012286,-0.0007639999999997094,-0.086531,-0.0268339999999999,0.0009773843811168,0.0117809724509618,0.1093099710524048
112.28070175438596,0.6090349986779116,0.573353551154657,-15.00855,-0.10001499999999999,-0.03910999999999999,-0.019002,-0.0196000474998963,0.0228289066160858,0.1085420261815273
113.28320802005013,0.6090350178765332,0.5733538635685932,-14.980547,-0.0731750000000001,-0.139773,-0.003223000000000101,0.0365297412442413,0.0285012266850674,-0.028588493147667
114.28571428571428,0.6090350187491979,0.5733541779023915,-14.941288,-0.003598999999999901,-0.165856,0.030940000000000002,0.0811927168027762,0.0248011286708393,-0.2519382426187964
115.28822055137844,0.6090350051356297,0.5733544644854547,-14.907823,-0.0738050000000002,-0.06963699999999992,-0.008088,0.0280474410795488,0.0317649923862968,-0.4950102824506326
116.2907268170426,0.6090349302610047,0.5733547306481657,-14.870054,-0.05700199999999979,0.0030929999999999014,-0.007871,0.0449422282388539,0.0305607152024207,-0.7301061501475604
117.29323308270676,0.6090347892384013,0.5733549669657464,-14.824651,-0.0372410000000003,0.04235300000000011,-0.006652000000000002,0.0218166156499291,0.0262846585350347,-0.9532987501728408
118.29573934837092,0.6090345979503152,0.5733551673295444,-14.766053,-0.03478499999999962,0.060419,0.009300000000000102,-0.0386066830541145,0.0132819556076768,-1.1630354725304812
119.29824561403508,0.6090343759444343,0.5733553275507698,-14.718026,-0.02251900000000029,0.064129,0.0455669999999999,-0.0207345115136926,-0.0042935099599059,-1.362648447468516
120.30075187969923,0.6090341329946025,0.573355443964231,-14.704624,-0.008809999999999873,0.0345359999999999,-0.015403999999999998,0.0046251225177849,-0.0064053583548191,-1.5584392560644365
121.3032581453634,0.6090338764312024,0.5733555153481973,-14.705091,0.00015199999999998548,0.037807999999999994,-0.0301359999999999,-0.0180467044656213,-0.0053756140961425,-1.7564820455409138
122.30576441102755,0.6090336167262098,0.5733555453678605,-14.698299,0.00018699999999999273,0.0667600000000001,0.0013459999999999002,-0.0033335788713091,-0.0068591439603375,-1.955868651274964
123.30827067669172,0.6090333634789353,0.5733555336741545,-14.688348,0.010438999999999976,0.061943999999999805,0.01735,0.0274889357189106,-0.0042236967898261,-2.155411847949503
124.31077694235589,0.6090331310010789,0.5733554814888099,-14.684896,0.007796999999999998,0.0478640000000001,-0.005758,0.0530754625531475,-0.0040840704496667,-2.354920434744974
125.31328320802004,0.6090329252267601,0.5733553872410302,-14.685496,-0.019262999999999975,0.02262900000000001,-0.014679999999999999,-0.004921828490624,-0.003630284844148,-2.538703587526685
126.3157894736842,0.6090327463305117,0.5733552483128217,-14.685452,0.029031000000000085,-0.022569000000000117,0.019814,-0.0117984257434816,-0.0131248759749973,-2.633684422873509
127.31829573934836,0.6090325831422267,0.5733550743034953,-14.701276,0.08424900000000002,-0.0894389999999999,0.002572999999999999,0.0504923752601959,-0.0206821516361328,-2.648222893369574
128.32080200501252,0.6090324297277855,0.5733548636422546,-14.734729,0.043383999999999895,-0.072989,0.0071839999999999005,0.0243298897728009,-0.0278380015693096,-2.6318343215065174
129.32330827067668,0.6090322637469736,0.5733546369239848,-14.785851,0.025553999999999993,-0.0357389999999998,-0.0116989999999999,0.0261101256098351,-0.0291644518008251,-2.611187111362009
130.32581453634086,0.6090320722843546,0.5733543999082723,-14.838645,0.010319000000000009,0.001391999999999699,-0.014896,0.0284488668075075,-0.0277681883992297,-2.5983064593092435
131.328320802005,0.6090318637175091,0.5733541520715186,-14.885392,0.010946000000000095,0.017936000000000195,0.00033299999999999996,0.0164060949687466,-0.026476644752754,-2.5940829545056348
132.33082706766916,0.6090316446786879,0.5733538956826515,-14.930539,0.008508999999999906,0.0147829999999999,0.0030350000000000004,0.0105766952670856,-0.0253421807389575,-2.593733818842066
133.33333333333331,0.6090314184840169,0.573353630916204,-14.97198,0.009538999999999999,0.0112810000000001,-0.0028130000000000004,0.0078888882190143,-0.023073252711365,-2.593646465113004
134.3358395989975,0.6090311907185495,0.5733533575976432,-15.013531,0.007154000000000098,0.008181,0.013195,-0.0014137166941154,-0.0207868713912524,-2.594012914442752
135.33834586466165,0.6090309594624236,0.5733530764251006,-15.068758,0.004765999999999999,-0.0187560000000002,0.0016409999999998995,0.0031066860685499,-0.0162141087510272,-2.5928262127244435
136.3408521303258,0.609030720701382,0.5733527901911032,-15.120968,0.0266669999999998,-0.003068999999999697,-0.028281999999999897,-0.001535889741755,-0.0075572756611352,-2.590417640903399
137.34335839598998,0.6090304767043525,0.57335250360804,-15.146693,0.0502790000000001,0.020635999999999797,-0.012590999999999901,-0.0232303323440445,-0.0017104226669544,-2.596665954532124
138.34586466165413,0.6090302452736936,0.5733522301149463,-15.151899,0.054970000000000005,0.2575959999999999,0.0323339999999999,0.0295833308213038,-0.0057072266540214,-2.7857376120270096
139.34837092731829,0.6090300922083183,0.5733519594143792,-15.141963,-0.15602,0.24894600000000008,-0.045850999999999996,0.0855211333477221,0.0089884456477709,-3.0475716097052263
140.35087719298244,0.6090299864413656,0.573351717337212,-15.094926,0.0588630000000001,-0.044287000000000076,0.0252930000000001,0.0196000474998963,0.012636183784439,3.0281987168074767
141.35338345864662,0.6090299956916105,0.5733514592030157,-15.058792,0.0425129999999999,-0.0539659999999999,0.0580649999999999,0.0273144027937112,0.0056897733615015,2.855934545102711
142.35588972431077,0.6090300906375219,0.5733511956582986,-15.061013,0.0282399999999999,-0.06732600000000011,-0.007755000000000005,0.0266511776779534,0.0063529984772594,2.709623663721197
143.35839598997492,0.6090302363725145,0.5733509397930303,-15.088454,0.023550000000000106,-0.07009499999999991,-0.0251120000000001,0.0496720705117586,0.0101054563690472,2.5846580194652327
144.36090225563908,0.6090304229482115,0.5733506943997374,-15.105431,-0.001100000000000101,-0.04432699999999998,-0.0319909999999999,0.0538085008389851,0.0127059969545186,2.4898694670421007
145.36340852130326,0.6090306426851644,0.5733504607001506,-15.086588,-0.015123000000000011,-0.016371000000000108,-0.008403999999999998,0.0607025513843627,0.011711159280882,2.4193055435845823
146.3659147869674,0.6090308983758997,0.5733502353781442,-15.036075,-0.024263999999999994,-0.00827099999999989,0.011414999999999998,0.0631111057521149,0.0068591439603378,2.368621059933619
147.36842105263156,0.609031187227891,0.5733500152921256,-14.983323,-0.0173459999999999,-0.022436000000000095,0.035969,0.0616624824729596,0.0006806784082777,2.334290520813353
148.37092731829574,0.6090315003399588,0.5733497990458312,-14.959769,0.024897999999999896,-0.0940959999999998,0.024664999999999996,0.0368788070946401,-0.0053756140961425,2.3142542282669214
149.3734335839599,0.6090318209569424,0.5733495908280515,-14.975029,-0.0011539999999998982,-0.05066600000000031,-0.004156,0.0275587488889904,-0.0075223690760954,2.3024383143243345
150.37593984962405,0.6090321379087346,0.5733493902897204,-15.015025,-0.016142999999999998,-0.0169769999999997,-0.018760000000000096,0.0389208423194735,-0.0058293997016609,2.2963122435564194
151.3784461152882,0.6090324485773414,0.5733491948128442,-15.056637,-0.019752,-0.0005610000000000001,-0.0243859999999999,0.048607419668042,-0.0010646508437164,2.2950555017752285
152.38095238095238,0.609032757500619,0.5733489988123691,-15.078253,-0.0143510000000001,0.006441999999999701,-0.017677,0.0487295927156816,0.0038920842319474,2.2954571020361123
153.38345864661653,0.6090330695654893,0.5733488015901637,-15.070462,0.0011070000000001998,0.0072260000000002,0.000676999999999997,0.0443313630006559,0.0058817595792208,2.296032886156345
154.38596491228068,0.6090333844228863,0.5733486036698264,-15.042151,0.0031549999999999,0.003588000000000098,0.011243000000000102,0.0384146968363951,0.0041015237421866,2.297656077267285
155.3884711779449,0.6090337034690736,0.5733484059240221,-15.010419,0.0035410000000000003,-0.0022160000000001987,0.021759999999999897,0.0310319541004591,0.0009773843811169,2.2996633106268334
156.39097744360902,0.6090340251332547,0.5733482087018168,-14.993855,-0.0030470000000000002,-0.0107589999999999,0.015265,0.0339990138288495,-0.0028099800957108,2.302787188188516
157.39348370927317,0.6090343450521066,0.5733480113050784,-15.003334,-0.012958999999999901,-0.018167,0.0017019999999999987,0.0360934089312427,-0.0040666171571466,2.3072730159786987
158.39598997493732,0.6090346599095038,0.5733478121630107,-15.02731,0.0003809999999997999,-0.005371999999999899,-0.019063999999999998,0.0432492588644195,-0.001169370598836,2.310117815392988
159.3984962406015,0.6090349705781105,0.5733476112756137,-15.047272,0.0065320000000002,0.0073919999999998,-0.015259,0.0435110582522186,0.0032812189937494,2.311112757786379
160.40100250626566,0.6090352781051247,0.5733474100391511,-15.052283,0.005953,0.013303000000000254,-0.005065,0.0444884426333354,0.0054977871437822,2.310257354466684
161.4035087719298,0.6090355870284023,0.5733472089772212,-15.044355,0.0040329999999997,0.009608999999999746,0.007680000000000001,0.0392873614623923,0.0053756140961425,2.308878631624072
162.406015037594,0.6090358983951408,0.5733470080898243,-15.033347,-0.005440999999999799,-0.0017099999999999008,0.009392999999999999,0.0404043721836687,0.0039444441095073,2.3089135207558185
163.40852130325814,0.6090362118562745,0.573346807900559,-15.021855,-0.002811,-0.002993,-0.004248,0.0433190720344992,0.0037699111843079,2.308895945290251
164.4110275689223,0.6090365272372704,0.5733466078858268,-15.007921,-0.0025149999999998,-0.0032559999999999993,0.0014449999999999999,0.0439473905652172,0.0030892327760301,2.30915774467805
165.41353383458645,0.6090368426182662,0.5733464061257654,-14.996257,-0.002726,-0.0019030000000001001,0.004506,0.0436157780073383,0.0021467549799529,2.3097859759423054
166.41604010025063,0.6090371574756632,0.5733462026203745,-14.989389,0.0037119999999997003,-0.0026659999999998,0.004257,0.0415737427825049,0.0007330382858377,2.3102400408005046
167.41854636591478,0.6090374712858628,0.5733460001621812,-14.989762,0.0069460000000002,0.0009169999999998001,-0.001418,0.0399854931631901,-0.0002967059728389,2.3096291232024284
168.42105263157893,0.6090377850960622,0.5733457989257186,-14.996268,0.0036739999999997,0.0028830000000001,5.5999999999999626e-05,0.0439822971502571,-0.0004886921905582,2.3087215170848068
169.4235588972431,0.6090380994298606,0.5733455978637887,-15.005848,-0.0023139999999999003,0.0032079999999998997,-0.005315,0.0490612052735606,8.726646259971105e-05,2.308355067755058
170.42606516290726,0.6090384151599223,0.5733453971509248,-15.013877,-0.0046839999999997994,-0.0020259999999999,-0.005606999999999999,0.048014007722364,0.0021118483949131,2.309384899280197
171.42857142857142,0.6090387322862474,0.5733451967871266,-15.014155,-0.0030209999999998996,-0.001185,-0.002792,0.0522900643897501,0.0031590459461097,2.310397172793061
172.43107769423557,0.6090390495871054,0.5733449962487955,-15.006578,-0.0014040000000001998,0.000611,0.0008729999999999996,0.0534419816960663,0.002460914245312,2.3111998497160537
173.43358395989975,0.6090393665388975,0.5733447955359315,-14.993996,0.0028009999999999997,0.0027239999999999,0.0039780000000000995,0.0531452757232273,0.0013788101090754,2.311985212972866
174.4360902255639,0.6090396827925579,0.5733445925541396,-14.981731,-0.0043660000000001,0.000902,0.0048259999999998,0.0522202512196703,-0.0006806784082777,2.3134864404756765
175.43859649122803,0.6090400007915476,0.57334438852515,-14.974375,-0.0011709999999997998,-0.0027359999999999,0.0053610000000001,0.0511556003759537,-0.0033161255787892,2.31554585917986
176.44110275689223,0.6090403198377349,0.5733441827508312,-14.974846,0.0013559999999998998,-0.0020679999999998998,-0.0005850000000001002,0.0523947841448697,-0.0036128315516281,2.3171690677440915
177.4436090225564,0.6090406381857906,0.5733439764529137,-14.979634,0.003995,-0.00010300000000019999,-0.0048109999999999,0.0512428668385535,-0.0019896753472734,2.3178321881400943
178.44611528822054,0.6090409563593132,0.5733437705040618,-14.986625,0.0043870000000001,-0.0010779999999998,0.0018590000000000002,0.0486423262530819,-0.0012217304763959,2.317936855535337
179.4486215538847,0.6090412750564346,0.573343567173204,-14.998395,0.00012199999999989997,-0.0021630000000002,-0.0002490000000000001,0.0498815100219979,-0.0008377580409573,2.317814612674527
180.45112781954887,0.6090415925318255,0.5733433631442145,-15.011776,-0.0048150000000001004,-0.0050139999999998,-0.0035860000000000006,0.051399946471233,-0.0003490658503988,2.3171863639569787
181.45363408521305,0.6090419077382885,0.573343158766159,-15.019555,-0.0055389999999998,0.0032750000000001,-0.008494999999999999,0.0535641547437059,0.0002967059728391,2.316121905099481
182.4561403508772,0.6090422231192842,0.5733429519446427,-15.012628,-0.003812000000000099,0.0112749999999996,-0.012477,0.0526042236551091,0.0010821041362365,2.314655566728417
183.45864661654133,0.6090425400710764,0.57334274355233,-14.985196,0.0136269999999999,0.014141000000000202,0.003603000000000099,0.0461290521302101,0.0002443460952792,2.312508794295172
184.4611528822055,0.6090428624333892,0.5733425362072149,-14.953951,0.0043530000000001,-0.003637000000000102,0.030055999999999798,0.038763762686794,-0.0044156830075456,2.312421440566109
185.4636591478697,0.6090431863664985,0.5733423299092972,-14.947448,0.0008019999999999998,-0.019270999999999698,0.019261000000000104,0.0381703507411159,-0.0075398223686153,2.313852889805425
186.46616541353384,0.6090435097760089,0.5733421255312419,-14.974139,-0.0007200000000000999,-0.0181810000000003,-0.002088000000000003,0.0408930643742271,-0.0073129295658562,2.3146033639304897
187.468671679198,0.6090438269023338,0.573341921851318,-15.020497,-0.0042579999999999,-0.004557999999999798,-0.02362,0.0416784625376245,-0.0035953782591082,2.3138875171377844
188.4711779448621,0.6090441396653359,0.5733417178223287,-15.057051,-0.0055759999999999005,0.011583999999999999,-0.031641,0.0525344104850293,0.0020769418098733,2.313137304812108
189.4736842105263,0.6090444492867452,0.5733415134442732,-15.056636,-0.005859000000000001,0.0232669999999999,-0.015875999999999998,0.0520457182944709,0.0050963614158234,2.311880563030916
190.47619047619045,0.6090447643186752,0.5733413078444873,-15.018828,0.0021039999999998005,0.017787999999999898,0.014042000000000096,0.0479791011373241,0.0031590459461097,2.310868289518052
191.47869674185463,0.6090450863319221,0.5733410994521746,-14.970983,0.009405,-0.0019469999999998967,0.0361239999999998,0.0356396233257242,-0.0009948376736366,2.310432061924809
192.4812030075188,0.609045413232091,0.5733408928051912,-14.95016,0.007637000000000201,-0.022187000000000002,0.0318280000000001,0.0325678438422141,-0.0056897733615015,2.310728471191675
193.4837092731829,0.6090457394341282,0.573340687903537,-14.976305,-0.0005420000000003009,-0.0274629999999999,0.004284999999999997,0.0352381975977655,-0.0064402649398589,2.3114965207823075
194.48621553884712,0.6090460576076508,0.573340484572679,-15.029715,-0.0083389999999999,-0.009013000000000198,-0.038908,0.0424464074085021,-0.0022514747350725,2.312229698694485
195.48872180451127,0.609046367752659,0.5733402821144858,-15.06613,-0.0059139999999999,0.019664000000000098,-0.042789,0.0511381470834338,0.0043807764225058,2.312020363904001
196.49122807017545,0.6090466775486012,0.5733400780854964,-15.055339,-0.0007309999999998004,0.0271259999999999,-0.010093999999999999,0.0558330827712985,0.0072605696882965,2.3108509758518725
197.4937343358396,0.60904699310413,0.5733398726602434,-15.011816,0.0048319999999998,0.014977000000000101,0.031235,0.0476125819944053,0.0047996554429845,2.3101527045247345
198.49624060150376,0.6090473135465806,0.5733396667113917,-14.970205,0.006061,-0.0119339999999999,0.032656000000000004,0.0346796922371273,-0.0003141592653588,2.318111283740781
199.4987468671679,0.6090476352107619,0.5733394600644082,-14.956695,-0.0372919999999998,-0.058936,0.013166999999999998,0.0378910980607968,-0.002740166925631,2.366404788489559
200.5012531328321,0.6090479437849736,0.5733392438181139,-14.972423,-0.0685030000000002,-0.06475700000000001,-0.0044379999999999975,0.061243603452481,-0.0029845130209102,2.4534094517014773
201.50375939849624,0.609048229844438,0.5733390141327843,-15.002224,-0.03122800000000009,-0.0600920000000003,-0.023297000000000102,0.0715934059168074,-0.0033684854563489,2.563434763401104
202.5062656641604,0.6090484804737185,0.5733387647252343,-15.028152,0.007254000000000288,-0.0496519999999995,-0.0086099999999998,0.083409284952809,-0.0047298422729045,2.686864552821898
203.5087719298245,0.6090486848517739,0.573338494548266,-15.042037,0.015064999999999704,-0.02767100000000039,-0.0072190000000001,0.0833045651976893,-0.00614355896702,2.8170835508599024
204.5112781954887,0.6090488398370115,0.5733382091869332,-15.044685,0.023072000000000203,-0.015017999999999893,0.00519,0.0803898653468588,-0.0058643062867009,2.950828026720473
205.51378446115288,0.6090489438586348,0.5733379102120324,-15.041915,0.026526999999999995,-0.014189000000000007,0.006789,0.0799535330338602,-0.0061086523819799,3.085881726412841
206.51629072681703,0.6090489946477162,0.5733376039067487,-15.048045,0.0329589999999999,-0.007657000000000025,0.016947999999999998,0.0802153324216593,-0.0052359877559828,-3.065653412742105
207.5187969924812,0.6090489929023869,0.573337295158004,-15.069441,0.0345169999999999,-0.007491999999999999,-0.002437,0.0834965514154087,-0.0019024088846737,-2.94014662915156
208.5213032581453,0.6090489347829228,0.5733369900744508,-15.104057,0.0319820000000001,-0.0007709999999999662,-0.003391,0.0860621854158403,0.0025830872929517,-2.823646111020449
209.52380952380952,0.6090488225582519,0.5733366923212805,-15.131996,0.0207499999999999,0.021443999999999963,-0.032749,0.0892212313619501,0.0079761546816141,-2.7198688511501583
210.52631578947367,0.609048663558757,0.5733364050400855,-15.128287,0.007610000000000103,0.05432600000000001,-0.011741999999999999,0.0846833753067648,0.0101927228316469,-2.629792216468514
211.52882205513785,0.6090484672092161,0.5733361280563333,-15.096811,-0.005876999999999903,0.05252999999999999,0.018289000000000097,0.0778940445165069,0.0095818575934489,-2.550484612337524
212.531328320802,0.6090482439816048,0.5733358591010954,-15.065516,0.004596999999999692,0.006597000000000214,0.0324159999999999,0.0753109572235553,0.0077841684638948,-2.478559558956253
213.53383458646616,0.6090479952721864,0.5733356009668992,-15.056336,0.0031670000000001003,-0.005469000000000196,0.0030300000000000014,0.0811403569252164,0.0088139127225714,-2.4177172416053896
214.5363408521303,0.6090477179393683,0.5733353555736063,-15.060197,-0.000589999999999799,0.007448999999999983,-0.017534,0.0783129235369855,0.0126536370769589,-2.3708030007512924
215.5388471177945,0.6090474159974077,0.5733351220485523,-15.044703,0.01759999999999981,0.0737490000000001,-0.036253,0.0625002405139169,0.0168424272817453,-2.3383571728770853
216.54135338345864,0.6090471006164119,0.5733349016134678,-14.990653,-0.027680999999999803,0.054122,0.003669000000000002,0.059986966391045,0.0139626340159546,-2.319944071441593
217.5438596491228,0.6090467859335478,0.5733346897304967,-14.933022,-0.0322800000000003,0.0204949999999999,0.057228,0.0549604181453014,0.0046251225177851,-2.311322092576864
218.5463659147869,0.6090464735196117,0.5733344806400522,-14.918817,-0.019704999999999702,-0.019248000000000102,0.022458,0.057246799465414,-0.0016231562043547,-2.308826167026756
219.5488721804512,0.60904615778955,0.5733342720732066,-14.936524,0.0036249999999998003,-0.010459999999999699,-0.042078,0.0525169571925093,0.0009773843811169,-2.3097161976788105
220.55137844611528,0.609045835950836,0.5733340645535586,-14.93589,-0.0037090000000000005,0.0339989999999998,-0.0380039999999999,0.0385543231765547,0.0029845130209102,-2.3171690677440915
221.55388471177943,0.6090455165555828,0.5733338556376472,-14.914227,-0.0205079999999998,0.0353459999999999,0.0284009999999999,0.0380481776934763,-0.0016755160819144,-2.3295783238191867
222.5563909774436,0.6090452043161796,0.5733336451509394,-14.90925,-0.0045869999999999,-0.0071919999999999,0.0330649999999999,0.0359537825910832,-0.0065275314024586,-2.339770767398153
223.55889724310777,0.6090448980108959,0.5733334329189023,-14.93484,0.0166129999999997,-0.0282580000000001,-0.0057349999999999,0.0356221700332042,-0.0065624379874986,-2.345495499704572
224.56140350877192,0.6090445913565462,0.5733332196396677,-14.966099,0.0075120000000001,-0.006812999999999901,-0.040968000000000004,0.0330390827402526,-0.0020420352248333,-2.3502255514169867
225.56390977443607,0.6090442852257956,0.5733330077566965,-14.961221,-0.0063360000000000005,0.035012,-0.027385999999999997,0.0268082573106329,0.0012217304763961,-2.355583834393657
226.56641604010025,0.6090439860763617,0.5733327944774619,-14.928493,-0.007775999999999999,0.018661,0.042543,0.0303338223996614,-0.0031241393610697,-2.358253908896528
227.5689223057644,0.6090436940827778,0.573332582070892,-14.926233,0.0093150000000001,-0.0344470000000001,0.054471,0.04000294645571,-0.0090233522328107,-2.3521105244624336
228.57142857142856,0.6090434027873256,0.5733323701879207,-14.971049,0.0204779999999997,-0.050509999999999694,-0.027094000000000097,0.0345749724820076,-0.0062831853071794,-2.3408181918421525
229.5739348370927,0.6090431055577541,0.5733321614465422,-15.006826,0.015387000000000296,0.0150349999999999,-0.0664029999999999,0.0351683844276857,0.0027052603405912,-2.329805234075238
230.5764411027569,0.6090428034412605,0.5733319586392832,-14.99145,-0.0032970000000000985,0.0418539999999997,-0.003365,0.0367740873395205,0.0042411500823462,-2.321130773159901
231.57894736842104,0.6090425041172939,0.5733317619406765,-14.961364,-0.014290000000000098,0.0035160000000003,0.060947,0.0426034870411815,-0.0025830872929515,-2.311060293189064
232.5814536340852,0.6090422084585185,0.5733315676855307,-14.968207,-0.009566000000000002,-0.0341070000000002,0.025437000000000005,0.0359188760060433,-0.00614355896702,-2.297516520740296
233.58395989974937,0.6090419114034799,0.5733313750011813,-15.001906,0.0146920000000001,-0.019271999999999803,-0.0390390000000001,0.0276111087665502,-0.0014311699866353,-2.282384708111722
234.58646616541355,0.6090416084143218,0.573331186680155,-15.014452,0.0163969999999998,0.0186800000000001,-0.0416709999999999,0.0333532420056116,0.0053232542185828,-2.2686313565263743
235.58897243107768,0.6090413035053014,0.5733310041187153,-14.991672,-0.0066899999999998,0.0308999999999996,0.016609000000000002,0.041852995462824,0.0054977871437822,-2.2579147905730346
236.59147869674183,0.6090410022614725,0.5733308278404607,-14.96994,-0.015067,-0.0060099999999997,0.0467189999999999,0.0450469479939736,-0.000925024503557,-2.2471987656717616
237.593984962406,0.6090407032865716,0.5733306562745953,-14.982266,0.006749999999999801,-0.0361740000000002,0.003561000000000099,0.0386939495167142,-0.0020594885173532,-2.232503180636433
238.59649122807016,0.6090403989011501,0.5733304878503225,-15.002866,0.012354000000000198,-0.0062349999999998,-0.0400389999999999,0.0374547657477983,0.0022863813201126,-2.2186102550708022
239.59899749373432,0.6090400885816092,0.5733303237893729,-14.998173,-0.007184999999999997,0.0234840000000001,-0.0215950000000001,0.0314682864134577,0.004607669225265,-2.2091331346857657
240.6015037593985,0.609039776342206,0.5733301656625426,-14.963184,-0.014516000000000202,0.0289199999999997,0.011002999999999999,0.0395317075576715,0.0027925268031909,-2.2020294177373456
241.60401002506265,0.6090394712586525,0.5733300101537062,-14.927787,-0.0081149999999997,0.005858000000000099,0.048936,0.0376467519655176,-0.0047298422729045,-2.194472176982796
242.6065162907268,0.6090391707129554,0.5733298556920674,-14.94274,0.013426999999999798,-0.0403840000000001,0.0324239999999999,0.0331438024953723,-0.0096167641784887,-2.18249939284704
243.60902255639093,0.6090388668511327,0.5733297064664163,-14.998722,0.020582,-0.030268999999999803,-0.0502039999999999,0.031066860685499,-0.0034382986264287,-2.1702645649773893
244.6115288220552,0.6090385563570587,0.5733295635239507,-15.025912,-0.0021899999999999004,0.0307129999999999,-0.066072,0.0313461133658181,0.005567600313862,-2.163108645231042
245.6140350877193,0.6090382435940569,0.5733294259920056,-14.993629,-0.0285140000000001,0.043215,0.012514000000000004,0.0294611577736642,0.0054105206811825,-2.16092726291873
246.61654135338344,0.6090379378123719,0.573329289681791,-14.94536,-0.0196879999999998,0.0002129999999999979,0.060327999999999896,0.0321838714067754,-0.0027750735106708,-2.158099515371233
247.6190476190476,0.6090376379648064,0.5733291530225106,-14.935533,0.017927999999999798,-0.0332829999999999,0.0363870000000001,0.0341910000465689,-0.0094596845458092,-2.1497046911086515
248.62155388471177,0.609037337768175,0.5733290172358947,-14.973231,0.021690000000000105,-0.0276310000000002,-0.022942999999999998,0.0318522588488965,-0.0078365283414545,-2.13911036801612
249.62406015037595,0.6090370309392925,0.573328885987135,-15.009762,0.003613999999999999,0.012840000000000198,-0.061039,0.0278903614468693,0.0004886921905584,-2.131640201737952
250.62656641604008,0.6090367204452186,0.5733287604979619,-15.002197,-0.014747000000000104,0.038842999999999905,-0.009848999999999997,0.0272445896236314,0.0039444441095073,-2.1278356108614074
251.62907268170423,0.6090364148380666,0.5733286390230459,-14.973786,-0.012735999999999999,0.0053429999999999,0.047669,0.0307352481276201,-0.0008552113334772,-2.12383873706117
252.6315789473684,0.6090361156886327,0.5733285184207946,-14.967813,-0.0024819999999998992,-0.027890999999999902,0.020395,0.026755897433073,-0.004886921905584,-2.118271136747308
253.63408521303256,0.6090358182845282,0.573328398167609,-14.978498,0.0073970000000001,-0.00987,-0.025344,0.0247662220857995,-0.0032114058236694,-2.11102814252458
254.63659147869672,0.6090355168661664,0.5733282793106871,-14.980733,0.0113639999999998,0.0086610000000001,-0.013552999999999999,0.0303338223996614,-0.0006457718232377,-2.102895117649796
255.6390977443609,0.6090352147496728,0.5733281651661539,-14.975154,-0.0023199999999998985,0.0070159999999998,0.010702999999999999,0.0292517182634249,-0.0018500490071138,-2.0964196319656314
256.64160401002505,0.6090349138549098,0.5733280545122794,-14.97091,-0.0024960000000001023,0.0008599999999999997,0.0058969999999999995,0.0238411975822425,-0.003996803987067,-2.0893856932807067
257.64411027568923,0.6090346152290748,0.5733279478726621,-14.970787,0.000997000000000102,-0.0039219999999998995,0.000549,0.0236317580720032,-0.0055850536063817,-2.08243963192362
258.6466165413533,0.6090343174759044,0.573327843152907,-14.977289,-0.003986000000000101,-0.0041689999999998,0.0008080000000000006,0.0242426233102012,-0.0061610122595399,-2.0758600373495737
259.64912280701753,0.6090340188500694,0.5733277405275469,-14.984248,-0.006224,0.0065489999999996,-0.01115,0.02151990967709,-0.0036826447217079,-2.069663926518776
260.6516290726817,0.609033721271432,0.5733276401711149,-14.98076,0.0037010000000001,0.0085950000000003,-0.004499,0.0234921317318436,-0.0023911010752322,-2.0629266589001056
261.65413533834584,0.6090334273579859,0.5733275427817427,-14.973366,0.011585999999999999,-0.005305000000000301,0.013728999999999901,0.0269129770657525,-0.0034033920413889,-2.0542873663691963
262.65664160401,0.6090331348408032,0.5733274492320947,-14.976518,-0.0002889999999999976,-0.0151069999999997,0.010981000000000001,0.0275063890114306,-0.0048171087355042,-2.04627656690193
263.65914786967414,0.6090328398801597,0.5733273589985725,-14.991416,-0.013187000000000101,-0.003913000000000001,-0.0112649999999999,0.0212057504117311,-0.0032986722862691,-2.040638664725798
264.6616541353383,0.6090325436977856,0.5733272710339781,-14.995349,-0.0049509999999999,0.0174199999999997,-0.026715000000000003,0.0168947871593051,0.0001396263401596,-2.0354726646728194
265.6641604010025,0.6090322494352738,0.5733271855128448,-14.978328,0.0092809999999999,0.0168530000000002,0.0117120000000001,0.0213977366294504,-0.0005410520681181,-2.0291375383671006
266.66666666666663,0.6090319586634204,0.573327101038909,-14.964067,4.7000000000099046e-05,-0.0108809999999999,0.0287679999999999,0.0259879525621955,-0.0052883476335428,-2.022190953411238
267.6691729323308,0.6090316703350279,0.5733270188339012,-14.970796,-0.006678999999999999,-0.0174750000000001,0.0005639999999999985,0.0219387886975687,-0.0069813170079773,-2.0152443510020825
268.671679197995,0.6090313816575696,0.5733269387232885,-14.9825,0.006348999999999898,0.0006219999999999,-0.024797,0.0186924762888592,-0.0048345620280241,-2.007215993522541
269.6741854636591,0.6090310931546443,0.5733268617542685,-14.982265,0.0061280000000000015,0.0151290000000001,-0.004412000000000001,0.0231256125889248,-0.0030368728984699,-1.999100003061257
270.6766917293233,0.6090308051753177,0.5733267874032424,-14.982471,-0.0032650000000000005,-0.004241000000000101,0.022939,0.0272620429161514,-0.0044156830075456,-1.991176312976958
271.6791979949875,0.6090305171959912,0.5733267161938088,-14.994934,-0.010308999999999999,-0.0112799999999999,-0.004608000000000101,0.0205250720034533,-0.0035255650890284,-1.9845439745529168
272.6817042606516,0.6090302309619938,0.5733266456825072,-15.000279,0.0018320000000000992,0.0077630000000001,-0.025170999999999902,0.0187448361664191,0.0001396263401596,-1.9770916455397043
273.6842105263158,0.6090299445534636,0.5733265776146663,-14.986831,0.0069229999999999,0.0137199999999997,0.004877000000000001,0.0252898208613978,0.0005759586531581,-1.9689929687446004
274.68671679198,0.6090296605883943,0.5733265125138852,-14.97165,0.0017749999999999988,-0.0035999999999997995,0.023316,0.0272445896236314,-0.0027227136331111,-1.9610170758623733
275.6892230576441,0.6090293806375823,0.5733264502056309,-14.975818,-0.0029129999999998983,-0.0109010000000001,0.014326,0.0249407550109989,-0.0051487212933831,-1.9535298577174127
276.69172932330827,0.6090291010358361,0.5733263898172388,-15.000963,-0.0039530000000001005,-0.0105559999999999,-0.010078,0.0216944426022895,-0.0038048177693474,-1.9459374485784349
277.6942355889724,0.6090288174198327,0.5733263318723076,-15.026108,0.005093000000000099,-0.0001759999999999002,-0.028719,0.0176627320301826,0.001204277183876,-1.9377343836407697
278.69674185463657,0.6090285339783621,0.5733262767199033,-15.022947,0.001916000000000001,0.021041,-0.0211319999999999,0.0204203522483336,0.0056723200689816,-1.930665817623485
279.69924812030075,0.6090282545511488,0.5733262243600258,-14.991201,-0.00846,0.0189069999999998,0.023454,0.0258832328070759,0.0037873644768278,-1.925063328177876
280.7017543859649,0.6090279815816538,0.5733261732218786,-14.971409,-0.0056700000000000994,-0.019314999999999798,0.045169999999999905,0.0270526034059121,-0.0028099800957108,-1.9186227490787515
281.70426065162906,0.6090277091357577,0.5733261238290608,-14.989767,0.0067030000000001,-0.033937000000000196,-0.0015190000000001036,0.0244695161129605,-0.0041538836197463,-1.910297703079664
282.70676691729324,0.6090274321520054,0.5733260763561051,-15.018443,0.0106229999999999,0.0034550000000001975,-0.041660999999999795,0.0195651409148564,0.0009948376736368,-1.9017284506116363
283.70927318295736,0.6090271509794628,0.5733260313266104,-15.022629,-0.005726999999999899,0.025481,-0.0195910000000001,0.0218864288200088,0.005567600313862,-1.895706767986284
284.71177944862154,0.6090268698069203,0.573325990311373,-15.002896,-0.0137500000000001,0.0076319999999997995,0.015264999999999999,0.0229685329562453,0.0043982297150257,-1.8907154753914297
285.7142857142857,0.609026593172234,0.573325948423471,-14.981443,-0.0012999999999999002,-0.0100610000000001,0.024108,0.0265290046303138,0.0004014257279587,-1.884694072018757
286.71679197994985,0.6090263181083437,0.5733259074082335,-14.978251,0.012048,-0.0159009999999996,0.0122099999999999,0.0256563400043166,-0.0025481807079117,-1.876734951750642
287.719298245614,0.6090260397283281,0.5733258688364571,-14.992373,0.0058559999999998995,-0.0021620000000002002,-0.0123789999999999,0.0216071761396898,-0.0010471975511965,-1.8697012748651047
288.7218045112781,0.6090257587303185,0.5733258327081415,-15.003371,-0.007873999999999999,0.016091999999999898,-0.0201059999999999,0.0213279234593707,0.002129301687433,-1.864081733552704
289.72431077694233,0.609025477732309,0.5733257983251553,-15.004755,-0.0117559999999999,0.004440000000000201,0.0047599999999999995,0.0240331837999619,0.0023561944901924,-1.8592994964956544
290.7268170426065,0.6090251983050956,0.5733257646403007,-15.003139,0.0031609999999999,-0.0110330000000002,0.004061999999999901,0.0229336263712054,0.001535889741755,-1.852160890415488
291.72932330827064,0.6090249194014812,0.5733257311299791,-14.995323,0.012471000000000098,-0.0005409999999999005,-0.008144,0.0254469004940773,0.0016580627893947,-1.84374850814063
292.7318295739348,0.6090246410214655,0.5733256993649867,-14.981395,-0.001085000000000098,0.0043840000000001005,0.011236000000000001,0.0253770873239975,0.000593411945678,-1.8360690070719767
293.734335839599,0.6090243614197194,0.5733256702179882,-14.974507,-0.0104309999999999,-0.003,0.009002,0.0238411975822425,-0.0009599310885968,-1.8287911237175007
294.7368421052631,0.6090240811198415,0.5733256419436543,-14.976499,-0.0005620000000001002,0.0037549999999998,-0.00375,0.0206996049286527,-0.0009773843811167,-1.821129215567709
295.7393483709273,0.6090238022162271,0.5733256152401167,-14.983708,0.0134700000000001,0.0023040000000001002,-0.0007020000000000004,0.0245567825755602,-0.0014311699866353,-1.8116164031994688
296.7418546365915,0.6090235222654149,0.5733255920272378,-14.99829,0.006271999999999899,-0.010271,6.899999999989987e-05,0.0279776279094691,-0.0013613568165555,-1.8018431353469533
297.7443609022556,0.6090232410928725,0.573325570385155,-15.006846,-0.011461999999999998,-0.0005649999999999995,-0.0245759999999999,0.0225671072282866,0.0014660765716751,-1.7939367414755425
298.7468671679198,0.6090229588731324,0.5733255508374674,-14.99003,-0.006591999999999901,0.0147589999999999,-0.0042329999999999,0.0242077167251613,0.0027227136331111,-1.7859254184095
299.749373433584,0.609022677526057,0.5733255319879115,-14.965237,0.0016429999999999006,-0.0033369999999999,0.0326689999999999,0.0271573231610317,-0.0013089969389956,-1.7773734796076532
300.7518796992481,0.609022397575245,0.5733255147091518,-14.960248,0.0097380000000001,-0.014423000000000002,0.012993999999999901,0.0259530459771556,-0.0045902159327451,-1.7674255042970133
301.7543859649123,0.6090221158791038,0.5733254998738532,-14.970488,0.0013879999999998997,0.005377000000000201,-0.018184999999999903,0.0226543736908864,-0.0034033920413889,-1.7576687472592216
302.7568922305764,0.6090218338338966,0.5733254887037459,-14.97616,-0.0065019999999999,0.0145929999999997,-0.013826,0.0247313155007596,-0.0014311699866353,-1.7493783285924942
303.7593984962406,0.6090215526613542,0.573325479278968,-14.976945,0.0023929999999999993,-0.0029369999999999006,0.01179,0.0279601746169491,-0.0019896753472734,-1.7404247720764705
304.7619047619048,0.6090212735832068,0.5733254721231181,-14.987248,0.0033690000000000005,-0.014445,0.0094939999999999,0.029845130209103,-0.0030543261909901,-1.7314712330137392
305.7644110275689,0.6090209915379996,0.5733254675852621,-15.00188,-0.001622000000000002,-0.003928999999999999,-0.0176049999999998,0.0246964089157197,-0.0013089969389956,-1.7240010667355712
306.76691729323306,0.6090207079219961,0.5733254654908669,-14.999354,-0.0061579999999999985,0.015557999999999999,-0.0181830000000001,0.0218166156499291,0.0015882496193149,-1.7174214547082332
307.76942355889724,0.609020425702256,0.5733254649672681,-14.977769,-0.004173000000000099,0.011966000000000001,0.018207,0.0282394272972682,-3.49065850397956e-05,-1.7108066917497586
308.77192982456137,0.609020145925977,0.5733254647927352,-14.968408,0.0047200000000001,-0.0182840000000001,0.031584,0.0286932129027867,-0.0044854961776252,-1.7030398544053371
309.77443609022555,0.609019865800632,0.5733254668871304,-14.982142,0.010027999999999999,-0.014140999999999801,-0.015850999999999997,0.0246615023306798,-0.0037524578917877,-1.6946801810738903
310.77694235588973,0.6090195821846286,0.5733254721231181,-14.990502,-0.0027659999999999976,0.0182759999999999,-0.026798000000000002,0.0217817090648892,-8.726646259971105e-05,-1.6880297435855047
311.77944862155385,0.6090192997903557,0.5733254796280339,-14.985023,-0.011225000000000101,0.0138129999999999,0.012756,0.0217293491873294,-0.0007853981633973,-1.6827066115399707
312.78195488721803,0.6090190187923461,0.5733254885292132,-14.988314,-0.0022049999999999006,-0.0157539999999998,0.021574,0.0235095850243636,-0.0032114058236694,-1.6770692329626142
313.7844611528822,0.6090187386670012,0.573325498128524,-15.003877,0.010239999999999999,-0.011854,-0.014756000000000099,0.0218166156499291,-0.0017627825445141,-1.669599607736513
314.78696741854634,0.609018456447261,0.5733255098222299,-15.009744,0.0017169999999999998,0.011574999999999901,-0.0235889999999998,0.022130774915288,0.0020420352248333,-1.6628974910489778
315.7894736842105,0.6090181745765868,0.5733255239593968,-14.992584,-0.006742000000000099,0.0173949999999999,0.002672999999999901,0.0247487687932795,0.0023212879051526,-1.6573996689986104
316.79197994987464,0.6090178974183016,0.5733255387946955,-14.974202,-0.007028999999999901,-0.0079789999999999,0.033679,0.0260228591472354,-0.0023212879051524,-1.652093588819867
317.7944862155388,0.6090176202600164,0.5733255545026589,-14.98043,0.0047159999999999,-0.0203919999999999,0.011082999999999999,0.0243822496503607,-0.0051312680008632,-1.6457930723932157
318.796992481203,0.6090173406582703,0.5733255721304843,-15.005327,0.0122330000000001,-0.0037500000000001005,-0.0196890000000001,0.0226718269834063,-0.002426007660272,-1.638480038107604
319.7994987468672,0.609017056518668,0.5733255925508365,-15.023818,-0.0042630000000001,0.014453,-0.024817999999999802,0.0192858882345373,0.0027052603405912,-1.6325635464762682
320.8020050125313,0.6090167732517304,0.5733256148910508,-15.017469,-0.0103939999999999,0.016855,-0.0071700000000001,0.0212930168743308,0.004642575810305,-1.6273277856130877
321.8045112781955,0.6090164938245173,0.5733256389765946,-14.996727,-0.0012949999999999997,-0.0019230000000000982,0.0243960000000001,0.0258657795145559,0.0012566370614359,-1.6217601678459337
322.8070175438596,0.6090162182370283,0.5733256621894737,-14.988646,0.0016359999999999999,-0.0188009999999998,0.020105999999999898,0.0249407550109989,-0.0028099800957108,-1.6151102539563251
323.8095238095238,0.6090159417768748,0.5733256855768856,-14.995121,0.005765999999999999,-0.0053180000000001,-0.013168,0.0221656815003279,-0.0021816615649927,-1.6075010722032357
324.812030075188,0.6090156621751287,0.5733257112332256,-14.998347,0.004724999999999901,0.0125799999999999,-0.013940999999999999,0.0227416401534861,0.0003316125578789,-1.5992452808688669
325.8145363408521,0.6090153825733825,0.5733257402056913,-14.999577,0.0009270000000000979,-3.999999999980018e-05,0.013381,0.0241553568476015,1.74532925198978e-05,-1.5910070650000654
326.8170426065163,0.6090151031461692,0.5733257717961507,-15.007377,-0.0010470000000000982,-0.01117,-0.004638,0.0204901654184134,-0.000279252680319,-1.5834671204584023
327.8195488721804,0.6090148228462914,0.5733258054810052,-15.001662,-0.0042399999999999,0.0157499999999998,-0.028187,0.0198967534727353,0.0020943951023932,-1.5762595389661966
328.8220551378446,0.6090145455134732,0.5733258407366562,-14.972239,-0.0033890000000001003,0.015975999999999997,0.0168010000000001,0.026755897433073,-6.981317007981325e-05,-1.5691036192198498
329.8245614035088,0.609014270973182,0.5733258772140375,-14.954742,-0.0030229999999999,-0.020736999999999797,0.0396609999999999,0.0294262511886244,-0.0060213859193802,-1.5624537053302414
330.8270676691729,0.609013997480088,0.5733259136914188,-14.968463,0.005705000000000001,-0.0176600000000001,-0.005315,0.0221831347928479,-0.0070162235930171,-1.554948388120937
