Time [s],Longitude [rad],Latitude [rad],Altitude [m],V North [m/s],V East [m/s],V Down [m/s],Roll [rad],Pitch [rad],Yaw [rad]
1.0025062656641603,0.6089752290050123,0.5733545985267413,-34.143768,0.23121000000000014,0.24691799999999997,0.041406000000000054,-0.0535816080362259,0.2766346864411013,2.747619516443698
2.0050125313283207,0.6089753380880907,0.5733543543551789,-33.636391,0.265196,0.279084,-0.055804000000000076,0.0426383936262214,0.3170216053322501,2.525002683085359
3.007518796992481,0.6089755180315364,0.5733541543404466,-33.08667,0.36331999999999987,0.28127800000000003,0.045296,-0.0698131700797731,0.29630456456437,2.255035119480291
4.010025062656641,0.6089757536509854,0.5733540094781188,-32.588127,0.354202,0.22012600000000004,0.021407000000000065,0.0263370184125944,0.3047170341056902,2.018263840421203
5.012531328320802,0.608975997473482,0.5733539243060511,-32.095142,0.364719,0.10362800000000005,0.00808099999999995,-0.0567755605673755,0.3096214093037941,1.7766753304535623
6.015037593984962,0.6089762739336355,0.5733539044092978,-31.627916,0.353086,0.07502699999999995,0.03206300000000001,0.0162490153360672,0.3081378619863064,1.5513708296734925
7.017543859649122,0.6089765467285976,0.5733539257023147,-31.176598,0.320054,-0.016066000000000136,0.0068070000000000075,-0.0105766952670856,0.3214722123781282,1.3340598146945082
8.020050125313283,0.608976816381967,0.5733540028458675,-30.732691,0.31173,-0.06331199999999981,0.01086100000000001,0.011082840750164,0.3214896482173557,1.1149861917039352
9.022556390977442,0.6089770713745707,0.5733541201319933,-30.301252,0.28590099999999996,-0.10986000000000007,0.010813000000000017,0.032306044454415,0.3331659183664901,0.9032078879070654
10.025062656641603,0.6089772980928406,0.5733542777352247,-29.863136,0.24065099999999995,-0.16577799999999998,-0.016693000000000013,0.020298179200694,0.3360456941789884,0.6887069053836701
11.027568922305765,0.6089774946169144,0.5733544718158375,-29.425703,0.21159600000000012,-0.19336600000000004,0.012971999999999984,0.0433539786195391,0.3372325355236369,0.4770333737017975
12.030075187969924,0.6089776532673433,0.5733546913782575,-28.985897,0.14737899999999993,-0.22674899999999998,-0.012073999999999974,0.0258657795145559,0.3427477410533539,0.2673146107821589
13.032581453634084,0.6089777672373435,0.5733549306628979,-28.545311,0.1033090000000001,-0.2435130000000001,0.01003499999999996,0.0404741853537484,0.337511788203956,0.0599346065134852
14.035087719298245,0.6089778339089209,0.5733551875753639,-28.102665,0.12977899999999987,-0.27996099999999996,-0.017362999999999962,0.0049741883681838,0.3337069355280233,-0.1092050593110667
15.037593984962406,0.6089778531075427,0.5733554629883197,-27.637705,0.11970900000000007,-0.21004099999999998,-0.023567000000000005,0.0164410015537865,0.3316649177564825,-0.1815141374876552
16.040100250626566,0.6089778342579868,0.5733557621377535,-27.139206,0.11407600000000007,-0.11995299999999999,-0.044457000000000024,0.0619242818607588,0.3265685388873665,-0.187500913527969
17.042606516290725,0.6089777801527799,0.573356085547264,-26.598347,0.11410099999999979,-0.05438700000000002,-0.03920899999999994,0.0390255620745932,0.3203900558820141,-0.1694889062078773
18.045112781954884,0.6089777244767768,0.5733564267591327,-26.019449,0.10138700000000034,-0.006394999999999984,-0.03549800000000003,0.0298974900866628,0.3174753734844759,-0.1480387398876958
19.047619047619047,0.6089776759566237,0.5733567838534978,-25.411806,0.09167099999999984,0.008589999999999987,-0.024584999999999968,0.0312763001957383,0.3152413694952158,-0.1353855216897585
20.050125313283207,0.6089776316252605,0.5733571545614308,-24.787458,0.08456000000000019,0.0018440000000000123,-0.013327000000000089,0.0215548162621299,0.314141829519752,-0.1307777128381533
21.052631578947366,0.6089775930534841,0.573357536788537,-24.151867,0.07718099999999994,-0.012101,-0.011048999999999976,0.0143989663289532,0.3141243413206469,-0.1310216749609963
22.05513784461153,0.6089775539581089,0.573357928614954,-23.500498,0.06654199999999966,-0.022447999999999996,-0.021648,0.0081332343142935,0.3160442209511331,-0.134372986377506
23.05764411027569,0.6089775113720752,0.5733583296916162,-22.822145,0.05596200000000007,-0.018052000000000012,-0.02924899999999997,0.0081855941918534,0.31707396520981,-0.1364326843343699
24.06015037593985,0.6089774651208499,0.5733587396694575,-22.115744,0.04653700000000027,-0.004520999999999997,-0.02442600000000006,0.0081506876068135,0.315346106703628,-0.1360486420857605
25.062656641604008,0.6089774176478943,0.5733591540106219,-21.392675,0.03904899999999989,0.0067969999999999975,-0.008708999999999967,0.0080459678516938,0.3125884690321845,-0.1347570111728224
26.065162907268167,0.6089773724438666,0.573359573762307,-20.66815,0.0373199999999998,-9.099999999997999e-05,0.004628999999999994,0.0052883476335428,0.3106336653633659,-0.1346696574437598
27.06766917293233,0.6089773254945099,0.5733599970046506,-19.949408,0.014873000000000136,-0.016735,0.006334000000000062,-0.0084823001646924,0.3117681817370397,-0.1376018105871106
28.07017543859649,0.6089772752290273,0.5733604193743296,-19.234533,0.0016929999999999445,-0.031209000000000015,-0.000316000000000094,-0.0120078652537209,0.3147177707196176,-0.1446533247376031
29.07268170426065,0.6089772183312937,0.5733608420930744,-18.514189,-0.003301999999999694,-0.026665999999999995,-0.006516999999999995,-0.0107163216072451,0.315398466581188,-0.1486672329513399
30.07518796992481,0.6089771565466382,0.5733612625428911,-17.790686,-0.004857000000000333,-0.00042999999999998595,0.0009029999999999871,-0.0050090949532237,0.3153111826652957,-0.1450544013997119
31.07769423558897,0.6089770965073119,0.5733616800256482,-17.067869,-0.006412000000000084,0.006877999999999995,0.0005960000000000409,0.0026703537555513,0.3160442209511331,-0.1415635160029203
32.08020050125313,0.6089770371661174,0.5733620971593395,-16.34218,-0.004884999999999806,0.006738999999999995,-0.009006999999999987,-0.0041538836197464,0.3189239967636315,-0.1406207589541631
33.08270676691729,0.6089769818391801,0.5733625134203661,-15.602503,-0.003826000000000107,0.014391999999999988,-0.017264999999999975,-0.0036477381366681,0.3194301597000022,-0.1374974049912565
34.08521303258145,0.6089769317482305,0.5733629275869977,-14.849924,-0.007530999999999732,0.02571000000000001,-0.0064509999999999845,0.0022340214425527,0.3160791449894655,-0.1353327952930557
35.08771929824561,0.6089768837516761,0.573363339833767,-14.099375,-0.01138400000000006,0.011636000000000007,0.009861000000000009,-0.0026005405854715,0.3128153618349438,-0.1380556136459214
36.09022556390977,0.6089768394203131,0.5733637508588058,-13.361867,-0.007233999999999963,-0.004106000000000026,0.012671999999999906,-0.0052010811709431,0.311035108544617,-0.1417206479954773
37.092731829573935,0.6089767950889501,0.5733641608366471,-12.624654,-0.007280000000000175,0.0010740000000000194,-0.014903,-0.0025656340004316,0.3120823410023987,-0.1440072387550997
38.095238095238095,0.608976751281186,0.5733645706399554,-11.860985,-0.0063629999999998965,0.01991499999999999,-0.03000399999999992,0.0024085543677521,0.3118205416145994,-0.1466075524477681
39.097744360902254,0.6089767107895473,0.5733649783488687,-11.08065,-0.0004010000000000957,0.031056,0.0022939999999999072,-0.0035430183815484,0.3073175746911616,-0.1476371221735199
40.100250626566414,0.6089766776282916,0.5733653878031112,-10.323955,0.002387000000000139,0.022895,0.04063400000000006,0.0025132741228718,0.3051882730037287,-0.1455082044585219
41.10275689223057,0.6089766486558259,0.5733657965592219,-9.61151,0.0011939999999999173,-0.016078999999999982,0.03841300000000003,-0.0010122909661567,0.3084345679591456,-0.1446703591511025
42.10526315789473,0.6089766092113847,0.5733662060134646,-8.9144,0.0022889999999997634,-0.045678000000000024,-0.014515000000000056,-0.0088488193076112,0.3132866181862748,-0.1519312080920792
43.10776942355889,0.6089765627856266,0.5733666140714436,-8.167028,-0.02296499999999968,-0.0069989999999999775,-0.07549600000000001,-1.7453292519946796e-05,0.315328618504523,-0.1586679346586826
44.11027568922306,0.6089765189778625,0.5733670186387643,-7.358892,-0.02017800000000003,0.05428999999999998,-0.025514999999999954,-0.0012740903539558,0.3005107906083837,-0.1605875524897808
45.11278195488722,0.6089764889581993,0.5733674232060849,-6.58645,0.03598499999999971,0.03892900000000002,0.10827999999999993,0.0075572756611354,0.2420422606665737,-0.1599766174384121
46.11528822055138,0.608976463825458,0.5733678314385969,-5.969006,0.04010400000000036,-0.0030080000000000107,0.18041700000000005,-0.0039618974020271,0.1749867108049514,-0.1582317245187313
47.11779448621554,0.6089764402635132,0.5733682433363004,-5.530395,0.01623299999999972,-0.0042159999999999975,0.168779,0.0080634211442138,0.1176526448769377,-0.1612336384722834
48.1203007518797,0.6089764097202514,0.5733686625643867,-5.221989,0.002667000000000197,-0.027896000000000004,0.09530899999999998,0.0,0.0805643982720583,-0.1729270477546729
49.122807017543856,0.6089763711484748,0.573369081967006,-4.992134,0.005895999999999901,-0.055035,0.06203700000000001,-0.0072954762733362,0.0550476846079011,-0.1851621374237118
50.125313283208015,0.6089763248972496,0.573369501718691,-4.791072,-0.016280999999999768,-0.025351999999999986,0.005613000000000007,-0.0027750735106709,0.0320791516516558,-0.186715288471768
51.127819548872175,0.6089762779478927,0.5733699207722445,-4.609845,0.015772999999999815,0.050263,0.05527099999999999,0.0120602251312808,0.0005235987755982,-0.192038420517304
52.130325814536334,0.6089762341401286,0.5733703438400553,-4.517211,0.03168799999999994,0.022591,0.10775200000000001,-0.0117111592808819,-0.0154985237577096,-0.1999448143887152
53.1328320802005,0.6089762032478008,0.5733707683041293,-4.535522,-0.011705000000000076,0.013899999999999996,0.11182700000000001,-0.0093026049131297,-0.02150245638457,-0.1962797625858672
54.13533834586466,0.6089761720064072,0.5733711934663351,-4.634317,-0.02372099999999966,-0.07571900000000001,0.015034000000000006,0.0009599310885968,-0.0174009326423834,-0.2037499288640359
55.13784461152882,0.6089761135378772,0.573371611123625,-4.671909,-0.020552000000000348,-0.09363999999999997,-0.10423400000000001,-0.0032812189937493,-0.012566370614359,-0.2267708216978417
56.14035087719298,0.6089760498333596,0.5733720273846517,-4.630018,0.011887000000000203,0.030760999999999983,-0.025005,0.0032637657012293,-0.018744836166419,-0.2404189997424641
57.14285714285714,0.6089759875251052,0.5733724438202111,-4.6156,0.013260999999999967,0.007838999999999985,0.057192,-0.0069289571304174,-0.0258832328070759,-0.2425484585095294
58.1453634085213,0.6089759283584436,0.5733728647936268,-4.662369,0.006898000000000071,-0.033957000000000015,0.055365000000000004,6.981317007977328e-05,-0.0275587488889903,-0.2455157625840159
59.14786967418546,0.6089758634321955,0.5733732862906411,-4.743325,-0.01400900000000016,-0.02912199999999998,0.006055999999999992,-0.005532693728822,-0.0228638132011256,-0.2558653381555394
60.15037593984962,0.6089757868122413,0.5733737032497994,-4.819697,-0.03505199999999986,-0.05802499999999999,-0.011252999999999999,-0.0061610122595399,-0.0209963109014916,-0.2732488524119871
61.15288220551378,0.6089757060034969,0.5733741099115152,-4.851313,-0.10845800000000017,0.02619100000000002,-0.086451,-0.1419127214796589,-0.0476474885794451,-0.2776643783399007
62.15538847117794,0.6089756410772487,0.5733744900442261,-4.938022,-0.16385300000000003,0.074766,0.28715599999999997,0.2214997353706003,-0.2187246793132218,-0.3420670626450761
63.1578947368421,0.6089755604430372,0.5733748343976875,-5.294964,-0.24625999999999992,-0.255874,0.10481099999999999,0.4018620602716944,-0.2008350370269873,-0.5593085786132461
64.16040100250626,0.6089754387935884,0.5733751326744567,-5.619872,-0.262386,-0.26263800000000004,-0.01863699999999996,-0.0695164641069341,-0.227398948242341,-0.7621327848420237
65.16290726817043,0.6089753054504335,0.5733753834782703,-6.027986,-0.3154060000000001,-0.178817,0.09852699999999998,0.0774926187885482,-0.2531599905484849,-0.9829866087630458
66.16541353383458,0.6089751059593,0.5733755777334161,-6.432521,-0.3583179999999999,-0.212804,-0.08219100000000001,-0.0231954257590046,-0.2381152698495863,-1.2127247345353729
67.16791979949875,0.6089748862223472,0.5733757210249476,-6.792609,-0.364742,-0.05489300000000008,-0.01597299999999996,-0.0506145483078355,-0.2590941100052657,-1.440542718877825
68.1704260651629,0.6089746631692688,0.5733758170180565,-7.126086,-0.35199099999999994,0.03557800000000011,-0.026988000000000012,-0.0250280214735987,-0.2677335072559299,-1.6654626538105115
69.17293233082707,0.6089744502391001,0.5733758562879647,-7.475651,-0.33235800000000004,0.056664999999999965,0.04604799999999998,-0.0472635161440064,-0.2774375378970186,-1.8779219152683395
70.17543859649122,0.6089742430685179,0.5733758466886538,-7.869671,-0.275922,0.03692099999999998,0.03274199999999999,-0.0068591439603377,-0.2714859476944253,-2.074271456117701
71.17794486215539,0.6089740423556539,0.5733757978194348,-8.260056,-0.232202,0.046964000000000006,-0.04385899999999998,-0.0248185819633593,-0.2623055158289351,-2.265402532316769
72.18045112781954,0.6089738498458374,0.5733757128219001,-8.586853,-0.23450699999999997,0.14544400000000002,-0.07544299999999998,-0.0208915911463721,-0.2661976175141751,-2.4596401898646336
73.1829573934837,0.6089736903227437,0.5733755993754988,-8.866894,-0.1990550000000001,0.254602,0.010305000000000009,-0.0315555528760574,-0.2810328987028343,-2.653092484155685
74.18546365914787,0.6089735768763425,0.5733754578292966,-9.200476,-0.15159099999999992,0.22980300000000004,0.07266699999999998,-0.0005759586531581,-0.2855009590412323,-2.8434554933108296
75.18796992481202,0.608973510204765,0.5733752921975505,-9.597894,-0.14688599999999996,0.20208799999999996,0.029557,0.0054279739737023,-0.275151156576906,-3.02664528650674
76.19047619047619,0.608973484199359,0.5733751030038595,-10.005942,-0.143057,0.20766,0.010319999999999996,-0.0475602221168454,-0.2765648732710213,-3.141103961399235
77.19298245614034,0.6089734798360359,0.5733748953096786,-10.430428,-0.10819299999999998,0.11466900000000001,0.02603099999999997,0.0355174502780846,-0.2770360947157673,3.10476618891942
78.19548872180451,0.6089735047942443,0.573374660737427,-10.872724,-0.12253000000000003,0.052993,0.00973500000000005,0.0444709893408155,-0.2734058273249116,3.099687280796117
79.19799498746866,0.6089735407480269,0.5733744078392184,-11.326205,-0.11112900000000003,0.036128999999999994,0.017027999999999988,0.0259530459771556,-0.2715383250252778,3.1064242866154004
80.20050125313283,0.6089735712912887,0.5733741388839808,-11.803288,-0.1025990000000001,0.023935000000000012,0.029125999999999985,0.0216071761396898,-0.2688505005239139,3.1125852290617697
81.203007518797,0.608973603405347,0.5733738556170431,-12.312898,-0.09079599999999988,0.025395,0.036105000000000054,0.0185179433636598,-0.2659881780039357,3.1092866440419638
82.20551378446115,0.6089736369156687,0.5733735592601361,-12.863678,-0.07561300000000015,0.010251999999999983,0.03918999999999995,0.0083601271170528,-0.2621659069420681,3.101467603899614
83.20802005012531,0.6089736671098647,0.5733732534784511,-13.439389,-0.06090299999999993,-0.005815999999999988,0.010743999999999976,0.0052534410485029,-0.2579771167372819,3.09591757905132
84.21052631578947,0.6089736948605998,0.5733729407154492,-14.012971,-0.05033299999999996,-0.014905000000000002,-0.010054000000000007,0.0046251225177849,-0.2561096318909404,3.096126896388511
85.21303258145363,0.6089737192952094,0.5733726209711302,-14.571664,-0.048784999999999856,-0.0002999999999999947,-0.012251000000000012,0.0036302848441482,-0.2560398012675682,3.0997048562616847
86.21553884711778,0.6089737456496811,0.5733722940709614,-15.134065,-0.04655100000000001,0.008872999999999992,0.02140900000000001,-0.0024260076602721,-0.2591988472136779,3.1023051699543536
87.21804511278195,0.6089737833487929,0.5733719661235949,-15.733521,-0.03997200000000012,-0.007093999999999989,0.03808699999999998,0.0038920842319473,-0.2586927191838919,3.104137957655165
88.22055137844612,0.6089738198261742,0.5733716339874383,-16.365259,-0.023328999999999933,-0.02194400000000002,0.02510800000000002,-0.0050090949532237,-0.2561096318909404,3.102724083881417
89.22305764411027,0.6089738432135863,0.5733712950444976,-17.00853,-0.007808999999999955,-0.008374999999999994,-0.0007549999999999502,-0.0103323491718064,-0.2528458487364184,3.0970518161723133
90.22556390977444,0.6089738608414117,0.5733709557524909,-17.641935,-0.0029520000000000657,0.0023060000000000025,-0.014658999999999978,-0.0075921822461753,-0.251781197892702,3.0961615237208706
91.2280701754386,0.608973878818303,0.573370617333149,-18.260681,-0.00837000000000021,0.0024129999999999985,-0.013016000000000028,-0.0003141592653589,-0.2522873259224878,3.1000012655285505
92.23057644110276,0.6089739016821162,0.5733702769939448,-18.874821,-0.01283299999999965,0.010442000000000007,0.0028169999999999584,-0.0094247779607693,-0.2532996343419369,3.1002108621184226
93.23308270676692,0.6089739287347196,0.5733699342112798,-19.496088,-0.01013300000000017,0.014667999999999987,0.009117000000000042,-0.0031764992386296,-0.2542770187230536,3.0961615237208706
94.23558897243107,0.6089739584053169,0.5733695895087525,-20.126602,-0.0032360000000002387,0.016270000000000007,0.0067589999999999595,-0.0083252205320129,-0.2539803127502147,3.0917635732585254
95.23809523809524,0.6089739891231117,0.5733692451552911,-20.759567,0.0004500000000002835,0.004584000000000005,-0.0018839999999999968,-0.0062133721370998,-0.2527236756887789,3.0934040780356447
96.2406015037594,0.608974018968242,0.5733689018490272,-21.390854,-0.0016810000000000436,-0.007097999999999993,-0.0018519999999999648,-0.0063879050622992,-0.252531672017767,3.0985876535541905
97.24310776942356,0.6089740484643063,0.5733685580191645,-22.023935,-0.007233000000000267,-0.0033240000000000214,0.0029850000000000154,-0.0053756140961425,-0.2523047792150077,3.0993557205981155
98.24561403508773,0.6089740786585024,0.5733682108731764,-22.657665,-0.010363999999999596,0.0050040000000000084,-0.0005399999999999849,-0.0047123889803846,-0.2524967828860196,3.095550867922183
99.24812030075188,0.6089741086781655,0.5733678621563917,-23.289669,-0.007078000000000362,0.0028759999999999897,-0.0012730000000000796,-0.0094771378383292,-0.2534567139746166,3.0941372559478224
100.25062656641605,0.6089741362543676,0.5733675123924097,-23.919716,-0.002062999999999704,4.100000000001325e-05,-0.0007379999999999054,-0.0069464104229374,-0.2550275103014112,3.0954986651242558
101.2531328320802,0.6089741657504321,0.5733671633265593,-24.55044,-0.0017979999999999663,-0.0016599999999999948,0.001266999999999907,-0.0066671577426183,-0.2546958802902399,3.0974358409676293
102.25563909774436,0.6089741947228975,0.5733668144352417,-25.183249,-0.00473300000000032,-0.0011970000000000036,0.0014740000000000864,-0.0016929693744344,-0.2532647277568971,3.0979943114216826
103.25814536340852,0.6089742226481657,0.5733664655439243,-25.818403,-0.005280999999999647,-0.005740999999999996,0.002270999999999912,0.0023736477827122,-0.2527585822738187,3.0988494529419897
104.26065162907268,0.6089742500498349,0.5733661164780739,-26.455545,-0.0036640000000001116,-0.006346000000000018,0.001523000000000052,0.0028972465583105,-0.2527411289812988,3.098954120337232
105.26315789473684,0.6089742771024382,0.5733657656668942,-27.091757,-0.0032290000000001484,0.002586000000000005,-0.0007310000000000372,-0.0046600291028248,-0.2532647277568971,3.0962315637837534
106.265664160401,0.6089743038059758,0.5733654146811816,-27.727278,-0.00037399999999987443,0.008316000000000018,-0.0007929999999999326,-0.0081681408993334,-0.2531251014167375,3.093334317225443
107.26817042606515,0.6089743317312438,0.5733650643936008,-28.363594,8.09999999997757e-05,-0.0007720000000000227,0.0027840000000000087,-0.0023561944901923,-0.2542421121380138,3.0938578810944555
108.27067669172932,0.6089743603546436,0.5733647127097566,-29.002424,-0.0008159999999999279,-0.0045349999999999835,0.0007399999999999629,-0.000296705972839,-0.2544515516482533,3.0951844011391416
109.27318295739347,0.6089743889780433,0.5733643605023135,-29.640245,-0.001558999999999866,-0.0044560000000000155,-0.0011050000000000226,-0.0045553093477051,-0.2538232156642426,3.0965631239817544
110.27568922305764,0.6089744162051797,0.5733640086439362,-30.276644,-0.0012449999999999406,-0.0018449999999999855,-0.0010019999999999474,-0.0035430183815484,-0.2535265445979888,3.0970693916378806
111.2781954887218,0.6089744420360526,0.573363657134625,-30.914701,-0.00010500000000002174,0.0037540000000000073,0.003013999999999961,-6.981317007977362e-05,-0.2542770187230538,3.094625948138381
112.28070175438596,0.6089744690886559,0.573363304752649,-31.557615,-0.0012430000000001051,0.0028629999999999767,0.003993000000000024,-0.0041538836197465,-0.2542595654305337,3.091588883253693
113.28320802005013,0.6089744966648581,0.5733629525452059,-32.203381,-0.0024359999999998827,-0.009486999999999995,0.0020099999999999563,-0.0062482787221397,-0.2538930462876152,3.092496751170703
114.28571428571428,0.6089745210994677,0.5733626008613617,-32.847614,-0.002454999999999874,-0.017080999999999985,-0.019926,-0.0048869219055841,-0.2290570284850281,3.094119680482255
115.28822055137844,0.6089745436142151,0.5733622470831223,-33.426949,-0.01864100000000013,-0.009986000000000023,-0.10656999999999994,-0.0137357412131953,-0.1723163570494001,3.0928107359031367
116.2907268170426,0.6089745629873698,0.573361893304883,-33.889526,-0.013994000000000284,-0.001911999999999997,-0.12481400000000004,3.490658503988676e-05,-0.11695451317614,3.0910128373340724
117.29323308270676,0.6089745814878598,0.5733615381303802,-34.230919,-0.01042199999999971,0.0015080000000000093,-0.118888,-0.0004886921905584,-0.0702844089778116,3.088482301904898
118.29573934837092,0.6089746031299426,0.573361178767087,-34.465107,-0.005686000000000302,0.005985999999999991,-0.09804300000000002,0.0024958208303518,-0.0372104196525189,3.085602613358863
119.29824561403508,0.6089746263428215,0.5733608188801954,-34.617779,-0.004204999999999792,0.004526000000000002,-0.064273,-0.0005061454830783,-0.0192858882345372,3.0836476002505337
120.30075187969923,0.6089746506028981,0.5733604582951719,-34.721138,-0.003371000000000013,0.0008599999999999997,-0.037849999999999995,-0.0108559479474047,-0.0117809724509616,3.0824084339349103
121.3032581453634,0.6089746739903102,0.5733600952666874,-34.795006,-0.005130999999999997,-6.699999999998374e-05,-0.024486,-0.0064053583548191,-0.0067718774977378,3.0824608985322253
122.30576441102755,0.6089746973777221,0.5733597325872689,-34.848194,-0.006276999999999866,-0.0008750000000000147,-0.017463,-0.0068765972528576,-0.004555309347705,3.0810646002240447
123.30827067669172,0.6089747232085951,0.5733593679879883,-34.887417,-0.005622000000000238,0.0069290000000000185,-0.012029000000000001,0.0019198621771937,-0.0025481807079117,3.07853378554219
124.31077694235589,0.6089747488649352,0.573359002166977,-34.913338,-0.005382999999999694,0.013287999999999994,-0.011436000000000002,-0.0087440995524915,-0.0008377580409573,3.073961145075013
125.31328320802004,0.6089747759175386,0.5733586368695645,-34.932938,-0.0025400000000002088,0.009085999999999983,-0.0017949999999999997,-0.0087266462599716,-0.0014660765716751,3.0717445943782726
126.3157894736842,0.6089748054136028,0.5733582696522899,-34.952084,-0.0011450000000001737,0.005828,-0.0014909999999999993,-0.0009599310885968,-0.000279252680319,3.069964533074164
127.31829573934836,0.608974837527661,0.5733579057511409,-34.967979,1.3000000000040757e-05,0.006311000000000011,-0.002817000000000001,-0.0087091929674517,0.001535889741755,3.0669101545232964
128.32080200501252,0.6089748699907852,0.5733575401046626,-34.979092,-7.099999999971018e-05,0.00823299999999999,-0.005114,-0.0076445421237351,0.0029146998508304,3.063297322971668
129.32330827067668,0.6089749022793763,0.5733571746327172,-34.984585,8.999999999925734e-06,0.005595000000000017,-0.004501,-0.0010995574287564,0.0025481807079117,3.060696468226931
130.32581453634086,0.6089749364878296,0.5733568100334364,-34.985767,-0.000668000000000113,0.005319000000000018,-0.004283,-0.0072431163957764,0.0026005405854716,3.058864221578187
131.328320802005,0.6089749717434806,0.5733564443869581,-34.982189,-0.002022999999999886,0.008193999999999979,-0.0028439999999999993,-0.0061784655520599,0.0026354471705114,3.0560540494962583
132.33082706766916,0.6089750097916583,0.5733560782168811,-34.976017,-0.0015049999999998676,0.00926699999999997,-0.001471,-0.0044680428851054,0.0018675022996339,3.052528292421012
133.33333333333331,0.6089750499342311,0.573355712046804,-34.971409,0.0007429999999999382,0.015688000000000035,0.004586,-0.0088139127225713,-6.981317007981325e-05,3.047274938638972
134.3358395989975,0.6089750914730673,0.5733553465748586,-34.978676,0.04181400000000002,0.013361000000000012,0.036723,0.1048942880448592,0.0226543736908864,3.0365237628065644
135.33834586466165,0.6089751356298974,0.5733550055375228,-34.894875,0.2078629999999997,-0.016732000000000025,-0.341366,-0.0219736952826086,0.2525491427635795,3.0127001755964744
136.3408521303258,0.6089751885133736,0.5733546969633111,-34.410374,0.24811800000000006,0.13642300000000002,-0.240467,-0.2969677547735426,0.2860769002410981,2.8466845793198217
137.34335839598998,0.608975283284752,0.5733544398763123,-33.932583,0.21407600000000016,0.349552,0.07702799999999999,0.1277581012459849,0.2794271783377073,2.630699822586135
138.34586466165413,0.6089754173260387,0.5733542309604007,-33.405907,0.305218,0.2501479999999999,-0.10485299999999997,-0.0354999969855646,0.3171786849649294,2.4005957710828363
139.34837092731829,0.6089756215295611,0.5733540677721157,-32.878082,0.351001,0.27015500000000015,0.08372699999999994,-0.004904375198104,0.294594124444123,2.146946861450989
140.35087719298244,0.6089758485968968,0.5733539490897266,-32.382767,0.3620819999999999,0.14152799999999988,-0.017407000000000006,-0.0058119464091411,0.3125361266079172,1.9088141906687608
141.35338345864662,0.6089761041130992,0.5733538914938612,-31.893858,0.3779180000000001,0.09550500000000017,0.036733000000000016,-0.05846852994181,0.3048042831149973,1.66741780654518
142.35588972431077,0.6089763786533906,0.5733538883522685,-31.43412,0.343264,0.040971999999999786,0.013396000000000019,0.0028972465583105,0.3110525967437221,1.4533007266440532
143.35839598997492,0.6089766545899453,0.5733539373960206,-30.98369,0.315307,-0.040840999999999905,0.007299,0.0094596845458092,0.322432143466725,1.23420951073462
144.36090225563908,0.6089769282575721,0.5733540346108599,-30.536242,0.306827,-0.09736300000000009,0.010842000000000018,0.0158999494856683,0.3263067744061523,1.013669758812494
145.36340852130326,0.6089771820284453,0.5733541763315951,-30.098341,0.26200900000000005,-0.1386719999999999,-0.0006110000000000282,0.0203330857857339,0.3361678672266277,0.7981041778052597
146.3659147869674,0.608977397402075,0.5733543508645204,-29.659349,0.22428800000000004,-0.18991500000000006,0.008879000000000026,0.0332834288355318,0.3363772892835746,0.5850518185610192
147.36842105263156,0.6089775881665622,0.5733545653654855,-29.226456,0.1781219999999999,-0.20866899999999988,-0.007303000000000004,0.0297753170390232,0.3406533634042534,0.3769212878074029
148.37092731829574,0.6089777270947707,0.5733547953998808,-28.786516,0.13064199999999992,-0.24009500000000006,0.0014659999999999673,0.0161268422884276,0.3378957606393948,0.1710597199879642
149.3734335839599,0.6089778182009576,0.5733550442838322,-28.343079,0.11134200000000005,-0.26132099999999997,-0.014801000000000009,0.0093200582056497,0.3349461367502317,-0.0263019198413368
150.37593984962405,0.6089778597397938,0.5733553111446748,-27.873098,0.12859100000000012,-0.26267300000000005,-0.03156899999999996,0.0050789081233034,0.3293436123980375,-0.1551600323016837
151.3784461152882,0.6089778614851231,0.5733555992985343,-27.377649,0.10802899999999993,-0.160313,-0.024409999999999987,0.0327772833524535,0.3248930402587444,-0.1911483898652488
152.38095238095238,0.6089778255313405,0.5733559097926083,-26.855099,0.11683799999999978,-0.079247,-0.026336000000000026,0.0592888346902473,0.3187843704234718,-0.1818981622829707
153.38345864661653,0.6089777689826728,0.5733562422778308,-26.30521,0.1121960000000004,-0.029344999999999996,-0.027886999999999995,0.0387114028092342,0.3150842724092437,-0.1597497246356536
154.38596491228068,0.6089777162737293,0.573356591692747,-25.724133,0.0996469999999996,-0.003041000000000016,-0.037031000000000036,0.0281172542496286,0.3158173106950814,-0.1409531220036195
155.3884711779449,0.6089776694989054,0.5733569571646924,-25.108934,0.0871120000000003,0.0021240000000000148,-0.030942000000000025,0.0286408530252269,0.3149621168148968,-0.1331511337280633
156.39097744360902,0.6089776277855363,0.5733573353775413,-24.470146,0.07744099999999987,-0.006637000000000004,-0.016547999999999896,0.0143116998663534,0.3136182132908611,-0.1342334473038094
157.39348370927317,0.6089775864212329,0.5733577238878327,-23.817268,0.07025799999999993,-0.01985300000000001,-0.01188100000000003,0.010437068926926,0.3134960402432214,-0.1372705121884971
158.39598997493732,0.6089775450569297,0.5733581230446327,-23.149614,0.06262800000000013,-0.020963999999999983,-0.020040000000000058,0.0096691240560485,0.3139847324337799,-0.1381429673749841
159.3984962406015,0.6089774974094412,0.5733585297063485,-22.458464,0.05289900000000003,-0.010536000000000018,-0.026456999999999953,0.007051130178057,0.3144385354925909,-0.1373051220675638
160.40100250626566,0.6089774478420904,0.5733589423021836,-21.741886,0.0442800000000001,0.00673600000000002,-0.020421000000000022,0.0102974425867665,0.3132167701096098,-0.1358388011497935
161.4035087719298,0.6089774010672664,0.5733593594358748,-21.014181,0.035909999999999886,0.009611999999999982,-0.0019179999999999753,0.0012391837689159,0.3114016276875357,-0.1349839214288748
162.406015037594,0.6089773569104364,0.5733597791875599,-20.296324,0.00782000000000016,-0.0070169999999999955,0.019239000000000006,-0.0057246799465414,0.3108431223268975,-0.1372523956708618
163.40852130325814,0.6089773106592111,0.5733601999864425,-19.597586,0.007239999999999913,-0.03393199999999999,0.011564000000000019,-0.0049916416607037,0.3125710157396644,-0.1426458295786663
164.4110275689223,0.6089772556813398,0.5733606209598582,-18.898596,0.0030369999999999564,-0.03256100000000001,-0.008843000000000045,-0.008290313946973,0.3153111826652957,-0.1467476325735337
165.41353383458645,0.6089771958165464,0.5733610400134116,-18.183943,-0.0063469999999998805,-0.010353999999999974,-0.016367999999999938,-0.0080808744367337,0.3166725220285586,-0.1467822599058934
166.41604010025063,0.6089771331592263,0.5733614562744381,-17.456783,-0.010486000000000217,-0.00021100000000001673,-0.006796000000000024,-0.0061086523819801,0.3165329131416916,-0.1466251279133364
167.41854636591478,0.6089770713745707,0.573361869568405,-16.726305,-0.011264999999999858,0.005429000000000017,-9.00000000000345e-05,-0.001518436449235,0.3175103149761011,-0.1459790419308329
168.42105263157893,0.6089770139532383,0.5733622812915756,-15.998297,-0.00017500000000003624,0.00899899999999998,0.002601999999999993,0.0014835298641951,0.3177197195797554,-0.1424189367759079
169.4235588972431,0.608976961244295,0.5733626947600754,-15.266303,0.0010089999999998156,0.019123,-0.015185000000000004,-0.0044854961776254,0.317684830448008,-0.1372177857917951
170.42606516290726,0.6089769102806808,0.5733631073559106,-14.51534,-0.015565000000000051,0.021412999999999988,-0.014141999999999988,-0.0009250245035569,0.315642812676467,-0.1358915275464955
171.42857142857142,0.608976863331324,0.5733635173337518,-13.760493,-0.008423999999999765,0.017025000000000012,0.008464000000000027,0.0002094395102393,0.3101275373335799,-0.1385616020493671
172.43107769423557,0.6089768191744938,0.5733639262643956,-13.015448,0.0012490000000000556,0.003904999999999992,0.0065830000000000055,-0.0056025068989018,0.3094643471244072,-0.1443033862225776
173.43358395989975,0.6089767758903283,0.5733643336242431,-12.272347,-0.008964000000000194,-0.0030659999999999854,0.0008029999999999982,-0.0089884456477708,0.3105289805148312,-0.1486145065546378
174.4360902255639,0.6089767334788276,0.5733647415076891,-11.535166,-7.999999999785956e-06,0.012701999999999991,0.006573999999999969,-0.0041015237421866,0.3097959422289935,-0.1478123706837124
175.43859649122803,0.6089766931617218,0.573365147645806,-10.79367,-0.00952200000000003,0.02445,-0.017549999999999955,-0.000907571211037,0.311035108544617,-0.1455257799240901
176.44110275689223,0.6089766568588734,0.5733655513404621,-10.036786,-0.02320600000000006,0.006815999999999989,-0.0011030000000000761,-0.0050614548307835,0.3094468763785947,-0.1466773307112634
177.4436090225564,0.6089766193342945,0.5733659546860522,-9.293876,0.016985000000000028,-0.025085999999999997,0.015191999999999983,0.0031764992386296,0.3060609201764332,-0.1535019346057036
178.44611528822054,0.6089765795407874,0.5733663594279058,-8.540684,0.018397999999999914,0.01616200000000001,-0.03146299999999991,-0.0038920842319473,0.3095167070019671,-0.1555089061658654
179.4486215538847,0.6089765474267294,0.573366767311352,-7.772393,-0.010315999999999992,0.046948000000000004,0.023070999999999953,0.0016755160819145,0.3063925501876046,-0.152646531286009
180.45112781954887,0.6089765161853355,0.5733671790345225,-7.052598,0.017450999999999883,-0.013765000000000013,0.047607999999999984,-0.0021642082724729,0.2791305247247457,-0.1572537990855463
181.45363408521305,0.6089764880855347,0.5733675870925017,-6.354468,-0.024474999999999802,0.012408000000000002,0.010014999999999996,0.0009599310885968,0.226561190201384,-0.1606749062188426
182.4561403508772,0.6089764643490568,0.5733679879946308,-5.74221,-0.016402999999999945,0.01592700000000001,0.205911,0.013212142437597,0.1486845815241044,-0.1646893554846482
183.45864661654133,0.6089764292679388,0.5733683960526099,-5.393097,0.10629799999999978,-0.07731,0.22988800000000004,-0.004904375198104,0.098837995540439,-0.1763310855678848
184.4611528822055,0.608976389474432,0.5733688123136365,-5.113157,0.027417999999999942,-0.01766999999999999,-0.05358299999999999,-0.0128630765871982,0.0813672497279756,-0.1795247588463538
185.4636591478697,0.6089763503790567,0.5733692345087826,-4.815883,-0.07096499999999972,0.06467799999999999,0.08556999999999998,0.0102799892942466,0.0350462113800462,-0.1798736327105355
186.46616541353384,0.6089763114582144,0.5733696586237909,-4.669094,0.030666999999999778,-0.011466000000000004,0.134508,0.0105417886820457,0.0068067840827779,-0.190590181210583
187.468671679198,0.608976277598827,0.5733700698233626,-4.564692,-0.02786299999999997,-0.008437,-0.00584599999999999,-0.0155334303427495,-0.0008028514559172,-0.1962275597879411
188.47117794486212,0.6089762463574334,0.5733704818955989,-4.534457,-0.0009160000000001389,-0.03270299999999998,0.151381,0.008307767239493,-0.0235619449019233,-0.2000843534624128
189.4736842105263,0.6089761950447533,0.5733709040907451,-4.590075,0.09677900000000017,-0.06986700000000001,-0.038552,-0.0148527519344717,-0.0109606677025242,-0.2124936269907993
190.47619047619045,0.6089761414631453,0.5733713282057533,-4.541406,-0.0627089999999999,0.03326000000000001,-0.069108,-0.0148876585195116,-0.0120078652537209,-0.2203126671331496
191.47869674185463,0.6089760898013994,0.5733717469102408,-4.553977,-0.06207200000000013,-0.02318400000000001,0.148757,0.0088139127225713,-0.035046211380046,-0.2272944030201469
192.4812030075188,0.6089760302856719,0.5733721614259382,-4.642988,0.057081999999999855,-0.066501,-0.045626,-0.0014311699866353,-0.0243473430653209,-0.2407854490722132
193.4837092731829,0.6089759678028847,0.5733725712292466,-4.626997,-0.04359899999999994,0.01968399999999998,-0.075138,-0.0050440015382636,-0.0287630260728664,-0.2482028889536781
194.48621553884712,0.608975908810756,0.5733729864430755,-4.677637,0.019281000000000326,0.016627000000000003,0.170074,0.014137166941154,-0.0436681378848979,-0.2544863535135377
195.48872180451127,0.6089758414410469,0.573373405671162,-4.823299,0.034895999999999816,-0.08438199999999996,-0.037694000000000005,-0.0203330857857339,-0.0169646003293848,-0.2621488027153982
196.49122807017545,0.6089757602832366,0.5733738173943325,-4.862872,-0.09678399999999998,-0.08548800000000001,-0.10836,-0.0120253185462409,-0.011065387457644,-0.2698107108651915
197.4937343358396,0.6089756717950435,0.57337421759833,-4.847557,-0.121232,0.09076099999999998,0.037632000000000006,-0.0408057979116274,-0.1277930252843173,-0.2725505636315566
198.49624060150376,0.6089755995384125,0.5733745895279936,-5.028382,-0.18457100000000004,0.06411,0.29505000000000003,0.3449817974024917,-0.2491981105997502,-0.4112171123288475
199.4987468671679,0.6089755148899438,0.5733749103195102,-5.389387,-0.320635,-0.26465,0.09376599999999996,0.1536064274680209,-0.2306103540660107,-0.6414085001079165
200.5012531328321,0.6089754073776619,0.5733751874777954,-5.873003,-0.2977939999999999,-0.31637899999999997,0.087009,0.1267109036947883,-0.2355670891416745,-0.8866446260391767
201.50375939849624,0.6089752564066816,0.5733754056439517,-6.26726,-0.30256000000000016,-0.28375800000000007,-0.215364,-0.0194778744522567,-0.2123367393443376,-1.1206059948157236
202.5062656641604,0.6089750469671714,0.5733755670869076,-6.562677,-0.4053439999999999,-0.040955000000000075,0.06181700000000001,-0.0478394747971646,-0.2710147262496796,-1.3232214073060862
203.50877192982452,0.6089748207725003,0.5733756843730333,-6.949275,-0.29964100000000005,-0.046373999999999915,0.042682,0.0457101731097314,-0.2595304597715568,-1.5190649597520016
204.5112781954887,0.6089745895163744,0.5733757526154071,-7.326416,-0.28525799999999996,-0.03523300000000007,-0.033696000000000004,-0.0396538806053111,-0.2611710692684315,-1.7232159652781465
205.51378446115288,0.6089743586093144,0.573375773733891,-7.664689,-0.325917,0.04630600000000018,-0.037277000000000005,-0.026755897433073,-0.268361825786648,-1.934383334023648
206.51629072681703,0.6089741386978287,0.573375755407934,-7.998875,-0.28309,0.122811,0.021309000000000022,-0.03384193419617,-0.2727076956241139,-2.140489352658121
207.5187969924812,0.6089739460134791,0.573375696590338,-8.360269,-0.22741699999999998,0.16005599999999987,0.029889,-0.0068416906678177,-0.2785894552033348,-2.344553021908496
208.5213032581453,0.6089737812543977,0.5733756019934926,-8.732819,-0.207237,0.12763900000000006,-0.013504000000000016,-0.0220086018676485,-0.2770360947157673,-2.536521925961692
209.52380952380952,0.6089736409299259,0.5733754782496487,-9.089904,-0.19720800000000005,0.14850600000000003,-0.022409999999999985,-0.0276285620590702,-0.2746624643863475,-2.7236385528949567
210.52631578947367,0.6089735316723148,0.5733753272786685,-9.423382,-0.1389499999999999,0.22622599999999998,-0.005193000000000003,-0.005829399701661,-0.2757096619375441,-2.9137224664494137
211.52882205513785,0.6089734648262044,0.5733751527457431,-9.766059,-0.146007,0.26871199999999995,0.020789999999999975,-0.0222180413778878,-0.2805093348338212,-3.079616099117937
212.531328320802,0.6089734440567863,0.5733749570943341,-10.147193,-0.12512100000000004,0.201526,0.04563900000000004,-0.0212581102892909,-0.2861816199962175,3.124697831523903
213.53383458646616,0.6089734597647496,0.5733747404989739,-10.568479,-0.13172300000000003,0.10310000000000001,0.036461999999999994,0.0506320016003555,-0.2839127094219176,3.1049233209119773
214.5363408521303,0.6089735004309212,0.5733744978982078,-11.029422,-0.12597599999999987,0.04206299999999999,0.042206999999999995,0.0372627795300789,-0.2765648732710213,3.105551569629525
215.5388471177945,0.608973540573494,0.5733742359242872,-11.529912,-0.10294100000000017,0.012426999999999994,0.03658299999999998,0.0225671072282866,-0.2681523862764088,3.1097228716352063
216.54135338345864,0.6089735716403546,0.573373960685864,-12.054777,-0.08475100000000002,0.00317400000000001,0.014982999999999969,0.0186052098262595,-0.261432851202938,3.1110142407487573
217.5438596491228,0.6089735978202935,0.5733736728810703,-12.587216,-0.07807900000000001,0.0008660000000000057,0.0014480000000000048,0.0124791041517594,-0.2596700686584237,3.1093913114372054
218.54636591478692,0.6089736226039688,0.573373374953367,-13.118248,-0.07881799999999983,0.003145999999999982,-0.006704999999999961,0.0031939525311496,-0.2601413250097548,3.106738271347834
219.54887218045116,0.6089736480857758,0.5733730660300894,-13.647397,-0.06356400000000018,0.019068,0.009874999999999967,0.0013439035240356,-0.2611710692684315,3.102898529540154
220.55137844611528,0.6089736770582415,0.5733727489037644,-14.199482,-0.054535,0.018453999999999998,0.03441900000000009,0.000610865238198,-0.2619913914701612,3.09998395186237
221.55388471177943,0.6089737086487009,0.573372423225326,-14.786355,-0.047857999999999734,-0.00031099999999997796,0.030391999999999975,-0.0016929693744344,-0.2601238717172349,3.0999141910521684
222.5563909774436,0.6089737390174298,0.5733720924854327,-15.396565,-0.035601000000000216,-0.01671600000000001,0.01433899999999999,0.0042586033748661,-0.2573313274607514,3.1029858658159237
223.55889724310777,0.6089737643247041,0.573371758080348,-16.020292,-0.02522000000000002,-0.028897000000000006,0.01296799999999998,-0.0012740903539558,-0.2561445210226878,3.1053246593734736
224.56140350877192,0.6089737842214575,0.5733714217554011,-16.65419,-0.01931499999999975,-0.018434000000000006,0.006879999999999997,-0.0129328897572779,-0.2541199216370817,3.105010412841652
225.56390977443607,0.6089738020238158,0.573371084034191,-17.289782,-0.014499000000000262,0.0007260000000000044,-0.002862999999999949,-0.0031590459461097,-0.2514670560806353,3.0993205696669803
226.56641604010025,0.6089738191280426,0.5733707447421843,-17.918545,-0.007905999999999747,0.009064000000000016,-0.008722000000000008,-0.0067195176201781,-0.2501929308200945,3.096598013113502
227.5689223057644,0.6089738388502631,0.5733704035303157,-18.53846,-0.006019000000000219,0.006296999999999997,-0.006924000000000041,-0.0061784655520599,-0.2504721835004135,3.09881482560963
228.57142857142856,0.6089738627612739,0.5733700612712492,-19.155647,-0.005847999999999853,0.019294000000000006,0.0014210000000000056,-0.005846852994181,-0.2516066649675026,3.0975580838284387
229.5739348370927,0.6089738915592066,0.5733697193612488,-19.779388,-0.004277000000000086,0.026875999999999983,0.007336000000000009,-0.0072256631032565,-0.2531076306709252,3.092985164108581
230.5764411027569,0.6089739327489768,0.5733693797201764,-20.415054,-0.004700999999999844,0.008139000000000007,0.01149699999999998,-0.0121125850088406,-0.2531599905484851,3.092514064836883
231.57894736842104,0.6089739749859447,0.5733690397300382,-21.056074,-0.007130000000000081,-0.01424800000000001,0.000136000000000025,-0.0044331363000655,-0.2513099589946634,3.096894684179756
232.5814536340852,0.6089740057037395,0.573368694503912,-21.690956,-0.007365000000000066,-0.014886999999999984,-0.008607000000000031,-0.0090058989402907,-0.2513623188722231,3.0997048562616847
233.58395989974937,0.6089740318836784,0.5733683489287202,-22.31661,-0.005663999999999891,-0.0027890000000000137,-0.010467000000000004,-0.0067369709126981,-0.2524444230084599,3.1007869080380432
234.58646616541355,0.6089740564928209,0.5733680005610015,-22.935795,-0.002931000000000239,0.009737999999999997,-0.0023259999999999392,-0.0029321531433504,-0.2540326726277746,3.0999490627306234
235.58897243107768,0.6089740856398194,0.5733676527168815,-23.557888,-0.003467000000000109,0.016655000000000003,0.008369999999999989,-0.0073478361508961,-0.2554463718685975,3.096929573311503
236.59147869674183,0.608974119150141,0.5733673048727616,-24.190512,-0.0036669999999996428,0.009719000000000005,0.012406999999999946,-0.0110828407501639,-0.2550798701789711,3.093648563757264
237.593984962406,0.6089741512641992,0.5733669568541088,-24.831676,-0.00403700000000029,-0.0067899999999999905,0.0033440000000000136,-0.0033335788713091,-0.2536137936072959,3.0943814624167616
238.59649122807016,0.6089741812838623,0.5733666070901267,-25.473154,-0.005773999999999724,-0.01768800000000001,-0.005296999999999996,-0.0057770398241012,-0.2524793121402071,3.098360760751431
239.59899749373432,0.6089742081619328,0.5733662575006775,-26.108816,-0.006219000000000197,-0.0116,-0.005222999999999978,-0.0033161255787892,-0.2531949320401099,3.100158397521108
240.6015037593985,0.6089742322474765,0.5733659066894978,-26.737818,-0.0038529999999998843,-0.0019790000000000085,-0.0038090000000000623,-0.0024085543677521,-0.2549227730929992,3.1000364164596856
241.60401002506265,0.608974256682086,0.5733655567509828,-27.36581,-0.0012769999999999726,0.010664000000000007,0.00456600000000007,-0.0098611102737679,-0.2567030089300333,3.097697361102748
242.6065162907268,0.6089742849564199,0.5733652052416714,-28.002783,0.0011950000000000571,0.013364999999999988,0.009619999999999962,-0.0083601271170528,-0.256493604326379,3.093596099159949
243.60902255639093,0.6089743167214123,0.5733648546050247,-28.649235,0.0007129999999997416,0.0047860000000000125,0.0064629999999999965,-0.0095818575934488,-0.2552194790658384,3.091222416470652
244.61152882205516,0.60897434761374,0.5733645025721146,-29.299946,-0.0003439999999996779,-0.009687000000000001,-0.0005260000000000264,-0.0023736477827122,-0.2542595654305337,3.0930725178376437
245.6140350877193,0.6089743764116727,0.5733641514118691,-29.947243,-0.0033280000000002197,-0.017033999999999994,-0.007403999999999966,-0.0105417886820457,-0.2534916031063638,3.0967202559743114
246.61654135338344,0.6089744018934797,0.5733638004261565,-30.588531,-0.0017740000000001643,-0.003392000000000006,-0.004630000000000023,-0.0054803338512621,-0.2539279528726548,3.096755145106059
247.6190476190476,0.6089744277243527,0.5733634483932464,-31.226927,-0.002777999999999725,0.0070099999999999885,-7.299999999998974e-05,-0.0066147978650585,-0.2548704481220243,3.09406721588494
248.62155388471177,0.6089744546024232,0.5733630958367375,-31.868658,-0.002118999999999982,0.007746000000000003,0.006222000000000061,-0.0106290551446454,-0.2551322300565311,3.090559296074649
249.62406015037595,0.6089744821786255,0.5733627434547615,-32.516861,0.0008249999999998536,-0.011974999999999986,0.009072999999999998,-0.0088488193076112,-0.24928537706235,3.0916413303977155
250.62656641604008,0.6089745069623007,0.573362390025588,-33.147167,-0.009329000000000143,-0.021404000000000006,-0.063164,-0.0125838239068791,-0.2027025218733289,3.092863200500452
251.62907268170423,0.6089745294770481,0.5733620350256181,-33.679626,-0.015187999999999757,-0.007416000000000006,-0.12225000000000003,-0.0094945911308491,-0.1430820920784949,3.0895121334300377
252.6315789473684,0.6089745472794065,0.5733616815964446,-34.084854,-0.010219999999999896,0.001820000000000016,-0.13246600000000003,-0.0020071286397934,-0.0895877505048687,3.086684403335834
253.63408521303256,0.608974566827094,0.5733613262474089,-34.363792,-0.008642000000000039,0.007981999999999989,-0.119391,-0.002740166925631,-0.0489913921034808,3.084188757038407
254.63659147869672,0.6089745896909073,0.5733609696766427,-34.541744,-0.009034999999999904,0.0009180000000000021,-0.08274699999999999,-0.0018151424220741,-0.0265639112153537,3.083752529445164
255.6390977443609,0.6089746104603254,0.5733606103133497,-34.657074,-0.007108000000000114,-0.002600999999999992,-0.045528,-0.0078190750489345,-0.0159523093632281,3.0826180130714897
256.64160401002505,0.6089746357675996,0.5733602490301946,-34.739132,-0.003973000000000226,0.012188999999999978,-0.024792999999999996,5.235987755982988e-05,-0.0117809724509616,3.0781324470806943
257.64411027568923,0.6089746615984725,0.5733598856526443,-34.79855,-0.0018199999999999328,0.006626000000000021,-0.019779000000000005,-0.014137166941154,-0.0081157810217735,3.0758285601081843
258.6466165413533,0.6089746869057466,0.573359522449627,-34.843021,-0.0010750000000001592,-0.00015200000000001324,-0.009219999999999999,-0.0067369709126981,-0.0074525559060156,3.076020825578584
259.64912280701753,0.6089747136092842,0.5733591599447413,-34.876778,-0.002201999999999593,0.004318000000000016,-0.011705000000000004,-0.0036128315516282,-0.0059166661642606,3.073821588548024
260.6516290726817,0.6089747429308157,0.5733587965671911,-34.899754,-0.0030850000000000044,0.007501999999999981,-0.009721999999999998,-0.0075747289536553,-0.0047123889803846,3.071587462385716
261.65413533834584,0.6089747720778141,0.5733584328405749,-34.915386,-0.005323000000000189,0.012635000000000007,-0.003829000000000001,-0.0105592419745656,-0.0050440015382635,3.0673988467138544
262.65664160401,0.6089748047154712,0.5733580678922283,-34.929756,-0.0042719999999998315,0.015953999999999996,0.0015589999999999996,-0.0092502450355699,-0.0046425758103048,3.0631923937770376
263.65914786967414,0.6089748397965892,0.5733577018966842,-34.945045,-0.0034560000000003477,0.010782000000000014,0.0019000000000000006,-0.0116587994033221,-0.0042236967898261,3.060330018897182
264.6616541353383,0.608974877670234,0.57335733590114,-34.964642,8.400000000019503e-05,0.004610999999999976,0.0051920000000000004,-0.0084473935796525,-0.0044854961776252,3.058305489324746
265.6641604010025,0.6089749151948128,0.5733569693819972,-34.986412,0.002222999999999864,-0.0010159999999999614,-0.002021000000000002,-0.0093026049131297,-0.0028274333882307,3.057397883207124
266.66666666666663,0.6089749523703258,0.573356605655381,-35.00069,0.002259000000000011,0.0007839999999999514,-0.010427999999999998,-0.0020071286397934,0.0001221730476397,3.055827156693499
267.6691729323308,0.6089749897203719,0.5733562421032978,-35.001728,0.0008029999999998871,0.00645100000000004,-0.014623,-0.0038746309394274,0.001850049007114,3.053558403198832
268.671679197995,0.6089750282921483,0.57335587767855,-34.992359,-0.0011369999999999436,0.013791999999999971,-0.0051,-0.0039269908169872,0.0008377580409573,3.04881105527353
269.6741854636591,0.6089750700055174,0.5733555136028681,-34.982952,-0.001859000000000055,0.016923999999999995,0.007090000000000001,-0.0032812189937493,-0.0013439035240356,3.0424753879157427
270.6766917293233,0.6089751139878146,0.5733551561594373,-34.987122,0.15699400000000008,0.014467000000000008,-0.045614,0.1573588853598087,0.119136174741133,3.036838009338386
271.6791979949875,0.6089751590173094,0.5733548296083342,-34.69595,0.19539200000000023,0.012184000000000028,-0.489271,-0.1725956097297192,0.3225368632218446,2.96184100194068
272.6817042606516,0.6089752258634196,0.5733545421526064,-34.145237,0.21238099999999993,0.23314800000000002,0.04406100000000002,-0.1361531349480776,0.260106418424715,2.7622802123472807
273.6842105263158,0.6089753290123785,0.5733542930941221,-33.667538,0.24475599999999997,0.288397,-0.03492899999999999,0.1222254075171628,0.3070732285958826,2.553154966093075
274.68671679198,0.6089754660207247,0.5733541100090837,-33.119377,0.35434699999999997,0.26322199999999996,-0.00016900000000008575,-0.1010545636904716,0.297055038689435,2.2905004367736184
275.6892230576441,0.6089756861067434,0.5733539670666179,-32.619888,0.35441100000000003,0.245371,0.03866000000000003,0.0438950306876573,0.3002664445131047,2.0502557430635515
276.69172932330827,0.6089759219007254,0.5733538761349639,-32.121494,0.36567500000000003,0.11141699999999988,-0.012796999999999947,-0.0627620399017161,0.3103893192680866,1.8080913093493385
277.6942355889724,0.6089761995826094,0.5733538518748873,-31.640574,0.36319799999999997,0.08978100000000011,0.03940599999999994,-0.0103847090493662,0.304559937019718,1.5790342808643094
278.69674185463657,0.6089764791843555,0.5733538672337847,-31.180267,0.32569000000000004,-0.0027399999999999647,0.0036810000000000453,0.0120776784238007,0.3186622322824173,1.3635384781205702
279.69924812030075,0.6089767538991798,0.5733539379196193,-30.727171,0.31122799999999995,-0.06411699999999998,0.012712999999999974,0.0091804318654901,0.323496776857149,1.14116613048385
280.7017543859649,0.6089770141277713,0.5733540529368171,-30.285662,0.295712,-0.11471500000000012,0.013834999999999986,0.0144687794990329,0.3297450555792887,0.9233315341825602
281.70426065162906,0.6089772460820289,0.573354206874857,-29.845673,0.24715700000000007,-0.15983099999999983,-0.009702999999999962,0.006771877497738,0.3356093269594047,0.7100697877879582
282.70676691729324,0.6089774466203599,0.5733543969412126,-29.405064,0.208839,-0.19604100000000013,0.008828999999999976,0.0500560429471973,0.3369707012292529,0.5000543014421879
283.70927318295736,0.6089776089359803,0.5733546151073692,-28.959692,0.15603999999999996,-0.22443199999999996,-0.015260999999999969,-0.0009599310885968,0.3374594283263961,0.2929884389855806
284.71177944862154,0.6089777279674353,0.5733548536938778,-28.511559,0.11742000000000008,-0.240576,0.0018129999999999535,0.0053407075111026,0.3345272577297531,0.0886801792938318
285.7142857142857,0.6089778012712639,0.573355109908212,-28.055929,0.12298299999999984,-0.283427,-0.019140999999999964,0.0211708438266912,0.3299545125428205,-0.0916825121264051
286.71679197994985,0.6089778225642808,0.5733553884627607,-27.574081,0.11552400000000018,-0.223607,-0.025745000000000018,-0.0069813170079773,0.326359099377127,-0.1768717187569833
287.719298245614,0.6089778099979102,0.5733556841215359,-27.068731,0.11078999999999994,-0.12207000000000001,-0.025800000000000045,0.0544193660771832,0.3215594613874351,-0.1862614854129571
288.7218045112781,0.6089777623504216,0.5733560049130525,-26.534439,0.11723700000000004,-0.053668999999999994,-0.028674999999999895,0.0577529449484923,0.3160965808286931,-0.1682500016916412
289.72431077694233,0.6089777061508197,0.5733563442050591,-25.968138,0.10759700000000016,-0.013002000000000014,-0.0359290000000001,0.0230034395412852,0.3149097394840443,-0.1467998353714608
290.7268170426065,0.6089776736876955,0.5733566964125021,-25.364624,0.09454699999999994,0.0026580000000000215,-0.03915499999999994,0.0311890337331386,0.3156602310624019,-0.1342856326484443
291.72932330827064,0.6089776468096251,0.5733570617099145,-24.726574,0.0826929999999999,0.002811999999999981,-0.028194000000000052,0.0202283660306142,0.3139149192637001,-0.1309524202962777
292.7318295739348,0.60897761190304,0.5733574435879548,-24.067526,0.07064099999999973,-0.008543999999999996,-0.015872999999999915,0.0102625360017266,0.3124488252387323,-0.1340241125133244
293.734335839599,0.6089775736803295,0.5733578366361024,-23.398869,0.062444000000000166,-0.018948999999999994,-0.007430000000000048,0.0084823001646924,0.3123266696443854,-0.1373924757966265
294.7368421052631,0.6089775323160262,0.5733582382363633,-22.723036,0.05676199999999998,-0.02094499999999999,-0.009485999999999994,0.0047472955654245,0.3138625593861404,-0.1374798295256883
295.7393483709273,0.6089774872865316,0.5733586466434083,-22.030661,0.05044100000000018,-0.016220000000000012,-0.021711000000000036,0.0078539816339744,0.3148399437672573,-0.1362404014106773
296.7418546365915,0.6089774354502526,0.5733590615081715,-21.312513,0.043922999999999934,-0.008744000000000002,-0.02678999999999998,0.0070336768855371,0.3140021682730074,-0.1367117799350563
297.7443609022556,0.6089773836139739,0.5733594810853236,-20.570717,0.028137999999999774,0.0016180000000000083,-0.016761999999999944,0.0022165681500327,0.3122044965967459,-0.1378633307222288
298.7468671679198,0.6089773345702219,0.5733599010115418,-19.82645,-0.0038689999999999003,-0.002715999999999996,0.01000599999999996,-0.0093026049131297,0.3108606105260025,-0.1414239769292236
299.749373433584,0.6089772829084761,0.573360320239628,-19.09618,0.0002149999999998542,-0.015519000000000005,0.014544000000000001,-0.0078365283414545,0.3103544475896318,-0.1445654474097646
300.7518796992481,0.6089772308976644,0.5733607365006546,-18.3799,0.0022890000000002075,-0.01219400000000001,0.010970000000000035,-0.0103847090493662,0.3115063648959479,-0.1428903153002861
301.7543859649123,0.6089771764433917,0.5733611541579446,-17.672083,0.006552000000000113,-0.005525999999999975,0.007323999999999997,-0.0004712388980384,0.3132866181862748,-0.1409877493359801
302.7568922305764,0.6089771186729935,0.5733615723388334,-16.964539,0.0022050000000000125,-0.01358400000000004,-0.008251000000000008,-0.0091455252804502,0.3170041520397302,-0.1428199959847227
303.7593984962406,0.608977058982733,0.5733619903451893,-16.239489,-0.00934999999999997,-0.01232799999999995,-0.022268000000000066,-0.0057944931166211,0.3196221808243065,-0.1443390782057812
304.7619047619048,0.6089769999906044,0.5733624066062158,-15.491207,-0.016802000000000206,0.002344999999999986,-0.02164899999999992,-0.0004188790204786,0.3180164604591793,-0.1442687588902187
305.7644110275689,0.6089769420456731,0.5733628190275182,-14.726213,-0.01940699999999973,0.03305899999999998,-0.010657000000000028,0.0023561944901923,0.3149970233999366,-0.1420002846482309
306.76691729323306,0.6089768938745859,0.5733632267364314,-13.967636,-0.006854000000000138,0.04591300000000001,0.024394999999999945,-0.0009599310885968,0.3110700325829494,-0.1365722234080666
307.76942355889724,0.6089768533829472,0.5733636346198776,-13.245337,0.017290999999999723,0.013491000000000003,0.035891000000000006,-0.0012915436464757,0.3091327171132356,-0.1359091030120638
308.77192982456137,0.6089768099242489,0.5733640454703836,-12.532482,0.0044880000000002696,-0.033333,-0.020112999999999936,-0.0088488193076112,0.3145257845018983,-0.1436407894253506
309.77443609022555,0.6089767634984906,0.5733644564954224,-11.779145,-0.022587000000000135,-0.0063449999999999895,-0.04466199999999998,-0.0075572756611354,0.315346106703628,-0.1489111776208915
310.77694235588973,0.6089767193416606,0.5733648675204611,-10.999346,-0.014815999999999718,0.04969599999999999,-0.0036680000000000046,0.0040317105721069,0.3098133780682208,-0.1451769060599084
311.77944862155385,0.608976683562411,0.5733652719132488,-10.237429,-0.0010660000000002334,0.056813,0.033443,0.0037873644768276,0.3047170341056902,-0.1399405866913679
312.78195488721803,0.6089766559862088,0.5733656761315037,-9.505986,0.00379800000000019,-0.002836000000000005,0.015024999999999955,-0.0150272848596711,0.3045075771421581,-0.147899183360707
313.7844611528822,0.6089766264901444,0.573366081222423,-8.76365,-0.011095000000000077,-0.019736000000000004,-0.035441999999999974,-0.0081506876068135,0.3099879284467128,-0.1570444817483552
314.78696741854634,0.6089765989139422,0.5733664850916119,-8.002534,-0.00518900000000011,0.01838300000000001,0.01569900000000002,0.0083601271170528,0.3080855195620391,-0.1565736268227511
315.7894736842105,0.6089765695924108,0.5733668921023936,-7.286741,0.027598000000000233,0.0004829999999999973,0.06106999999999996,-0.0068416906678177,0.2979102500229122,-0.1596453190397986
316.79197994987464,0.608976531718766,0.5733673012075702,-6.643219,0.015091999999999661,-0.08775500000000001,0.08613899999999997,-0.0071383966406568,0.2504896542462262,-0.1649513992185414
317.7944862155388,0.608976480406086,0.5733677139779383,-6.057623,-0.0016680000000000028,-0.07556199999999996,0.018604999999999983,-0.0110828407501639,0.1906946740729005,-0.1705184759336282
318.796992481203,0.6089764238574182,0.5733681230831149,-5.442981,-0.030761999999999734,0.10260399999999997,-0.03812899999999997,0.0108908545324446,0.1240754565242769,-0.1734335772101867
319.7994987468672,0.6089763931396235,0.5733685271268368,-4.9153,0.018674999999999997,0.177751,0.260042,0.0182212373908208,0.0435459648372584,-0.1736253190818104
320.8020050125313,0.6089763884272344,0.5733689383264086,-4.754609,0.10252799999999995,-0.03213,0.366473,-0.0137881010907552,0.008970992355251,-0.1735379653527487
321.8045112781955,0.6089763769080613,0.573369359299824,-4.796137,-0.0007820000000000604,-0.136966,0.027659,-0.0196175007924162,0.0216944426022895,-0.1747774109210518
322.8070175438596,0.6089763341474946,0.5733697849856286,-4.798793,-0.052033999999999914,-0.10936599999999999,-0.054321,0.0031764992386296,0.0150447381521912,-0.1916719711875541
323.8095238095238,0.6089762584002051,0.5733702068317089,-4.70118,-0.019900999999999947,-0.021258,-0.14763900000000002,-0.004590215932745,0.0111177473352039,-0.2092648027811947
324.812030075188,0.6089761985354117,0.5733706131443588,-4.521343,-0.029650000000000176,0.10927100000000001,0.055508,0.0065798912800186,-0.022148228207808,-0.2149373322896866
