Time [s],Longitude [rad],Latitude [rad],Altitude [m],V North [m/s],V East [m/s],V Down [m/s],Roll [rad],Pitch [rad],Yaw [rad]
2.0050125313283207,0.6090225497679558,0.573388357208732,-15.000035,-0.0017799999999998997,0.001033999999999799,-0.003924000000000101,0.0552745774106604,-0.0020420352248333,1.7879151984765285
3.007518796992481,0.6090229339149241,0.573388334170386,-15.013989,-0.0022200000000001004,0.004350000000000501,-0.0077199999999998,0.0556410965535792,-5.23598775596934e-05,1.7989108600305554
4.010025062656641,0.6090233184109584,0.5733883076413813,-15.023293,-0.000743999999999901,0.0042169999999995995,-0.0064100000000001,0.0540179403492245,0.0022689280275927,1.8090686762771624
5.012531328320802,0.609023701859795,0.5733882776217182,-15.024637,0.001407000000000002,0.0009880000000000002,-0.001765000000000001,0.0540353936417444,0.0025830872929517,1.81913929587434
6.015037593984962,0.6090240865303622,0.573388243064199,-15.017626,0.0016859999999998994,-0.000699,0.0006570000000000013,0.0545589924173427,0.0025307274153918,1.829262100816152
7.017543859649122,0.6090244715499952,0.5733882053650873,-15.003743,0.008776999999999998,0.0016350000000003,0.0031999999999999997,0.052935836212988,0.0011868238913561,1.838355336032212
8.020050125313283,0.6090248583149573,0.5733881652225143,-14.990861,0.002259000000000101,-0.0022960000000003,0.010411,0.0497244303893184,-0.0003839724354386,1.8471343072631587
9.022556390977442,0.6090252438581892,0.5733881235091453,-14.990552,-0.0068770000000001,-0.0054799999999999,0.010882999999999999,0.0526391302401489,-0.0015533430342749,1.856401970684664
10.025062656641603,0.6090256269579599,0.5733880786541835,-15.00536,-0.007137999999999901,-0.0065900000000001,-0.005520999999999998,0.0529009296279481,-0.000890117918517,1.8661583437500195
11.027568922305765,0.6090260074397369,0.5733880282141681,-15.023888,-0.002967000000000098,-5.5999999999801e-05,-0.013586,0.0522377045121902,0.001570796326795,1.8759845997986253
12.030075187969924,0.6090263872233821,0.5733879739344283,-15.031622,0.007012999999999998,0.0086029999999999,-0.012669,0.0590444885949681,0.0035430183815485,1.885357070241712
13.032581453634084,0.6090267663088956,0.5733879168621618,-15.021529,0.007822,0.0104009999999998,-0.0028399999999999988,0.0538259541315051,0.003996803987067,1.894170930604406
14.035087719298245,0.6090271485360018,0.5733878561247039,-14.998401,0.00039300000000009987,9.000000000010042e-05,0.009572999999999998,0.0500909495322372,0.0019024088846739,1.902915012703605
15.037593984962406,0.6090275312867068,0.5733877941655154,-14.978389,-0.0027870000000000984,-0.0067209999999997,0.019443000000000002,0.0473507826066061,-0.0008552113334772,1.9113973128682973
16.040100250626566,0.6090279142119447,0.5733877301119319,-14.974967,-0.0026879999999999023,-0.0092630000000002,0.008239999999999999,0.0471937029739266,-0.00301941960595,1.920787219150612
17.042606516290725,0.6090282943446559,0.5733876623931569,-14.988013,-0.0012799999999999999,-0.006318999999999899,-0.005401999999999999,0.0478394747971645,-0.0028623399732705,1.9307879208579544
18.045112781954884,0.6090286699395109,0.5733875911837234,-15.007979,-0.0014599999999999995,-0.00038400000000020015,-0.0124120000000001,0.0560250689890179,-0.0011519173063161,1.941870813967996
19.047619047619047,0.6090290423927732,0.5733875164836314,-15.02268,-0.0018600000000001012,0.0062430000000002,-0.0129459999999999,0.0601964059012844,0.0016929693744345,1.953407353057216
20.050125313283207,0.6090294150205685,0.5733874382928809,-15.021834,0.001161000000000103,0.0094999999999998,-0.005618999999999999,0.0545240858323028,0.0028623399732707,1.9640189898159264
21.052631578947366,0.6090297890446271,0.5733873571350706,-15.003633,-0.0026020000000001008,0.0067210000000002,0.001547999999999999,0.0501956692873569,0.0021467549799532,1.974246584326028
22.05513784461153,0.6090301642904163,0.5733872709158057,-14.975013,-0.0025299999999999004,-0.0022180000000001,0.0096400000000001,0.0541052068118242,-5.23598775596934e-05,1.984561550018485
23.05764411027569,0.6090305419796666,0.5733871817294808,-14.951597,0.0011579999999999993,-0.0084770000000002,0.0217959999999999,0.0494102711239594,-0.0033335788713091,1.9956618615144608
24.06015037593985,0.6090309161782581,0.5733870880053,-14.951639,0.008067000000000001,-0.0100359999999997,0.012167999999999998,0.0488517657633212,-0.0046949356878647,2.005644987756236
25.062656641604008,0.6090312874097901,0.5733869913140596,-14.977626,0.0072749999999999,-0.007328000000000199,-0.008419,0.0482932604026831,-0.0045029494701454,2.0136561886492306
26.065162907268167,0.6090316530562684,0.5733868930520226,-15.013848,-0.0017819999999999,0.001149000000000299,-0.0207,0.0548556983901817,-0.0019722220547535,2.0218418002943763
27.06766917293233,0.6090320160847527,0.5733867921719917,-15.03536,-0.010328000000000002,0.0102759999999997,-0.022855999999999998,0.0640361302556719,0.0011519173063163,2.030062178898222
28.07017543859649,0.6090323789387042,0.5733866869286379,-15.02689,-0.0052170000000001,0.0157520000000001,-0.007719,0.0580321976288114,0.0025132741228719,2.038893754352824
29.07268170426065,0.609032743363452,0.5733865778455596,-14.992652,0.008095000000000001,0.009599999999999899,0.013925,0.052621676947629,0.0003665191429189,2.0474458327810106
30.07518796992481,0.6090331114533913,0.5733864656208888,-14.955865,0.0071150000000001,-0.007152999999999798,0.031127,0.0430398193541801,-0.0038397243543875,2.055945446611883
31.07769423558897,0.6090334802414623,0.5733863525235533,-14.945563,0.002435999999999999,-0.0166240000000001,0.021192,0.0377165651355974,-0.0069464104229373,2.064549989637385
32.08020050125313,0.6090338478078027,0.573386236459158,-14.969786,-0.0047610000000001,-0.016505,-0.00656,0.0378038315981971,-0.0068765972528574,2.0750393835352856
33.08270676691729,0.6090342083928262,0.5733861189984993,-15.007998,-0.004363999999999899,-0.005619999999999899,-0.030658999999999898,0.0534245284035464,-0.00307177948351,2.086296827023819
34.08521303258145,0.6090345623455985,0.5733859980471822,-15.029724,-0.0025970000000000992,0.0108279999999998,-0.0218300000000001,0.0583638101866903,0.0008203047484374,2.097466934236583
35.08771929824561,0.6090349149021074,0.573385872383476,-15.025124,-0.004144999999999902,0.01920000000000029,0.0014429999999999998,0.0546113522949025,0.0014660765716751,2.108724377725117
36.09022556390977,0.6090352679822151,0.5733857434036442,-15.004705,0.0053450000000000025,0.01438999999999961,0.0161160000000001,0.0555014702134196,6.981317007981325e-05,2.1189694255277383
37.092731829573935,0.6090356240293825,0.5733856105840882,-14.983736,0.004014999999999901,-0.006845999999999901,0.0126199999999998,0.0508763476956347,-0.0017802358370342,2.129755490491893
38.095238095238095,0.6090359809492145,0.5733854744484066,-14.974631,-0.003035000000000003,-0.022489999999999802,0.010750000000000101,0.0470366233412471,-0.0029845130209102,2.1408732552803897
39.097744360902254,0.6090363347274539,0.5733853355201981,-14.981384,-0.003466999999999998,-0.014512000000000101,-0.0031340000000000014,0.0459545192050106,-0.0046251225177849,2.1514498632810124
40.100250626566414,0.6090366815243763,0.5733851931013311,-14.997636,-0.00018799999999990005,0.005789000000000103,-0.0109790000000001,0.054768431927582,-0.0044331363000655,2.1614332513221752
41.10275689223057,0.6090370234343768,0.5733850459700751,-15.00877,0.003919999999999899,0.015443999999999998,-0.0132799999999999,0.0553618438732601,-0.0038048177693474,2.1718179952781265
42.10526315789473,0.6090373648207784,0.5733848956972266,-15.010589,0.0021950000000000996,0.0104919999999998,0.0049759999999999995,0.0508065345255549,-0.0034382986264287,2.182220035446965
43.10776942355889,0.6090377088251739,0.5733847443771805,-15.008586,0.0017080000000000012,-0.00040100000000010006,0.0052480000000001,0.0465130245656488,-0.0025481807079117,2.1918020850266315
44.11027568922306,0.6090380528295696,0.57338458921741,-15.007112,-0.00022700000000010212,-0.0108089999999997,0.0024849999999998,0.0471413430963668,-0.0013613568165555,2.201052172982569
45.11278195488722,0.6090383933433067,0.5733844312651127,-15.009143,-0.0017269999999998988,-0.010208,0.0026720000000000996,0.0488692190558412,-0.001169370598836,2.210197733169604
46.11528822055138,0.6090387296682535,0.5733842703457557,-15.017036,-0.004565000000000201,3.2999999999901164e-05,0.0011810000000000006,0.0525693170700692,-0.0017104226669544,2.219430385286314
47.11779448621554,0.6090390633752065,0.5733841055866743,-15.025042,0.000552000000000101,0.008751999999999899,-0.011596,0.0536688744988256,-0.0006457718232377,2.228907645297692
48.1203007518797,0.6090393942896326,0.5733839371624014,-15.024608,0.005051000000000201,0.005833000000000201,-0.002053,0.04921828490624,0.0010297442586766,2.2384545439462222
49.122807017543856,0.6090397245059271,0.5733837659456017,-15.01764,0.003804999999999798,1.6999999999999654e-05,0.005715,0.0506669081853954,0.0014835298641953,2.247547639535943
50.125313283208015,0.6090400550712874,0.5733835940306704,-15.014076,0.0023450000000001005,-0.005228000000000099,0.00884,0.0494277244164794,0.0006981317007976,2.256099840137177
51.127819548872175,0.6090403835422527,0.573383420021344,-15.019928,-0.003273999999999999,-0.0080839999999999,0.001973000000000001,0.0480489143074038,6.981317007981325e-05,2.2652627139903934
52.130325814536334,0.6090407066026972,0.5733832428704249,-15.029319,-0.006593000000000102,-0.0008879999999999999,-0.010155,0.051399946471233,0.0006632251157578,2.275560366016669
53.1328320802005,0.6090410287904771,0.5733830624033803,-15.029753,-0.004179999999999899,0.0082409999999999,-0.0112319999999999,0.0524296907299096,0.002129301687433,2.285770385061204
54.13533834586466,0.609041348883862,0.57338287862021,-15.01844,0.0033139999999999004,0.010251,0.0034819999999999,0.0481885406475634,0.0020594885173532,2.295753790555658
55.13784461152882,0.609041668453648,0.5733826906482496,-15.003284,0.0035320000000000004,-0.0021069999999998,0.01127,0.0486772328381218,0.0015009831567152,2.3057022894650743
56.14035087719298,0.6090419887215658,0.5733824998837623,-14.99614,0.0058690000000002004,-0.0115190000000001,0.012168,0.0477522083345648,0.0012217304763961,2.315144258918976
57.14285714285714,0.6090423048006932,0.5733823085956764,-15.005833,0.004632999999999599,-0.007459000000000101,0.003411000000000001,0.0468097305384879,0.0008552113334772,2.323958258908009
58.1453634085213,0.6090426166910307,0.5733821146895964,-15.029367,-0.0061839999999997,-0.003757,-0.0110560000000001,0.0460417856676104,0.0025830872929517,2.3353552589235327
59.14786967418546,0.6090429226472485,0.5733819193872531,-15.047604,-0.004864,0.0035620000000000027,-0.0226029999999999,0.0542099265669438,0.0060911990894603,2.346193788485002
60.15037593984962,0.6090432237165444,0.5733817198961197,-15.044606,-0.004244999999999999,0.009626000000000199,-0.006742999999999999,0.055082591192941,0.0073303828583761,2.356543625855914
61.15288220551378,0.6090435263566367,0.5733815172633936,-15.021799,-0.002432,0.0097809999999998,0.009767999999999999,0.0514872129338327,0.0060562925044203,2.3665443275632567
62.15538847117794,0.6090438284731302,0.5733813099182784,-14.991361,0.0024079999999999,0.0035359999999999,0.011993,0.0453262006742927,0.0036302848441482,2.3764576755415368
63.1578947368421,0.6090441314622884,0.5733810987334389,-14.968655,0.007082999999999999,-0.0095149999999999,0.01691,0.0450294947014537,0.0008203047484374,2.3871915551610567
64.16040100250626,0.6090444318334527,0.573380886326869,-14.969311,0.0069560000000002,-0.015130999999999999,0.012407999999999999,0.0432492588644194,-0.0016755160819144,2.397349388860956
65.16290726817043,0.6090447266195633,0.5733806725240355,-14.996949,-0.0017800000000000992,-0.011274000000000003,-0.0070290000000000005,0.0430223660616602,-0.0009948376736366,2.407507205107563
66.16541353383458,0.6090450126790277,0.5733804571504059,-15.031807,-0.0045030000000001996,0.0028670000000000015,-0.027812,0.0493753645389195,0.0033335788713091,2.417036807543208
67.16791979949875,0.609045294200636,0.5733802400314469,-15.047857,-6.299999999970045e-05,0.0143820000000001,-0.02113,0.0564614013020165,0.0072256631032565,2.425344539876116
68.1704260651629,0.6090455717079871,0.5733800190727636,-15.036764,-0.0032070000000001993,0.014133,0.004482,0.0575784120232929,0.0074700091985357,2.433303119092162
69.17293233082707,0.60904584991347,0.5733797937507572,-15.007137,-0.003589000000000002,0.007072999999999999,0.012699,0.0516442925665122,0.0049916416607038,2.44161085142507
70.17543859649122,0.6090461302133479,0.573379565287158,-14.976371,0.006882000000000001,-0.0010270000000000999,0.019800999999999902,0.0477871149196047,0.0009948376736368,2.4495345589626614
71.17794486215539,0.609046411909489,0.5733793338564992,-14.965295,0.0006860000000002003,-0.01627,0.015488000000000099,0.0340339204138894,-0.0015009831567149,2.4587498974131914
72.18045112781954,0.6090466897659059,0.5733791010295771,-14.977913,0.006418999999999699,-0.015770999999999903,-0.004708,0.0417657290002243,-0.0008726646259971,2.468052589592784
73.1829573934837,0.6090469611646047,0.5733788689007866,-15.005622,0.0037050000000001006,-0.0025260000000000976,-0.010254999999999998,0.0507367213554751,0.0005061454830783,2.4765001227987766
74.18546365914787,0.6090472254074534,0.5733786352011997,-15.034869,-0.0049489999999999,0.006329999999999999,-0.017148,0.0571595330028142,0.0038920842319474,2.484580962328925
75.18796992481202,0.6090474835416498,0.5733784001053494,-15.044215,-0.0046170000000001,0.0125550000000001,-0.020487,0.0602487657788442,0.0075223690760957,2.492853805530086
76.19047619047619,0.6090477416758462,0.5733781616933737,-15.025175,-0.0065439999999998,0.011684999999999899,0.0020160000000000004,0.057840211411092,0.0074176493209758,2.501458208929248
77.19298245614034,0.6090480006827071,0.5733779199652722,-14.987604,0.0033019999999998988,0.0043949999999999,0.018835000000000098,0.0575958653158128,0.0037524578917877,2.5098708704567856
78.19548872180451,0.6090482626566279,0.573377675444644,-14.958185,0.003676999999999901,-0.0077769999999999,0.0288559999999999,0.0513650398861931,-0.0013788101090754,2.5188939259836234
79.19799498746866,0.6090485223616207,0.5733774281314891,-14.956417,0.0007310000000000007,-0.016914999999999798,0.004980000000000002,0.0457101731097314,-0.0033335788713091,2.529645101816031
80.20050125313283,0.6090487768306255,0.5733771787239389,-14.975111,0.0022770000000001,-0.0106380000000003,-0.014316,0.0499687764845976,-0.0024783675378319,2.5404314460328665
81.203007518797,0.6090490258891098,0.5733769303635864,-14.997655,0.003356999999999899,0.0019480000000001996,-0.0154479999999999,0.0595506340780465,-0.0002443460952792,2.550938415396335
82.20551378446115,0.6090492676172111,0.5733766800833716,-15.012587,-0.006117,0.007285,-0.0075570000000001,0.0625875069765166,0.0013788101090754,2.562230486217228
83.20802005012531,0.6090495035857261,0.5733764268360971,-15.01518,-0.005438999999999899,0.0045519999999999,-0.0027010000000000003,0.0627096800241562,0.0023212879051526,2.572999237515203
84.21052631578947,0.6090497381579775,0.5733761700981641,-15.007467,-0.0003659999999999011,0.005844999999999901,0.0061930000000001,0.0621162680784781,0.0019198621771938,2.582040130306996
85.21303258145363,0.6090499701122352,0.5733759105677043,-14.993135,3.199999999979955e-05,0.0017530000000002995,-9.500000000010021e-05,0.056304321669337,0.0013439035240356,2.5909936868230194
86.21553884711778,0.6090501999720975,0.5733756482447178,-14.972782,0.002759000000000001,0.000295999999999701,0.0062900000000001,0.0516093859814723,-0.0014486232791552,2.599929929672863
87.21804511278195,0.609050430181026,0.5733753829546715,-14.958652,0.004216000000000199,-0.0002819999999997009,0.0132069999999998,0.0471937029739266,-0.0046425758103048,2.6085865358699523
88.22055137844612,0.6090506589936908,0.5733751171410265,-14.96364,0.0055999999999998004,-0.004842000000000199,0.010901000000000098,0.0424115008234622,-0.005201081170943,2.618116120852304
89.22305764411027,0.6090508822213022,0.5733748492329863,-14.988857,-0.001605999999999999,-0.0181799999999999,-0.00929,0.044628068973495,-0.0021991148575128,2.629513120867826
90.22556390977444,0.6090510981185306,0.573374579405084,-15.019336,-0.0008649999999999006,-0.002702000000000003,-0.017019,0.0533023553559068,0.0008028514559175,2.63879822012856
91.2280701754386,0.6090513082561726,0.5733743087045169,-15.036902,-0.003950000000000101,0.010793999999999804,-0.017711,0.0512603201310734,0.0040491638646269,2.6457445432850344
92.23057644110276,0.6090515124596951,0.5733740348623573,-15.027526,-0.004894999999999899,0.0180150000000003,-0.008135999999999997,0.0527787565803085,0.0045727626402252,2.651765964111
93.23308270676692,0.6090517164886847,0.5733737589258026,-14.995606,-0.0010770000000001993,0.0101739999999996,0.015513999999999998,0.0494800842940392,0.0022165681500327,2.658764751864789
94.23558897243107,0.6090519215648718,0.5733734793240565,-14.959906,0.006150000000000299,0.0034720000000001004,0.02039,0.0439822971502571,-0.002129301687433,2.666025321553086
95.23809523809524,0.6090521301317174,0.5733731985005798,-14.945709,0.0110269999999997,-0.0089199999999997,0.024125,0.0362504885639222,-0.0053058009260626,2.6748044324103724
96.2406015037594,0.6090523357315032,0.5733729183752349,-14.966927,0.0024930000000002,-0.0253260000000002,0.004415999999999996,0.0371929663599991,-0.0053232542185825,2.686009411301592
97.24310776942356,0.6090525338263734,0.5733726387734885,-15.013855,-0.0031160000000001998,-0.022162,-0.025519000000000097,0.0445233492183753,-0.0010821041362363,2.697860214375925
98.24561403508773,0.6090527209256691,0.5733723588226766,-15.050742,-0.009382999999999699,0.0018499999999999975,-0.0353969999999999,0.0574911455606932,0.0037524578917877,2.708192476281269
99.24812030075188,0.6090529001709833,0.5733720757302719,-15.051548,-0.008904000000000101,0.030288000000000103,-0.014711999999999996,0.0563392282543769,0.0057072266540214,2.7158195127526064
100.25062656641605,0.6090530774964354,0.5733717882745442,-15.019038,-0.0019490000000002006,0.0277719999999998,0.018197999999999995,0.051382493178713,0.0041015237421866,2.7225391874524174
101.2531328320802,0.6090532581380129,0.5733714973281578,-14.98033,0.0050290000000002,-0.0012329999999999997,0.031505000000000005,0.0456578132321716,0.0006457718232379,2.7313529256420632
102.25563909774436,0.6090534410485186,0.573371202891113,-14.960149,0.009377000000000002,-0.0189249999999999,0.013457,0.0385019632989949,-0.0031590459461097,2.7410220671514045
103.25814536340852,0.6090536230863595,0.5733709082795353,-14.965228,0.013463999999999799,-0.014264999999999901,-0.0010550000000000004,0.0350985712576059,-0.004555309347705,2.751267254580366
104.26065162907268,0.6090537981428835,0.5733706161114185,-14.988136,0.0010030000000001002,-0.008315999999999997,-0.009263,0.0417133691226644,-0.0035953782591082,2.761547051888395
105.26315789473684,0.6090539641236954,0.5733703253395651,-15.018528,-0.011407000000000101,-0.006869000000000104,-0.010017,0.04923573819876,-0.0004363323129985,2.7727171416478664
106.265664160401,0.6090541220759927,0.5733700326478495,-15.040814,-0.0160759999999997,0.0007880000000001011,-0.020668000000000002,0.0557981761862587,0.00310668606855,2.783608135806652
107.26817042606515,0.6090542744432363,0.5733697361164096,-15.041935,-0.0021800000000000985,0.0183849999999999,-0.0032619999999999975,0.0509810674507543,0.0040840704496667,2.792596581454422
108.27067669172932,0.6090544248906179,0.5733694346980478,-15.021285,0.006072999999999797,0.0178570000000001,0.0030049999999999973,0.0474555023617258,0.0040840704496667,2.799682722937274
109.27318295739347,0.6090545753379993,0.5733691303126263,-14.987872,0.011623000000000301,0.0070669999999999,0.011592000000000002,0.0438601241026174,0.0022340214425526,2.806943292625571
110.27568922305764,0.6090547271816443,0.573368827323468,-14.960011,0.0103039999999996,-0.0076289999999999995,0.024399,0.0458672527424109,-0.0026703537555512,2.815216135826731
111.2781954887218,0.6090548788507564,0.5733685255560405,-14.960057,-0.0010459999999999003,-0.0171489999999999,0.016080999999999998,0.039392081217512,-0.0062831853071794,2.8252341512002537
112.28070175438596,0.609055024236683,0.5733682232650139,-14.989352,-0.0100079999999997,-0.0203350000000001,-0.014726,0.0440172037352969,-0.0046949356878647,2.8372945334111668
113.28320802005013,0.609055159674233,0.5733679197522571,-15.024031,-0.0110320000000001,-0.007540999999999999,-0.028478,0.0518711853692714,0.0004363323129985,2.8488659790854265
114.28571428571428,0.6090552874323342,0.5733676136215062,-15.03556,0.0027569999999999,0.017932000000000097,-0.023361,0.0567057473972957,0.0044854961776255,2.8575052716163363
115.28822055137844,0.6090554092563161,0.5733673050472945,-15.015229,0.010359,0.026426999999999902,0.008763,0.0533896218185065,0.0038571776469076,2.863579139586324
116.2907268170426,0.6090555331746929,0.5733669950768194,-14.984383,0.002369,0.0112409999999999,0.028656,0.0434237917896189,-0.0002094395102392,2.8692165181636806
117.29323308270676,0.6090556586638661,0.573366685629943,-14.968554,-0.0026279999999998,-0.0146489999999998,0.014884999999999999,0.0372104196525191,-0.0039269908169872,2.878065407284462
118.29573934837092,0.6090557817095783,0.5733663754849349,-14.973678,-0.0035950000000002993,-0.0214640000000001,-0.0015970000000000012,0.0397586003604308,-0.0048694686130641,2.88940994270267
119.29824561403508,0.6090559009155663,0.5733660646417952,-14.985687,0.0024210000000002996,-0.0022860000000000033,-0.021616,0.0474555023617258,-0.0019547687622336,2.9008418318499403
120.30075187969923,0.6090560117439738,0.5733657531005236,-14.991298,0.0040519999999997,0.008903000000000102,-0.0027549999999999003,0.0487295927156816,-0.000593411945678,2.9114534511553583
121.3032581453634,0.6090561166382619,0.5733654394648571,-14.992007,-0.0025639999999998,0.0033009999999999012,0.0036759999999999003,0.0479267412597642,-0.0009424777960769,2.9213843920524982
122.30576441102755,0.6090562176928255,0.5733651275745197,-14.991504,-0.0038560000000001,-0.0034059999999999993,0.0015910000000000002,0.0485725130830021,-0.0020420352248333,2.931175758969357
123.30827067669172,0.609056314733132,0.5733648120189909,-14.988008,-0.0016509999999999997,-0.001462999999999999,-0.002908,0.0482932604026831,-0.00307177948351,2.941054235269182
124.31077694235589,0.6090564077591811,0.5733644955907975,-14.98321,0.002295000000000099,0.0027470000000001,0.006818,0.0481710873550434,-0.0040317105721068,2.951543890966471
125.31328320802004,0.6090564986908351,0.573364177242742,-14.983092,0.002726,0.0043909999999998985,0.0035959999999998996,0.0466002910282485,-0.0044331363000655,2.961212753223132
126.3157894736842,0.609056585259166,0.5733638590692194,-14.989675,0.00223,-0.003765000000000001,-0.0015809999999999002,0.0450644012864935,-0.0041015237421866,2.9698872141384687
127.31829573934836,0.6090566676387067,0.5733635396739662,-14.99826,-0.00046500000000020006,-0.004317999999999999,-0.0071059999999999,0.0443488162931759,-0.0035779249665883,2.978997605941076
128.32080200501252,0.6090567447822597,0.5733632209768449,-15.002181,0.00010900000000020008,0.00011800000000000005,-0.0017340000000001,0.0434936049596987,-0.0033335788713091,2.98864945123753
129.32330827067668,0.609056818609687,0.5733629012325259,-15.004619,-0.0051899999999998996,0.005653999999999999,0.0041400000000000005,0.0445233492183753,-0.0031066860685498,2.999103956003683
130.32581453634086,0.6090568905172522,0.5733625799174107,-15.007869,0.0006539999999994996,0.000824000000000099,0.0011910000000000002,0.0463559449329694,-0.002740166925631,3.009453793374595
131.328320802005,0.6090569573633625,0.5733622584277623,-15.010957,0.0045680000000004,-0.004236000000000097,-0.001993,0.0460592389601303,-0.0025830872929515,3.019245160291453
132.33082706766916,0.6090570203697485,0.5733619362399824,-15.013878,0.0014270000000001,-0.0026159999999998997,0.001324,0.04309217923174,-0.0026529004630313,3.028163565876341
133.33333333333331,0.6090570779656138,0.5733616124814063,-15.019568,-0.0014370000000001998,0.0006589999999999999,0.002208,0.0463559449329693,-0.0009948376736366,3.0362446672058776
134.3358395989975,0.6090571303254915,0.5733612894209618,-15.026423,0.0011900000000003,0.0014780000000000001,-0.0039239999999999,0.0488692190558412,0.0015184364492351,3.044447732143544
135.33834586466165,0.6090571774493811,0.573360966884116,-15.032002,0.0018839999999994714,0.0012109999999998997,0.0006619999999999,0.0491833783212002,0.0027052603405912,3.052615646150074
136.3408521303258,0.6090572219552771,0.5733606431255397,-15.03491,-0.0035039999999994715,-0.0037679999999999,-0.004543,0.0491659250286802,0.0032812189937494,3.061604336143941
137.34335839598998,0.6090572608761194,0.5733603198905621,-15.026751,-0.0017460000000002,0.011245999999999898,-0.0089489999999999,0.0474729556542457,0.0032463124087094,3.0681666345051
138.34586466165413,0.609057299447896,0.5733599950847884,-15.007115,0.0019499999999999002,0.0172189999999999,0.009459999999999899,0.0431445391092998,0.0012915436464757,3.0741179978148896
139.34837092731829,0.6090573380196724,0.5733596699299487,-14.994117,0.0023170000000001002,-0.010662999999999801,0.019224,0.0333183354205717,-0.0005235987755982,3.0833509117309874
140.35087719298244,0.6090573732753233,0.5733593442515103,-15.002709,0.0005659999999996,-0.0317650000000001,0.006930999999999998,0.0373849525777185,-0.0006632251157578,3.0956730933297
141.35338345864662,0.6090574003279267,0.5733590190966706,-15.024377,-0.0014429999999996,-0.009865999999999896,-0.0197520000000001,0.0418006355852641,0.0017976891295541,3.106965425949981
142.35588972431077,0.609057418304818,0.5733586930691664,-15.03655,0.0035679999999999,0.022458,-0.0188869999999998,0.0479267412597642,0.0050614548307836,3.11399884103613
143.35839598997492,0.6090574319183861,0.5733583680888598,-15.030987,0.0026839999999999,0.019584999999999998,0.004380999999999901,0.0424289541159821,0.0052883476335428,3.119671370544622
144.36090225563908,0.6090574429139605,0.5733580443302835,-15.021053,-0.0044989999999995,-0.005926,0.0134529999999999,0.0424289541159821,0.0032114058236696,3.126565508356462
145.36340852130326,0.6090574546076664,0.5733577198735755,-15.01059,-0.0052520000000005,-0.005969000000000101,-0.0051629999999998,0.0471937029739266,0.0033161255787892,3.134663644099498
146.3659147869674,0.6090574640324444,0.5733573940206043,-14.994364,0.00019700000000000013,0.012923000000000101,0.00029099999999989985,0.0488168591782814,0.0025830872929517,-3.141086385933668
147.36842105263156,0.6090574720609591,0.5733570658987047,-14.985476,0.0040810000000003,-0.0026600000000001,0.021061,0.0454832803069722,0.0004363323129985,-3.133180253861643
148.37092731829574,0.6090574767733479,0.5733567379513383,-14.99571,0.004576999999999699,-0.025070000000000002,0.001124,0.0459719724975306,-0.0002268928027591,-3.1221148314974143
149.3734335839599,0.6090574734572224,0.5733564114002353,-15.013757,0.0019260000000001004,-0.006196,-0.0216389999999999,0.0473158760215662,0.0018675022996339,-3.112114129790072
150.37593984962405,0.6090574629852469,0.5733560864199285,-15.022071,-4.399999999999977e-05,0.010774000000000103,-0.0100310000000001,0.0533198086484267,0.0044854961776255,-3.103282816134858
151.3784461152882,0.6090574458810202,0.5733557623122865,-15.016386,-0.0034960000000001006,0.015007,0.00016800000000010036,0.0487470460082016,0.0052185344634632,-3.096022246446561
152.38095238095238,0.6090574268569313,0.5733554380301115,-15.000909,-0.005815,0.0040279999999999,0.0079499999999999,0.0468969970010876,0.0034033920413889,-3.088499877370466
153.38345864661653,0.6090574078328425,0.5733551137479365,-14.981337,-0.0017569999999996,0.005186000000000099,0.0031810000000000002,0.0494975375865591,0.0010646508437166,-3.079912770184192
154.38596491228068,0.6090573898559511,0.573354788244031,-14.96936,0.0051269999999999,-0.004131000000000099,0.019759,0.0449073216538141,-0.0015882496193146,-3.069964271274776
155.3884711779449,0.6090573685629344,0.5733544625655924,-14.981478,0.0055919999999995,-0.021435,0.006563000000000003,0.0392699081698724,-0.0013264502315155,-3.057537701533502
156.39097744360902,0.6090573395904687,0.5733541365380882,-15.009064,0.0025030000000003,-0.0187479999999999,-0.019994,0.0432318055718995,0.0005235987755982,-3.0453028736638514
157.39348370927317,0.6090573020658898,0.5733538134776436,-15.025481,-0.0026580000000002,0.011345000000000001,-0.028476,0.0543844594921433,0.0038571776469076,-3.035319747422077
158.39598997493732,0.6090572563382634,0.5733534912898637,-15.013199,-0.0009199999999997999,0.0260219999999999,-0.001055999999999998,0.0541401133968641,0.0054628805587422,-3.027325999821602
159.3984962406015,0.6090572072945114,0.5733531703238144,-14.986547,-0.0043109999999999,0.0099510000000001,0.024588,0.048624872960562,0.001850049007114,-3.019367403152263
160.40100250626566,0.60905715947249,0.5733528484851003,-14.974515,-0.0011510000000001,-0.0122640000000001,0.024845,0.0431968989868596,-0.0021118483949131,-3.009680686177355
161.4035087719298,0.6090571095560733,0.5733525259482545,-14.982314,0.0009740000000002,-0.017215,-0.014006,0.0392873614623923,-0.0017802358370342,-2.998632839278693
162.406015037594,0.6090570535310044,0.5733522021896782,-14.989812,0.0077549999999999,0.002077000000000103,-0.019171,0.0490612052735605,0.0011519173063163,-2.989208166037679
163.40852130325814,0.6090569917463488,0.5733518803509642,-14.989118,0.0014869999999996006,0.0101369999999999,0.006954,0.0483630735727628,0.0004363323129985,-2.9811443958276147
164.4110275689223,0.6090569247257056,0.5733515604321123,-14.991231,-0.0044109999999998005,-0.0008129999999999006,0.007795,0.0492531914912799,-0.0011519173063161,-2.973081131763033
165.41353383458645,0.6090568528181404,0.5733512410368592,-14.997352,0.0012170000000001,-0.004702999999999999,-0.0033970000000001005,0.0441219234904166,-0.0004014257279585,-2.964249556308432
166.41604010025063,0.6090567782925812,0.5733509223397377,-14.999096,-0.0009699999999997003,0.0010649999999998994,-0.0138699999999998,0.0517315590291119,0.0002792526803192,-2.95562783924309
167.41854636591478,0.6090567002763636,0.5733506043407481,-14.987685,-0.007107000000000301,0.0156,-0.0017459999999999993,0.0503527489200364,-0.0009424777960769,-2.948925740008846
168.42105263157893,0.6090566224346791,0.5733502845964291,-14.968793,0.0011040000000002,0.0121279999999999,0.0164959999999998,0.0473682358991261,-0.0031241393610697,-2.941944527720624
169.4235588972431,0.6090565416259347,0.5733499658993078,-14.967911,0.0050139999999995,-0.0235969999999999,0.0240500000000001,0.0413468499797456,-0.0050440015382635,-2.930948866166598
170.42606516290726,0.609056456977466,0.5733496466785875,-14.991302,0.005949000000000201,-0.029868999999999903,-0.012285999999999998,0.04307472593922,-0.0026354471705114,-2.9183126998354507
171.42857142857142,0.6090563634278181,0.5733493309485258,-15.011299,0.00048299999999999906,0.009010999999999901,-0.034139,0.0537386876689054,0.0012915436464757,-2.907770841340235
172.43107769423557,0.6090562635949849,0.5733490167892604,-15.004199,-0.0027819999999997994,0.036926000000000105,-0.005621000000000001,0.0482059939400833,0.0026005405854716,-2.9016274569061404
173.43358395989975,0.6090561625404212,0.5733487033281268,-14.985201,-0.0042630000000002,0.008242999999999799,0.028187,0.0411374104695063,-0.0009599310885968,-2.8949429156841724
174.4360902255639,0.6090560630566538,0.5733483898669931,-14.979536,-0.0005669999999999,-0.0253619999999999,0.011628,0.0368788070946401,-0.0036128315516281,-2.884523300049766
175.43859649122803,0.6090559590350304,0.5733480772785241,-14.98228,0.0031289999999999,-0.008605999999999898,-0.01268,0.0380307244009564,-0.0029496064358702,-2.873946569876096
176.44110275689223,0.6090558501264851,0.573347764690055,-14.98565,-0.0025169999999999,0.006281999999999899,-0.005279,0.0437903109325377,-0.0017453292519942,-2.8645040593701263
177.4436090225564,0.6090557354583532,0.5733474531487835,-14.987802,0.0020519999999999996,0.004444,0.005107,0.0465653844432087,-0.0018849555921538,-2.854869806992532
178.44611528822054,0.6090556160778324,0.5733471426547097,-14.993064,0.0047339999999999995,-0.0029509999999999016,0.0041629999999999,0.0437204977624579,-0.0029146998508304,-2.8452009272825785
179.4486215538847,0.6090554937302518,0.5733468330333004,-15.005169,0.0019590000000000007,-0.005533000000000097,-0.0007599999999999005,0.0395317075576715,-0.0021991148575128,-2.8353573575677933
180.45112781954887,0.6090553664957493,0.5733465256808191,-15.016531,-0.0047469999999999995,0.0043219999999999995,-0.014653,0.0391826417072727,-8.726646259971105e-05,-2.825635751461137
181.45363408521305,0.6090552371668518,0.5733462200736671,-15.013551,-0.00019900000000010014,0.0134990000000001,-0.005901999999999999,0.0454483737219323,0.001239183768916,-2.817275554530915
182.4561403508772,0.6090551067907567,0.5733459144665151,-15.002217,-0.0017400000000001,0.0010439999999999998,0.014276,0.0465828377357286,0.0001745329251994,-2.8084093691972454
183.45864661654133,0.609054972924003,0.5733456100810935,-14.99545,0.0004990000000002996,-0.012602000000000101,0.010214999999999998,0.0418180888777841,-0.0012915436464757,-2.797710378709473
184.4611528822055,0.6090548338212617,0.5733453063938035,-14.998221,0.0018919999999998,-0.0110769999999999,-0.0031220000000000995,0.0401076662108296,-0.001483529864195,-2.7852137689053165
185.4636591478697,0.6090546891334666,0.5733450048009089,-15.005295,0.0046890000000001,-0.001216000000000099,-0.0045909999999999,0.0422195146057428,-0.0011170107212763,-2.773485208691792
186.46616541353384,0.6090545378134204,0.5733447044297446,-15.011553,0.0010670000000000002,0.0055109999999999985,-0.0041199999999999,0.0412770368096658,0.0,-2.7630309657250263
187.468671679198,0.6090543795120573,0.5733444066765743,-15.012162,-0.0015300000000001007,0.0060670000000001,-0.0047530000000001,0.0466875574908483,0.0013613568165555,-2.754094722875182
188.4711779448621,0.6090542196398978,0.5733441103196671,-15.008416,-0.0049619999999999,0.0097509999999999,0.0080439999999999,0.0470017167562073,0.0009075712110371,-2.746956116795015
189.4736842105263,0.6090540590696067,0.5733438144863591,-15.008419,-0.0019840000000002,0.0021550000000000995,0.001971,0.0427431133813411,0.0,-2.739835365433096
190.47619047619045,0.6090538962303874,0.5733435214455775,-15.010601,0.0047320000000002,-0.004992000000000099,-0.0033219999999998,0.0371580597749592,-0.000279252680319,-2.731300722844136
191.47869674185463,0.609053729376911,0.5733432285793292,-15.010828,0.001933999999999901,-0.0051919999999999,0.0004319999999999,0.0382576172037156,0.0002443460952792,-2.7220854018468987
192.4812030075188,0.6090535585091772,0.5733429360621465,-15.011496,-0.006280999999999801,-0.0001680000000001021,0.001507,0.0465479311506887,0.0013962634015955,-2.7137600940484234
193.4837092731829,0.6090533843253179,0.5733426444176284,-15.013573,-0.0014660000000001998,0.0007630000000001004,-0.0014190000000000001,0.0450993078715334,0.0020594885173532,-2.7058885718554664
194.48621553884712,0.6090532071743988,0.5733423555656373,-15.015601,0.006212000000000099,0.003381000000000002,4.100000000000024e-05,0.0437903109325377,0.0027227136331111,-2.698348906566484
195.48872180451127,0.6090530258346895,0.5733420672372448,-15.015674,0.0044169999999999,0.0011179999999998986,-0.005161,0.0436681378848981,0.0028448866807508,-2.691070743959327
196.49122807017545,0.6090528436223156,0.5733417815268462,-15.009335,-0.0034810000000001003,0.0022870000000000997,-0.0034129999999999005,0.035395277230445,0.0025656340004316,-2.683181943006775
197.4937343358396,0.6090526594900795,0.5733414973872442,-14.993345,-0.006744999999999699,0.0094459999999999,0.0008869999999999,0.034138640169009,0.0016580627893947,-2.6737918970981207
198.49624060150376,0.609052474136113,0.5733412141203065,-14.979979,-0.0026620000000002002,0.0010700000000000002,0.022173,0.0395317075576715,-0.0012915436464757,-2.66318053959209
199.4987468671679,0.6090522865132183,0.5733409299807042,-14.991058,0.008095,-0.031667999999999905,0.013423,0.0354476371080048,-0.0026179938779913,-2.6487291610257
200.5012531328321,0.6090520922580727,0.5733406486336289,-15.018231,0.009210000000000102,-0.020469000000000098,-0.0319349999999999,0.0388510291493937,0.0019373154697137,-2.634208004195814
201.50375939849624,0.6090518911961428,0.5733403709517448,-15.01881,0.058598,0.0617459999999998,-0.036119000000000095,0.0198443935951755,0.0072605696882965,-2.6268251916467085
202.5062656641604,0.6090516951956678,0.5733401117703509,-14.986061,0.0358279999999999,0.0595030000000003,0.020797000000000097,-0.0222005880853678,0.0108559479474048,-2.6208738283369177
203.5087719298245,0.6090515110634317,0.5733398698677166,-14.951804,-0.026096999999999995,-0.007875000000000201,0.031232999999999803,-0.008901179185171,0.0118158790360016,-2.615183985162246
204.5112781954887,0.6090513435118234,0.5733396464655723,-14.937941,-0.014783999999999894,-0.020844,0.0099300000000001,-0.0015882496193148,0.0115017197706426,-2.609633681061271
205.51378446115288,0.6090511832905982,0.5733394338844694,-14.938585,-0.0034320000000001016,-0.022376999999999897,-0.016772000000000002,-0.0157254165604689,0.0080110612666539,-2.6058290901847267
206.51629072681703,0.6090510248147021,0.5733392305536116,-14.938973,0.00031799999999999884,0.0069289999999999005,-0.007693,-0.0142767932813136,0.0005061454830783,-2.605863979316473
207.5187969924812,0.6090508696549316,0.5733390385673939,-14.934094,0.002090000000000203,0.010561000000000098,-0.00041200000000000004,-0.0115366263556825,-0.0040840704496667,-2.606300206909718
208.5213032581453,0.6090507206038135,0.5733388570531516,-14.932056,-0.012615000000000105,0.007876999999999898,0.012298,-0.0173136661797837,-0.0085521133347721,-2.6067888991002754
209.52380952380952,0.6090505790576111,0.5733386828692922,-14.940976,-0.012711000000000104,-0.005046999999999899,0.000194999999999999,-0.0112224670903235,-0.0105592419745657,-2.6068586773637707
210.52631578947367,0.6090504439691271,0.5733385149686182,-14.957758,-0.006431000000000096,-0.011067999999999998,-0.004846,-0.0095644043009289,-0.0111177473352037,-2.6062828932435376
211.52882205513785,0.6090503142911636,0.57333835457286,-14.984557,0.045591000000000305,0.0272389999999999,0.0075909999999999,0.0369311669722,0.0311890337331386,-2.6078360442915947
212.531328320802,0.6090501970050378,0.5733382090124004,-14.975635,0.005577999999999889,0.013511000000000106,-0.1064879999999999,0.0407010781565077,0.1617047377439822,-2.590819241164283
213.53383458646616,0.6090500877474266,0.5733380795089699,-14.858867,0.029517,-0.03545000000000001,-0.009491,0.1588598510632313,0.2506816404639456,-2.5045474766118634
214.5363408521303,0.6090499823295399,0.5733379711240233,-14.666712,0.0016779999999999018,-0.0848389999999999,0.0546700000000001,0.031066860685499,0.2814866668550606,-2.396354429014272
215.5388471177945,0.6090498779588506,0.5733378756545132,-14.44114,-0.045550999999999994,0.026037999999999898,0.029395999999999905,-0.0078016217564146,0.2956064154102797,-2.343279228260512
216.54135338345864,0.6090497618944554,0.5733377918787091,-14.201303,-0.03756099999999991,0.041349,0.007899999999999999,-0.0009599310885968,0.3102671811270321,-2.321183237757217
217.5438596491228,0.6090496384996772,0.5733377147351562,-13.9554,-0.010351999999999997,0.006494999999999999,0.009066,-0.0087964594300513,0.3270398126919902,-2.311863249364736
218.5463659147869,0.6090495191191564,0.5733376400350642,-13.709497,0.011585999999999898,-0.008652999999999997,0.0027389999999999984,-0.0123918376891597,0.3446850914296526,-2.306156092523885
219.5488721804512,0.6090494006113002,0.5733375677784331,-13.446286,-0.037989,-0.055459,-0.0473939999999999,0.0111701072127637,0.336865981474133,-2.298214809520726
220.55137844611528,0.6090492707588038,0.573337493427407,-13.139235,-0.0388459999999998,-0.018320000000000003,0.0352589999999999,0.1037598240310629,0.2425832952813993,-2.303328606775777
221.55388471177943,0.6090491267691405,0.5733374045901481,-12.858501,-0.0541110000000001,-0.002131999999999898,0.077706,0.0046600291028248,0.1333082482673269,-2.3144984347358606
222.5563909774436,0.609048973878298,0.5733373051063808,-12.653564,0.011153000000000107,0.0183679999999999,0.011998999999999996,0.0119031454986013,0.0646993553714299,-2.31449843473586
223.55889724310777,0.6090488052794923,0.5733371911363807,-12.521171,0.026138999999999996,-3.899999999999737e-05,-0.009187,0.028291787174828,0.0274540291338709,-2.312840616292561
224.56140350877192,0.6090486296993696,0.5733370649490757,-12.4562,0.016965999999999905,-0.0144919999999999,-0.0034089999999999954,0.0233001455141243,0.0077841684638948,-2.311793471101242
225.56390977443607,0.6090484401566129,0.5733369331767172,-12.449658,-0.006944000000000006,-0.008698000000000004,-0.03713,0.0982794901798007,0.0725358837128844,-2.310327394529567
226.56641604010025,0.6090482387456171,0.5733367984372989,-12.356633,0.018334000000000003,0.017232999999999804,-0.2275949999999999,0.2058615852727311,0.2225120263367572,-2.2540753105647418
227.5689223057644,0.6090480214521252,0.5733366668394734,-12.049653,0.123555,-0.0386399999999998,0.017110999999999904,0.2672797041971191,0.2689726910248462,-2.091794788700527
228.57142857142856,0.6090477905450652,0.5733365512986769,-11.645205,0.082497,-0.030900999999999998,0.1540780000000001,0.0735307213865211,0.2704911274740813,-1.9119208941906027
229.5739348370927,0.609047557718143,0.5733364661266093,-11.232907,0.057389999999999886,0.0584849999999999,0.0308459999999999,0.0709999939711292,0.2846283118685278,-1.7141580206195617
230.5764411027569,0.6090473037727369,0.5733364338380181,-10.8316,0.05780800000000008,0.0204930000000001,0.01282,0.0931482221789373,0.2889567109601811,-1.4994821910117004
231.57894736842104,0.6090470456385405,0.57333644588079,-10.439916,0.025687000000000015,0.0323289999999998,-0.016472,0.0753284105160752,0.2910336353167619,-1.2940741819049786
232.5814536340852,0.6090467787776979,0.57333651569396,-10.015219,-0.008790999999999993,-0.022429999999999697,-0.061084999999999896,0.0508588944031147,0.2987828971956168,-1.1724950174499504
233.58395989974937,0.6090465047610053,0.5733366286167627,-9.512777,-0.117902,0.0035439999999996967,-0.0166140000000001,0.047385689191646,0.3052406328812882,-1.1396827402459948
234.58646616541355,0.6090462227157981,0.5733367823802697,-8.962412,-0.09741800000000009,-0.0254449999999997,0.057433,-0.0100880030765272,0.3036000059311212,-1.1397173675783547
235.58897243107768,0.609045931245813,0.5733369504554767,-8.396031,-0.044489,-0.013358000000000196,-0.00032599999999990276,0.0095818575934489,0.3046821449739427,-1.1427544324630423
236.59147869674183,0.6090456247659964,0.5733371187052166,-7.808831,0.011991000000000099,-0.010372999999999896,0.0007749999999999008,0.0043109632524259,0.3066892736137361,-1.1392635645195432
237.593984962406,0.6090452992620909,0.57333728835122,-7.19205,-0.008176999999999997,0.0014079999999997983,-0.017093999999999897,0.0044505895925855,0.2926219198426618,-1.132457059689446
238.59649122807016,0.6090449627626112,0.5733374660257378,-6.56503,0.015886999999999797,0.0461810000000003,0.0807219999999999,0.0160570291183478,0.2406110906799383,-1.122944770919982
239.59899749373432,0.609044617885551,0.5733376536486324,-6.032522,-0.0187209999999998,-0.0499820000000002,0.0725029999999999,-0.0067020643276582,0.1781806633361011,-1.1218102719996
240.6015037593985,0.6090442630601139,0.5733378466820477,-5.564856,0.008451999999999904,0.036086,-0.077761,-0.0167900674041854,0.1305855346342159,-1.1169233675473091
241.60401002506265,0.6090439063148149,0.5733380543762286,-5.197292,-0.012030999999999903,0.028739000000000098,0.1340630000000001,0.0056374134839416,0.076637407455071,-1.107830271957588
242.6065162907268,0.6090435370031452,0.5733382618958767,-4.970083,-0.0551180000000001,-0.020594,-0.08572900000000001,-0.0186401164112994,0.046774823953448,-1.105544222250033
243.60902255639093,0.6090431678660083,0.5733384718589857,-4.808258,0.045984000000000205,0.0221399999999998,-0.02256699999999999,-0.0065449846949787,0.0210486707790515,-1.106486438246722
244.6115288220552,0.609042790700357,0.5733386856618191,-4.693729,-0.0200310000000002,-0.0462409999999997,-0.05089600000000011,-0.0195302343298165,0.0094945911308492,-1.1109546905713388
245.6140350877193,0.6090424093459155,0.5733389060969037,-4.591626,0.029465000000000102,0.0634489999999995,0.05784800000000011,-0.0142942465738335,-0.0058293997016609,-1.103955379218773
246.61654135338344,0.6090420225809532,0.5733391349095686,-4.621597,-0.039557000000000106,-0.0378819999999996,0.05211999999999989,-0.0172962128872638,-0.0125489173218391,-1.096921964132624
247.6190476190476,0.6090416267402788,0.5733393551701201,-4.662207,-0.061671999999999796,-0.010624000000000001,-0.2207599999999998,-0.0286408530252269,-0.0093724180832095,-1.1002035147389304
248.62155388471177,0.6090412342157301,0.5733395759542705,-4.582339,0.0965059999999999,0.1177450000000001,0.051564999999999896,-0.0034906585039886,-0.0227940000310458,-1.1025944936411158
249.62406015037595,0.6090408521631568,0.573339801101744,-4.601455,-0.008851000000000199,-0.0677090000000002,0.22741999999999998,-0.0213279234593707,-0.0324980306721343,-1.1026813237714026
250.62656641604008,0.6090404657472605,0.5733400290417443,-4.734326,-0.0640669999999996,-0.09633299999999989,-0.1775010000000001,-0.0265464579228337,-0.0166504410640258,-1.0964505856082456
251.62907268170423,0.6090400664159276,0.5733402552364154,-4.768679,0.0020849999999997017,0.06617499999999979,-0.15596499999999988,-0.0080808744367337,-0.0094596845458092,-1.0996623579510578
252.6315789473684,0.6090396628958046,0.5733404775913621,-4.70722,0.087298,0.1120350000000001,0.170963,-0.0122173047639603,-0.0255167136641569,-1.097568050115126
253.63408521303256,0.609039269847657,0.5733407093710867,-4.782229,-0.0576539999999999,-0.1241760000000002,0.155765,-0.0200538331054148,-0.0308574211752596,-1.0960489853473618
254.63659147869672,0.6090388710399229,0.5733409406272126,-4.879511,-0.023877000000000002,-0.019796999999999704,-0.30668399999999996,-0.0208915911463721,-0.0078016217564145,-1.0941123331027631
255.6390977443609,0.6090384713595243,0.5733411720578715,-4.880251,-0.0025789999999998973,0.0818579999999999,0.12833,-0.0044854961776254,-0.018151424220741,-1.1014072683240317
256.64160401002505,0.6090380629524792,0.57334139511095,-4.88517,0.0302549999999998,-0.0081410000000001,-0.0038580000000000003,-0.0262322986574747,-0.0127758101245984,-1.1004650348740503
257.64411027568923,0.6090376711260621,0.5733416246217465,-4.923063,0.008914000000000099,0.006391000000000202,0.08085300000000001,-0.0090058989402907,-0.0166853476490658,-1.0938502719155765
258.6466165413533,0.6090372745872561,0.5733418529108126,-5.009545,-0.001929000000000099,-0.0535930000000001,-0.069954,-0.0194778744522567,-0.0081855941918533,-1.0927855512586897
259.64912280701753,0.6090368701944684,0.5733420838178727,-5.048783,-0.0311089999999999,-0.038695999999999904,-0.09980800000000001,-0.017540558982543,0.0033161255787892,-1.0983877614516182
260.6516290726817,0.6090364558533039,0.5733423142013341,-4.960792,0.0280349999999999,0.10716799999999971,-0.0010459999999999914,-0.0072605696882964,0.0011519173063163,-1.0958748014880115
261.65413533834584,0.6090360528567796,0.5733425482499866,-4.913818,-0.0134969999999997,0.03169300000000019,0.262236,-0.0094247779607693,-0.0201934594455743,-1.0902028130315888
262.65664160401,0.6090356542235785,0.5733427726993285,-5.003369,-0.037137000000000205,-0.0812669999999999,-0.111089,-0.0207519648062125,-0.0127932634171183,-1.0920526351458997
263.65914786967414,0.6090352599537004,0.5733429997666641,-5.083409,0.070857,-0.0444909999999999,-0.10022700000000001,-0.0084648468721724,-0.0021991148575128,-1.10210553965117
264.6616541353383,0.6090348456125362,0.5733432277066645,-5.078588,-0.0228610000000002,-0.0007570000000001048,-0.072256,-0.022444934180647,0.0143466064513935,-1.100290327415925
265.6641604010025,0.6090344356346947,0.5733434629770476,-4.990105,-0.00040799999999979915,0.1617379999999996,0.13184,0.0145560459616327,-0.0021118483949131,-1.0843033732670455
266.66666666666663,0.6090340277512486,0.5733436930114431,-4.991946,-0.046269000000000005,-0.1195339999999997,0.064503,-0.0201760061530544,-0.0100530964914873,-1.093902474713503
267.6691729323308,0.6090336282453829,0.5733439178098507,-4.976855,0.064448,0.025199000000000103,-0.1178499999999999,-0.011693705988362,-0.0041015237421866,-1.0969043886670555
268.671679197995,0.6090332341500377,0.5733441511603717,-5.019785,-0.037378,-0.0360210000000002,0.15510699999999988,-0.0102276294166867,-0.008569566627292,-1.0951419028285143
269.6741854636591,0.6090328229504659,0.5733443810202342,-5.067635,0.0187610000000001,-0.004820999999999697,-0.224796,-0.0256388867117967,0.0099483767363677,-1.089957803711193
270.6766917293233,0.6090324192558099,0.5733446162906174,-5.023044,0.018342999999999797,0.0806779999999997,0.09478,0.0072431163957764,-0.0015184364492351,-1.088876013734222
271.6791979949875,0.6090320104996991,0.5733448484194079,-5.011846,-0.057896999999999796,-0.0668519999999998,0.053273,-0.0247836753783194,-0.0050614548307834,-1.0927855512586897
272.6817042606516,0.6090316075031749,0.5733450808972643,-4.989204,0.0194919999999999,0.018571,-0.089713,-0.0088488193076112,-0.0008028514559172,-1.0933437424600625
273.6842105263158,0.6090312093935725,0.5733453105825937,-4.963224,0.014479999999999901,0.0423979999999999,0.130569,-0.0001745329251994,-0.0115889862332423,-1.0930300195270164
274.68671679198,0.6090308063970482,0.5733455392207258,-5.031429,0.028457000000000197,-0.0870480000000001,-0.025367000000000098,-0.0140848070635942,-0.0050265482457436,-1.0915988320870893
275.6892230576441,0.6090303999098654,0.573345776760037,-5.072639,-0.009985000000000098,-0.004427999999999897,-0.13523999999999992,-0.0100181899064474,0.0102101761241668,-1.0897665854383451
276.69172932330827,0.609029985394168,0.5733460111577555,-5.028586,-0.06429499999999991,0.0792830000000001,0.014175000000000007,-0.0003490658503988,0.0050963614158234,-1.088300247067282
277.6942355889724,0.6090295776852548,0.5733462420648157,-4.957399,0.0139989999999998,0.030432999999999998,0.092864,-0.0059515727493006,-0.0101578162466069,-1.0913192128876263
278.69674185463657,0.6090291806228499,0.5733464696557501,-4.948564,0.065522,-0.0595160000000004,0.059611000000000004,-0.0146084058391925,-0.0135612082879958,-1.095263883889937
279.69924812030075,0.6090287853057744,0.5733467035298698,-5.033612,-0.0172429999999999,-0.0744919999999997,-0.015312000000000006,-0.0109606677025243,-0.0052883476335428,-1.0900978838369588
280.7017543859649,0.6090283713136758,0.5733469368803907,-5.072793,-0.048914,0.0308480000000002,-0.21470499999999998,-0.0116064395257622,0.0100880030765273,-1.0888414038551553
281.70426065162906,0.609027955750781,0.5733471695327801,-4.993303,0.040057999999999996,0.11792699999999981,0.1223890000000001,-0.0038048177693476,-0.001169370598836,-1.093116832204011
282.70676691729324,0.609027547169203,0.573347398519978,-4.985246,-0.033470999999999904,-0.0683270000000004,0.1176119999999999,-0.0168598805742652,-0.0079237948040542,-1.0942689240432524
283.70927318295736,0.6090271501067982,0.573347629427038,-5.002102,0.0462629999999999,0.0048370000000006,-0.117364,0.0008726646259971,-0.0041887902047863,-1.088265096136147
284.71177944862154,0.60902675164813,0.573347865046487,-5.010839,0.0012069999999998991,-0.040422000000000305,0.0300339999999999,-0.0111701072127637,-0.00307177948351,-1.0894523389065232
285.7142857142857,0.6090263428920192,0.5733480982224751,-5.008199,-0.0553009999999999,0.014257000000000202,-0.0366519999999999,-0.0112224670903235,-0.0001570796326795,-1.088405176261912
286.71679197994985,0.6090259353576387,0.5733483331437924,-4.995278,0.03307,0.0187699999999998,0.058895,-0.0048694686130641,-0.006702064327658,-1.0917905914120054
287.719298245614,0.6090255232854024,0.5733485640508524,-5.021197,-0.0011000000000001,-0.030358,-0.0172230000000001,-0.0127409035395586,0.0008377580409573,-1.093902474713503
288.7218045112781,0.6090251155764891,0.5733487954815112,-5.015475,-0.0047839999999998006,0.0719490000000004,-0.0435669999999999,8.726646259971648e-05,8.726646259971105e-05,-1.0895567270490851
289.72431077694233,0.6090247113582343,0.5733490276103018,-5.022035,-0.0112810000000001,-0.0492800000000003,0.047666,-0.0081681408993334,-0.0019896753472734,-1.0918955206066352
290.7268170426065,0.609024308536243,0.573349255724835,-5.008071,0.031695999999999905,-0.0021300000000002,-0.035054,-0.006771877497738,0.0005410520681183,-1.0917383886140783
291.72932330827064,0.6090239037943895,0.5733494909952181,-5.003889,-0.0009499999999998017,-0.0247089999999997,0.029046000000000002,-0.0060737457969402,-0.0016580627893945,-1.0898182471842042
292.7318295739348,0.6090234946892128,0.5733497253929367,-4.97375,-0.021068000000000198,0.056381,-0.03565,-0.0054279739737023,-0.0023736477827123,-1.0867295205536571
293.734335839599,0.6090230904709582,0.5733499599651881,-4.987429,-0.0340019999999999,-0.0296350000000002,0.10544500000000001,-0.0022514747350726,-0.0111352006277236,-1.091808166877573
294.7368421052631,0.6090226813657814,0.5733501882542543,-4.996428,0.06269200000000011,-0.0099269999999998,-0.16875800000000002,-0.0102101761241668,0.0019373154697137,-1.093780493652082
295.7393483709273,0.6090222837797779,0.5733504249209009,-4.979052,0.020264999999999797,0.0484820000000002,0.174697,0.0014486232791552,-0.0073303828583761,-1.0900451574402563
296.7418546365915,0.609021875023667,0.5733506591440866,-5.064186,-0.08167999999999989,-0.0920620000000006,-0.043959000000000005,-0.0161093889959076,-0.0003316125578789,-1.0863454783050488
297.7443609022556,0.609021464347694,0.5733508947635356,-5.068879,0.016452000000000102,0.0376950000000007,-0.20783100000000002,0.0010297442586766,0.0122871179340402,-1.0921746162073218
298.7468671679198,0.6090210540207868,0.5733511230526017,-4.952689,0.04085,0.1019479999999996,0.1468160000000001,-0.0014835298641951,-0.0038920842319472,-1.0968697613346965
299.749373433584,0.6090206571329149,0.5733513572757873,-4.914637,0.0068109999999999005,-0.038777000000000096,0.1514279999999999,0.0011693705988362,-0.016563174601426,-1.0896089298470133
300.7518796992481,0.6090202686226234,0.5733515941169668,-4.994764,-0.052467,-0.0969830000000002,-0.053054000000000004,-0.0120078652537209,-0.0088313660150911,-1.0859263025785968
301.7543859649123,0.6090198631826382,0.5733518257221586,-5.100661,0.013307999999999902,-0.05291899999999971,-0.116974,-0.0116238928182822,0.0063355451847395,-1.091860893274275
302.7568922305764,0.6090194362751032,0.5733520561056199,-5.074657,0.0193580000000001,0.0877050000000002,-0.156671,-0.0050789081233034,0.0198094870101357,-1.0946529488385688
303.7593984962406,0.6090190175706156,0.5733522901542726,-4.916107,0.006829000000000001,0.1588829999999998,0.1911420000000001,0.002146754979953,-0.0047298422729045,-1.0917554404808698
304.7619047619048,0.6090186212063424,0.5733525259482545,-4.882834,0.0031610000000000006,-0.0985939999999999,0.1929369999999998,-0.0068067840827778,-0.0216769893097694,-1.090167121048385
305.7644110275689,0.6090182351395119,0.5733527620913023,-5.004896,-0.0373879999999999,-0.1187790000000003,-0.0963569999999999,-0.0173311194723036,-0.0104545222194458,-1.086502610297605
306.76691729323306,0.6090178331901852,0.5733529942200928,-5.103297,-0.008434000000000101,-0.005782999999999705,-0.24247400000000002,-0.0040840704496667,0.0111526539202437,-1.0904467577011403
307.76942355889724,0.609017413613033,0.5733532228582248,-5.020204,0.0486509999999999,0.117947,0.015603000000000006,0.0017104226669544,0.0093026049131297,-1.0978295702502463
308.77192982456137,0.6090170034606588,0.5733534563832787,-4.919998,0.011115,0.061297999999999804,0.239589,0.0037350045992678,-0.0111875605052835,-1.0902544747774463
309.77443609022555,0.609016608667182,0.5733536933989912,-4.984103,-0.059001,-0.153703,0.029052999999999995,-0.0176801853227025,-0.0138579142608348,-1.088003576001028
310.77694235588973,0.6090162016564005,0.5733539237824524,-5.012853,0.015606000000000298,-1.9999999998979168e-06,-0.308,-0.0043633231299858,0.0075572756611355,-1.0938326964500078
311.77944862155385,0.6090157962164152,0.5733541583547038,-4.950242,0.0358799999999998,0.1163590000000001,0.224615,0.0094073246682494,-0.0086393797973718,-1.0921048379438263
312.78195488721803,0.6090153837951129,0.5733543892617639,-4.98993,-0.045867999999999895,-0.0879419999999999,0.030669000000000002,-0.0143815130364332,-0.0078190750489346,-1.0905516868957703
313.7844611528822,0.6090149771333973,0.5733546213905544,-5.039166,0.0381149999999998,0.005318999999999598,-0.134295,0.0033510321638291,0.0010471975511967,-1.0925064382047105
314.78696741854634,0.6090145682027536,0.5733548566609376,-5.007717,0.014916000000000101,0.0641090000000001,-0.030477999999999998,-0.0030892327760299,0.0034732052114687,-1.091581256621521
315.7894736842105,0.6090141652062292,0.5733550933275843,-4.963503,-0.0598340000000001,-0.0105449999999996,0.1495,-0.0019547687622336,-0.0089535390627308,-1.0894693733200225
316.79197994987464,0.6090137637805012,0.5733553268526381,-4.985206,0.0013430000000003994,-0.0692170000000004,-0.035244,-0.0075921822461753,-0.0062657320146595,-1.0909703390234455
317.7944862155388,0.609013358689582,0.5733555554907701,-5.017503,0.0340899999999996,-0.003219000000000097,-0.038718,-0.0053407075111026,-0.0022165681500327,-1.0975680501151266
318.796992481203,0.6090129436502857,0.5733557870959619,-5.018518,0.045053,0.0612360000000004,-0.035832,-0.0005759586531581,-0.000558505360638,-1.093989828442565
319.7994987468672,0.6090125355923066,0.5733560272532668,-4.99075,-0.0517659999999999,0.017290999999999796,0.0480139999999999,-0.0007504915783575,-0.0049567350756638,-1.0903072011741506
320.8020050125313,0.6090121291051238,0.5733562640944464,-5.000516,-0.0239899999999999,-0.053583000000000096,0.0419030000000001,-0.0080634211442138,-0.0056548667764615,-1.0922619699363838
321.8045112781955,0.6090117254104678,0.5733565011101588,-5.035366,0.0276719999999998,-0.0005449999999998026,-0.0584739999999999,-0.0040491638646268,0.0011170107212763,-1.0898012127707049
322.8070175438596,0.6090113177015546,0.5733567320172188,-5.01993,-0.0294709999999997,0.0311279999999997,-0.0527030000000001,0.0014486232791552,0.0010821041362365,-1.091808166877573
323.8095238095238,0.6090109117379705,0.5733569624006802,-4.97964,0.0389339999999997,0.005273000000000302,0.08894999999999989,0.0041015237421866,-0.0068067840827779,-1.096258843736622
324.812030075188,0.6090105075197159,0.5733571954021353,-4.991141,0.013081999999999998,-0.0363209999999999,0.039723000000000105,-0.0094247779607693,-0.0054803338512621,-1.097131822521883
325.8145363408521,0.609010098763605,0.5733574322433148,-5.04162,-0.0256379999999997,-0.0195020000000002,-0.079108,-0.0029496064358704,0.0041364303272266,-1.0910752682180755
326.8170426065163,0.6090096887857637,0.5733576694335601,-5.033422,-0.014731000000000301,0.07611199999999971,-0.03362,0.0109257611174845,0.001535889741755,-1.089138074921409
327.8195488721804,0.60900927985512,0.573357902958614,-5.024159,0.0138890000000003,-0.0380379999999994,0.053448,-0.0047472955654245,-0.0019722220547535,-1.0958748014880115
328.8220551378446,0.6090088758113981,0.5733581350874045,-4.96944,-0.0016620000000003,0.009370999999999399,-0.07470600000000001,-0.0054977871437821,0.0015184364492351,-1.0972537861300131
329.8245614035088,0.6090084782253945,0.5733583687869914,-4.935397,0.0041570000000001,0.0168890000000004,0.203864,0.0102799892942466,-0.0139102741383947,-1.0940074039081336
330.8270676691729,0.6090080724363434,0.5733586023120453,-5.053117,0.006192,-0.1220690000000002,-0.044486,-0.0215722695546499,-0.0023561944901921,-1.095665484150821
331.8295739348371,0.6090076526846584,0.5733588356625663,-5.093581,-0.015297,0.046956000000000296,-0.31533500000000003,0.006754424205218,0.02153736296961,-1.0984405053016142
332.83208020050125,0.6090072341547037,0.5733590705838836,-4.955801,0.009783,0.1638949999999996,0.1851910000000001,0.0007330382858376,-0.0010821041362363,-1.0952116810920096
