Time [s],Longitude [rad],Latitude [rad],Altitude [m],V North [m/s],V East [m/s],V Down [m/s],Roll [rad],Pitch [rad],Yaw [rad]
1.0025062656641603,0.6089843305479956,0.573336758469259,-19.867016,-0.060242999999999824,0.16459900000000005,-0.00185,-0.0140673537710742,-0.0075398223686153,-3.009610925367152
2.0050125313283207,0.6089842589894964,0.5733364362814791,-19.873699,-0.04820699999999989,0.16691999999999996,0.004503,-0.0081506876068135,-0.0090582588178504,-3.072093468242454
3.007518796992481,0.6089842186723905,0.573336107635981,-19.887194,-0.036139000000000365,0.14927700000000002,0.007802,-0.010751228192285,-0.0087266462599715,-3.124034693674608
4.010025062656641,0.6089842057569541,0.5733357737544951,-19.911047,-0.028641999999999612,0.121404,0.008657999999999999,-0.0110130275800842,-0.0069813170079773,3.1200902844716856
5.012531328320802,0.6089842134364029,0.573335435509686,-19.93936,-0.022393000000000107,0.086192,-0.0005489999999999974,-0.0103323491718064,-0.0041364303272264,3.093107406969391
6.015037593984962,0.6089842350784855,0.5733350942978173,-19.961788,-0.01933700000000016,0.059103,-0.010336000000000001,-0.0108035880698448,-0.002094395102393,3.0766141851643845
7.017543859649122,0.6089842652726816,0.5733347508170205,-19.971588,-0.018451999999999913,0.040435999999999986,-0.012832,-0.0083601271170528,-0.0018500490071138,3.069458265418038
8.020050125313283,0.6089842989575361,0.5733344047182298,-19.971121,-0.020305000000000017,0.024306000000000022,-0.006794,-0.0114842664781226,-0.0026703537555512,3.0696153974105944
9.022556390977442,0.6089843356094504,0.5733340551287807,-19.96789,-0.02383999999999986,0.0038439999999999863,0.00019499999999999986,-0.0038920842319473,-0.0043109632524258,3.0775215294826186
10.025062656641603,0.6089843715632329,0.573333702048673,-19.966045,-0.020409000000000344,-0.013655,0.002089,-0.0048171087355043,-0.0058293997016609,3.090751037946273
11.027568922305765,0.6089844047244888,0.5733333451288409,-19.969362,-0.012299999999999756,-0.022671999999999998,0.008938,-0.0086742863824118,-0.0069115038378975,3.10630204375459
12.030075187969924,0.6089844305553618,0.5733329868127455,-19.985052,-0.0033560000000001367,-0.037335999999999994,0.015593000000000001,-0.0131248759749973,-0.00609119908946,3.1234759614211667
13.032581453634084,0.608984446437858,0.5733326373978292,-20.015512,0.15385300000000024,-0.093253,0.018208,-0.00923279174305,-0.0001570796326795,-3.042789651900857
14.035087719298245,0.6089844106586082,0.5733323295217492,-20.019623,0.3132259999999998,-0.463387,-0.077794,0.0269653369433123,0.0268257106031528,-2.7472354916483823
15.037593984962406,0.6089843115239069,0.5733320764490076,-19.965492,0.33422799999999997,-0.41953100000000004,-0.024255,0.0645771823237902,0.0100007366139276,-2.484388941204621
16.040100250626566,0.6089841607274594,0.5733318924913045,-19.909838,0.34689400000000004,-0.2711729999999999,0.008243,0.018762289458939,0.008325220532013,-2.2565888115804165
17.042606516290725,0.608983923537214,0.5733317594972155,-19.86515,0.32035800000000003,-0.20182200000000017,0.021339000000000004,0.0937067275395755,-0.0005061454830783,-2.0549853758969463
18.045112781954884,0.6089836542329105,0.5733316704854237,-19.861099,0.303064,-0.15734599999999999,0.043459,0.0135786615805158,-0.0022514747350725,-1.874361530860733
19.047619047619047,0.6089833575269377,0.5733316235360667,-19.875912,0.287786,-0.13623699999999994,-0.001941,0.0488343124708013,0.0041538836197465,-1.7093925561766243
20.050125313283207,0.6089830360372894,0.5733316207435399,-19.878002,0.279445,-0.09088300000000005,-0.019618,0.0494451777089993,0.0034557519189488,-1.5591029175125073
21.052631578947366,0.6089827016322048,0.5733316579190529,-19.864986,0.27064499999999997,-0.04207800000000006,-0.008488,0.0277332818141899,0.002775073510671,-1.4222862083828212
22.05513784461153,0.6089823612930007,0.5733317361098035,-19.85161,0.24975600000000003,-0.01602799999999993,0.010883,0.0414341164423453,-0.0001570796326795,-1.303341984952823
23.05764411027569,0.6089820195575331,0.5733318507779354,-19.855021,0.21894199999999997,-0.01683900000000005,0.018539,0.0378736447682769,-0.0016057029118348,-1.210804593105499
24.06015037593985,0.6089816746804729,0.5733319987818559,-19.873007,0.18292599999999992,-0.026904999999999957,0.008667999999999999,0.0283790536374277,-0.0007679448708775,-1.1470298782651904
25.062656641604008,0.6089813245674248,0.5733321764563737,-19.88909,0.14851500000000017,-0.032219999999999915,-0.008799999999999999,0.019076448724298,0.0014311699866353,-1.1129089182815044
26.065162907268167,0.6089809669494611,0.5733323743767109,-19.892498,0.09984799999999994,-0.03876199999999996,-0.01295,0.0189891822616983,0.0044505895925857,-1.111548050157139
27.06766917293233,0.6089806014775159,0.5733325839907542,-19.884348,0.029584999999999972,-0.05888800000000005,-0.005379,0.0119555053761611,0.004310963252426,-1.1450932260205928
28.07017543859649,0.6089802251845291,0.573332792208534,-19.880373,-0.047708000000000084,-0.08164800000000016,0.008673,0.0024958208303518,0.0026354471705114,-1.207471380753333
29.07268170426065,0.6089798359761059,0.5733329885580748,-19.885546,-0.11486299999999994,-0.09605599999999992,0.005999,-0.0074176493209759,0.0005061454830783,-1.2917881321974234
30.07518796992481,0.6089794310597194,0.5733331616947365,-19.890495,-0.15900799999999993,-0.08723199999999975,-0.011038,-0.0080459678516938,0.0004886921905584,-1.3865593709543762
31.07769423558897,0.6089790127042978,0.573333305160801,-19.880943,-0.19212600000000002,-0.05619700000000005,-0.012709999999999999,-0.0145385926691127,-0.0012391837689158,-1.4862526825480464
32.08020050125313,0.6089785859712956,0.5733334133712147,-19.86989,-0.21592200000000006,-0.029504000000000197,0.012929999999999999,-0.0191288086018578,-0.0060562925044203,-1.5836418104632346
33.08270676691729,0.6089781566202996,0.5733334858023786,-19.878511,-0.21734099999999995,-0.022383000000000042,0.019258,-0.0088313660150913,-0.0077143552938148,-1.6716939155724442
34.08521303258145,0.608977721858783,0.5733335231524246,-19.898788,-0.194727,-0.018383000000000038,0.0007349999999999978,-0.0111875605052836,-0.0058643062867009,-1.7443870185443482
35.08771929824561,0.6089772846538053,0.5733335299592086,-19.910385,-0.163118,-0.0019049999999998235,-0.011840999999999997,-0.0099832833214075,-0.0040317105721068,-1.8003245941779638
36.09022556390977,0.6089768481469594,0.5733335123313832,-19.916616,-0.13042299999999998,0.005507000000000151,0.0034739999999999997,-0.0115017197706426,-0.0035604716740684,-1.839035770094395
37.092731829573935,0.608976410418383,0.5733334763776007,-19.929974,-0.094531,-0.009292999999999996,0.0056700000000000006,-0.0112748269678833,-0.0025830872929515,-1.86087022300928
38.095238095238095,0.6089759683264835,0.5733334271593158,-19.942638,-0.055976000000000026,-0.019141999999999992,-0.008896000000000001,-0.0097214839336084,-0.0014311699866353,-1.8655304964582
39.097744360902254,0.608975521347662,0.5733333709597138,-19.942451,-0.015548000000000006,-0.01924600000000032,-0.010988999999999999,-0.0078714349264944,-0.0019896753472734,-1.857222502325904
40.100250626566414,0.6089750705291163,0.5733333152837108,-19.93885,0.013023000000000007,-0.021646000000000054,0.006980999999999999,-0.0038222710618675,-0.0054803338512621,-1.8376397335856025
41.10275689223057,0.6089746143000497,0.5733332639710307,-19.947092,0.038322999999999996,-0.03561699999999979,0.012417000000000001,-0.0035604716740684,-0.0068416906678177,-1.8101681638927485
42.10526315789473,0.6089741596417797,0.5733332208613983,-19.9545,0.08058400000000002,0.10446199999999983,0.002135999999999999,-0.0633729051399141,-0.0140673537710742,-1.7306685560907475
43.10776942355889,0.6089737377956994,0.5733332149272787,-19.955349,0.386612,0.20795300000000028,-0.063196,0.0100705497840072,0.0244520628204405,-1.4684675505774218
44.11027568922306,0.6089733627244431,0.5733332782827305,-19.891245,0.47986399999999996,0.2774479999999999,-0.0076909999999999965,0.1619316480000339,-0.0058293997016609,-1.1751651094061144
45.11278195488722,0.6089730604334167,0.5733333821298211,-19.867714,0.41370000000000007,0.25572099999999987,0.06440499999999999,0.0806691180271779,-0.0251501945212382,-0.9471553657387456
46.11528822055138,0.6089727883365864,0.573333564342195,-19.88772,0.28112800000000004,0.0900430000000001,0.019964,0.0990299817581582,-0.0176452787376626,-0.8589291116767719
47.11779448621554,0.6089725179850852,0.5733337971691171,-19.904839,0.16484699999999997,-0.001575000000000104,-0.02147,-0.0056025068989017,-0.0035604716740684,-0.8391018746681438
48.1203007518797,0.6089722486807816,0.5733340701386122,-19.892494,0.0721909999999999,0.02375000000000016,-0.034723000000000004,-0.0069115038378975,0.00617846555206,-0.8332897886326622
49.122807017543856,0.6089719785038133,0.5733343422354426,-19.852997,0.01711600000000013,0.04929199999999989,-0.019103,-0.0019373154697137,0.0093898713757296,-0.8303054501446774
50.125313283208015,0.6089717107703062,0.5733346082236206,-19.810329,0.004816999999999849,0.03667900000000013,0.01081,-0.0024958208303518,0.005846852994181,-0.8311779053311653
51.127819548872175,0.6089714535087744,0.5733348675795474,-19.785767,-0.00522800000000001,0.017641999999999936,0.021214999999999998,-0.0018849555921538,0.0002967059728391,-0.8358208651139044
52.130325814536334,0.6089711983416378,0.5733351237938816,-19.779331,-0.009426999999999852,0.007222000000000062,0.011321,-0.0148702052269916,-0.0029496064358702,-0.8400440906648331
53.1328320802005,0.6089709443962316,0.5733353784374194,-19.77467,-0.015978000000000048,0.010974999999999957,-0.0074210000000000005,-0.01228711793404,-0.0052708943410229,-0.8437448344508838
54.13533834586466,0.6089706907998913,0.5733356301138977,-19.757929,-0.018378000000000005,0.024637999999999938,-0.012808,-0.0089709923552508,-0.0088662726001311,-0.8460133086928707
55.13784461152882,0.6089704424395388,0.5733358784742503,-19.733528,-0.016472000000000042,0.0345899999999999,0.002373,-0.0020594885173533,-0.0151494579073108,-0.8474274442660069
56.14035087719298,0.608970201584102,0.5733361235184772,-19.721666,-0.013365000000000071,0.025330000000000075,0.022922,-0.0069115038378975,-0.0226718269834063,-0.8497832722370566
57.14285714285714,0.6089699635211919,0.5733363664683091,-19.737125,-0.013436000000000003,0.0066870000000001095,0.025952,-0.0093375114981696,-0.0270700566984318,-0.8536054560324619
58.1453634085213,0.6089697265054796,0.5733366076728117,-19.770802,-0.016448999999999936,-0.0002990000000000492,0.007447000000000002,-0.0105417886820457,-0.0257436064669163,-0.8573754195766469
59.14786967418546,0.6089694900133659,0.5733368464338534,-19.799568,-0.018591000000000024,0.009141999999999983,-0.014744000000000004,-0.008604473212332,-0.0222354946704077,-0.8591730563463237
60.15037593984962,0.6089692554411145,0.5733370825769011,-19.811914,-0.015064999999999884,0.027271999999999963,-0.013932,-0.0090582588178505,-0.0210312174865316,-0.8602553524687774
61.15288220551378,0.6089690264539166,0.5733373159274221,-19.815908,-0.015044000000000057,0.029854000000000047,-0.0009989999999999999,-0.0074001960284559,-0.0222180413778878,-0.8630479490851386
62.15538847117794,0.6089688027027065,0.5733375461363505,-19.827734,-0.01577099999999998,0.018859999999999877,0.014648000000000001,-0.0062308254296197,-0.0245218759905203,-0.867201413825865
63.1578947368421,0.6089685813949574,0.5733377737272849,-19.857153,-0.017641000000000018,0.005367000000000122,0.01775,-0.0089360857702109,-0.024260076602721,-0.8716526317369812
64.16040100250626,0.608968360436274,0.5733379974784951,-19.9,-0.017071999999999976,-0.0005230000000000512,0.006151000000000004,-0.0054628805587422,-0.0206646983436127,-0.8750731803649165
65.16290726817043,0.6089681389539919,0.5733382207061064,-19.939085,-0.014291000000000054,0.005435000000000079,-0.012838000000000002,-0.0089535390627309,-0.0145385926691126,-0.8771153028562132
66.16541353383458,0.608967919566105,0.5733384418393226,-19.956648,-0.014832999999999874,0.020337999999999967,-0.02557,-0.0072082098107365,-0.0093026049131297,-0.8778657769812777
67.16791979949875,0.6089677041924753,0.5733386610526766,-19.953852,-0.018405000000000005,0.02639400000000003,-0.013222000000000001,-0.0045204027626653,-0.0075921822461753,-0.8785992166928439
68.1704260651629,0.6089674919604382,0.5733388762517734,-19.948664,-0.015633000000000008,0.018437000000000037,0.007808,0.0002268928027592,-0.0092327917430499,-0.8805880542820762
69.17293233082707,0.6089672889786463,0.5733390888328763,-19.957563,-0.040022,0.052159999999999984,0.015581,0.0524296907299096,-0.0102276294166867,-0.9409246450288804
70.17543859649122,0.608967081982597,0.5733392898948061,-19.976753,-0.10183900000000001,-0.10100100000000012,0.003082999999999999,0.0868999434567976,-0.0062831853071794,-1.107778069159661
71.17794486215539,0.6089668659108355,0.573339476994102,-19.989799,-0.20125100000000007,-0.11635099999999987,-0.01226,0.0739496004069997,0.0042411500823462,-1.3177757880536458
72.18045112781954,0.608966638494434,0.5733396318048065,-19.978609,-0.26462600000000003,-0.07085800000000009,-0.031647,0.0094596845458092,0.0072605696882965,-1.53451075711301
73.1829573934837,0.6089663974644643,0.5733397387934898,-19.955606,-0.30195,-0.02103300000000008,0.008184999999999998,0.0254643537865972,-0.0016929693744345,-1.7462544335775183
74.18546365914787,0.6089661491041117,0.5733397911533673,-19.936834,-0.295185,-0.019422999999999968,-0.0011140000000000004,-0.0203505390782538,-0.0062133721370998,-1.9265291429501636
75.18796992481202,0.608965898649364,0.5733397937713611,-19.928699,-0.27382700000000004,0.003314000000000039,0.022721,0.0001396263401595,-0.0136310214580757,-2.0796992555584786
76.19047619047619,0.6089656438312933,0.5733397499635969,-19.939575,-0.246657,0.02074100000000012,0.009345000000000001,0.0340164671213694,-0.0114144533080429,-2.210180297330377
77.19298245614034,0.6089653911076176,0.5733396674095234,-19.958149,-0.233643,0.04612699999999981,0.008315999999999999,0.0484328867428426,-0.0070860367630969,-2.325180111557453
78.19548872180451,0.6089651469360553,0.5733395502979306,-19.981884,-0.21498700000000004,0.05930400000000002,0.00485,0.0537910475464652,-0.0034382986264287,-2.4211905340833213
79.19799498746866,0.6089649135855343,0.5733394014213453,-20.00812,-0.185747,0.056407000000000096,0.0025550000000000017,0.0577354916559724,-0.0012391837689158,-2.4934471476625943
80.20050125313283,0.6089646908815217,0.5733392247940251,-20.032993,-0.15981600000000007,0.04865499999999989,-0.009425000000000003,0.0533721685259865,3.4906585040017646e-05,-2.549158092292838
81.203007518797,0.6089644796966822,0.5733390277463525,-20.044903,-0.08205799999999996,0.07974300000000012,-0.016172,0.0390081087820732,0.0005410520681183,-2.585932074912604
82.20551378446115,0.608964281776345,0.5733388226701653,-20.040695,-0.04051399999999994,0.05370900000000001,-0.011311,0.0229859862487653,-0.0009075712110369,-2.5875030806789088
83.20802005012531,0.6089640899646602,0.573338615848649,-20.040241,-0.010402000000000022,0.0008109999999998951,0.017806000000000002,0.0327598300599335,-0.0023038346126325,-2.553416748027582
84.21052631578947,0.6089638998983047,0.5733384102488631,-20.062132,0.02489600000000003,-0.06755599999999995,0.023509,0.0483630735727628,-0.0022165681500327,-2.491544860950968
85.21303258145363,0.608963691505992,0.5733382114558614,-20.100014,0.067998,-0.11297000000000001,0.0026530000000000026,0.044313909708136,0.0013089969389958,-2.410753604782735
86.21553884711778,0.6089634578064052,0.5733380276726912,-20.12443,0.10826599999999997,-0.11806800000000006,-0.026231,0.0381878040336359,0.0056374134839416,-2.3170468248832825
87.21804511278195,0.6089631982759454,0.5733378643098732,-20.119186,0.13135399999999997,-0.10059200000000001,-0.025123,0.0542448331519837,0.0050265482457436,-2.2160967715084205
88.22055137844612,0.6089629221648577,0.573337724683533,-20.099852,0.14911200000000002,-0.0853759999999999,-0.001886999999999998,0.056007615696498,0.0012915436464757,-2.108078431368953
89.22305764411027,0.6089626294731422,0.5733376105389999,-20.092875,0.17421600000000004,-0.08505600000000002,0.022001999999999997,0.0609643507721619,-0.001815142422074,-1.994719366265092
90.22556390977444,0.608962321946128,0.5733375257159982,-20.10998,0.20231899999999997,-0.07844499999999988,0.019581,0.0565661210571362,-0.0012740903539558,-1.878061733594716
91.2280701754386,0.6089620016782101,0.5733374756250487,-20.139252,0.217079,-0.05462800000000012,-0.0003149999999999993,0.0555887366760194,0.0034732052114687,-1.7621369995838372
92.23057644110276,0.6089616728581791,0.5733374602661513,-20.154282,0.209507,-0.013041999999999998,-0.023242000000000002,0.0495149908790791,0.0092851516206098,-1.6502789001833984
93.23308270676692,0.6089613456089443,0.5733374778939767,-20.139883,0.192867,0.028915999999999942,-0.027967,0.047071529926287,0.0120078652537209,-1.543097846845992
94.23558897243107,0.6089610270863559,0.573337526065064,-20.10675,0.17791300000000002,0.05582100000000012,-0.005746000000000001,0.0480838208924437,0.0096167641784887,-1.4409959808845685
95.23809523809524,0.608960721304671,0.573337600765156,-20.081343,0.163649,0.06527499999999997,0.018932,0.0440172037352969,0.0057944931166211,-1.3463994321324484
96.2406015037594,0.6089604284384225,0.5733376983290612,-20.081465,0.14432100000000003,0.06455999999999995,0.024605000000000002,0.038152897448596,0.0050789081233035,-1.259953221921292
97.24310776942356,0.6089601481385446,0.5733378171859833,-20.098513,0.11768,0.06713100000000005,0.006337000000000001,0.0270176968208722,0.008918632477691,-1.1822512508889669
98.24561403508773,0.608959881277702,0.5733379527980662,-20.109753,0.09418199999999999,0.07675399999999999,-0.01554,0.0225147473507268,0.0142418866962736,-1.1119667022848152
99.24812030075188,0.6089596297757568,0.5733381013255855,-20.102423,0.07500799999999996,0.08761200000000002,-0.017029000000000002,0.0216595360172496,0.0170169602069447,-1.0492220807690338
100.25062656641605,0.6089593955525712,0.5733382603250804,-20.084248,0.05958599999999992,0.08686499999999997,-0.0024880000000000006,0.026145032194875,0.0167202542341058,-0.994297057900963
101.2531328320802,0.6089591761646842,0.573338426654958,-20.07197,0.04677500000000001,0.0724800000000001,0.012159000000000001,0.0239284640448422,0.0154985237577096,-0.9473822759947972
102.25563909774436,0.6089589700412995,0.5733385999661529,-20.073792,0.037921000000000094,0.05548799999999998,0.011706999999999999,0.0134564885328762,0.0160919357033877,-0.9082343314330548
103.25814536340852,0.6089587736917587,0.573338779211467,-20.082067,0.029183999999999877,0.045320999999999945,-0.000673,0.0071034900556169,0.0192858882345374,-0.8747067310351684
104.26065162907268,0.608958584149002,0.5733389622965055,-20.081966,0.019185000000000008,0.04718800000000001,-0.014633,0.0100181899064474,0.0235793981944434,-0.8464846872172497
105.26315789473684,0.6089584021111609,0.5733391474759392,-20.068842,0.014508000000000187,0.04418,-0.008707,0.0173311194723036,0.0256214334192768,-0.8229226375955714
106.265664160401,0.6089582287999662,0.5733393349243008,-20.052561,0.013203999999999994,0.033584999999999976,0.0034319999999999993,0.0201760061530544,0.0249582083035189,-0.804631517221501
107.26817042606515,0.6089580593284959,0.5733395232453271,-20.043346,0.014756999999999909,0.019863999999999993,0.007852999999999999,0.0202458193231342,0.0235619449019235,-0.7901977141206775
108.27067669172932,0.6089578933476839,0.5733397152315449,-20.0382,0.015554999999999986,0.012380999999999975,-0.0015929999999999998,0.0195127810372966,0.0237015712420829,-0.7784696775059292
109.27318295739347,0.6089577291122014,0.5733399096612235,-20.025282,0.013025999999999982,0.015913999999999984,-0.012202000000000001,0.0175580122750629,0.0243124364802811,-0.7686953450025699
110.27568922305764,0.6089575681928443,0.5733401053126326,-20.002207,0.007095999999999991,0.017817000000000083,-0.00554,0.0184830367786199,0.0227416401534861,-0.761522390842724
111.2781954887218,0.6089574095424153,0.573340302883904,-19.980165,0.0034769999999999524,0.011759999999999993,0.007655000000000002,0.0184306769010601,0.0190589954317781,-0.7566003354592975
112.28070175438596,0.6089572526373156,0.5733405002806424,-19.969139,0.0011700000000001154,0.002090999999999954,0.012139999999999998,0.0171914931321441,0.0151843644923508,-0.753563270574609
113.28320802005013,0.6089570964303475,0.5733406973283149,-19.96636,0.0010090000000000376,0.0004370000000000207,0.0026499999999999996,0.0149400183970714,0.0133517687777566,-0.7502822610203694
114.28571428571428,0.6089569390016489,0.5733408943759875,-19.961521,0.004532999999999898,0.007793999999999968,-0.0050999999999999995,0.0182735972683806,0.0124791041517595,-0.7463199970992005
115.28822055137844,0.6089567827946809,0.5733410924708576,-19.951757,0.009060000000000068,0.012770000000000059,-0.0023770000000000006,0.0206996049286527,0.0109432144100045,-0.7426725382152128
116.2907268170426,0.6089566304274372,0.5733412917874582,-19.942102,0.007471999999999923,0.008849999999999913,0.0028799999999999997,0.0160919357033877,0.0087266462599717,-0.7400019226602722
117.29323308270676,0.6089564789328581,0.5733414921512563,-19.936401,-3.8999999999900226e-05,0.0002469999999999972,0.003985000000000001,0.0124092909816796,0.0066497044500983,-0.7383092150852264
118.29573934837092,0.6089563277873449,0.5733416916423898,-19.932949,-0.004657000000000133,-0.0026169999999999805,-0.0002899999999999999,0.0111352006277238,0.005253441048503,-0.7359879969932442
119.29824561403508,0.6089561759437,0.5733418914825892,-19.928215,-0.00013599999999991397,0.0031200000000000117,-0.0012069999999999997,0.0138055543832751,0.0039444441095073,-0.7317988577226072
120.30075187969923,0.6089560251472527,0.5733420909737227,-19.924948,0.007827000000000028,0.009604000000000057,0.0040409999999999995,0.016912240451825,0.0024260076602722,-0.7258653316777723
121.3032581453634,0.6089558753980028,0.5733422923847183,-19.92864,0.010230999999999879,0.009951999999999961,0.008009,0.0152890842474703,0.0019722220547535,-0.7196862552604738
122.30576441102755,0.6089557279176809,0.5733424943193127,-19.937946,0.00487800000000016,0.005404999999999993,0.002509,0.0116587994033221,0.0028099800957108,-0.7134906854817448
123.30827067669172,0.6089555811354909,0.5733426978247036,-19.944178,0.0012440000000000229,0.00408200000000003,-0.007556,0.0115889862332423,0.004642575810305,-0.705863387211019
124.31077694235589,0.6089554352259655,0.5733429011555614,-19.939861,0.002506999999999815,0.008376999999999968,-0.011516,0.0164933614313464,0.005253441048503,-0.6965961252152424
125.31328320802004,0.6089552903636375,0.5733431058826827,-19.92753,0.00824400000000014,0.01453099999999996,-0.0035049999999999994,0.0169296937443449,0.0039793506945471,-0.6859141865942614
126.3157894736842,0.608955148991968,0.5733433116570015,-19.917828,0.01023799999999997,0.014892000000000016,0.00825,0.0152541776624304,0.0014137166941154,-0.6749361005058027
127.31829573934836,0.6089550109364243,0.573343518129452,-19.918495,0.007265000000000077,0.011197000000000012,0.009473,0.013840460968315,-0.0003141592653588,-0.6637838480112868
128.32080200501252,0.6089548742771439,0.5733437270453635,-19.924578,0.003757999999999928,0.010143000000000013,0.0004869999999999996,0.0126361837844389,-0.0006632251157578,-0.6516190602045183
129.32330827067668,0.6089547393631927,0.573343935961275,-19.928213,0.00479699999999994,0.015195999999999987,-0.0037149999999999996,0.0158999494856683,-0.0002268928027591,-0.6381445249671771
130.32581453634086,0.6089546075908342,0.5733441455753181,-19.930424,0.01022400000000001,0.01734199999999997,0.002293,0.0193033415270572,-0.0004537856055184,-0.6244265861123524
131.328320802005,0.608954479309134,0.5733443565856247,-19.937601,0.01172799999999996,0.01273600000000008,0.006108000000000001,0.0142767932813136,-0.0008726646259971,-0.6110569800696395
132.33082706766916,0.608954353296362,0.5733445700393922,-19.94771,0.00769400000000009,0.009738000000000024,-0.0014560000000000007,0.0123743843966397,8.726646259971105e-05,-0.5971643337566895
133.33333333333331,0.6089542302506498,0.5733447845403572,-19.951073,0.002953999999999901,0.014468999999999954,-0.010022,0.0146607657167523,0.0013962634015955,-0.5818580929226719
134.3358395989975,0.6089541096483986,0.5733450002630529,-19.945036,0.005102000000000162,0.02196100000000001,-0.006744,0.0182037840983008,0.0014486232791552,-0.5653997602494133
135.33834586466165,0.6089539930604045,0.5733452154621496,-19.938375,0.010365999999999875,0.023599999999999954,0.005583,0.0202632726156541,-0.0001919862177193,-0.5491502038612784
136.3408521303258,0.6089538803121348,0.5733454322320426,-19.941067,0.01191399999999998,0.017915000000000014,0.010288,0.0166504410640259,-0.001483529864195,-0.5335472745077142
137.34335839598998,0.608953770181859,0.5733456514453967,-19.951389,0.008387000000000144,0.014013999999999971,0.0028720000000000004,0.0152018177848706,-0.0012566370614357,-0.5176125231567615
138.34586466165413,0.6089536635422418,0.5733458715314154,-19.959209,0.004051000000000027,0.015809000000000073,-0.0066170000000000005,0.0146956723017922,0.0001570796326795,-0.5007520491705508
139.34837092731829,0.6089535605678158,0.5733460931882304,-19.958498,0.004506999999999817,0.018004999999999938,-0.007579,0.017208946424664,0.0010122909661567,-0.4835783933033613
140.35087719298244,0.6089534593387192,0.5733463157177101,-19.952185,0.007145000000000179,0.017064999999999997,-0.0028780000000000003,0.0181863308057809,0.0004537856055186,-0.4663871445173123
141.35338345864662,0.6089533626474787,0.5733465396434531,-19.945385,0.0092629999999998,0.018342999999999998,0.00041500000000000044,0.0184306769010601,-0.0007679448708775,-0.4488987010662344
142.35588972431077,0.608953268748765,0.5733467642673279,-19.939802,0.0085090000000001,0.022202000000000055,0.0016289999999999994,0.0167202542341056,-0.0020071286397933,-0.4310267564186152
143.35839598997492,0.6089531793879073,0.5733469899384,-19.936932,0.006335999999999897,0.023107999999999962,0.0043630000000000006,0.018133970928221,-0.0034557519189486,-0.4131367127066527
144.36090225563908,0.6089530947394385,0.5733472161330712,-19.938032,0.003998000000000168,0.01957500000000001,0.002625,0.0189193690916185,-0.0044854961776252,-0.3955438636597199
145.36340852130326,0.608953014454293,0.5733474435494726,-19.939777,0.002306999999999837,0.018257000000000023,-0.001783,0.0190939020168179,-0.0050963614158234,-0.3783350568613965
146.3659147869674,0.6089529364380754,0.5733476711404072,-19.938578,0.0038720000000000976,0.021390999999999993,-0.0028550000000000003,0.019669860669976,-0.0057595865315811,-0.3612306382056343
147.36842105263156,0.6089528619125163,0.5733478994294733,-19.937626,0.007520999999999889,0.02199899999999999,0.004433,0.0210661240715715,-0.0071034900556168,-0.344231672343277
148.37092731829574,0.6089527922738792,0.5733481294638687,-19.944012,0.009814000000000211,0.014790000000000025,0.008705000000000001,0.0175056523975031,-0.0080285145591738,-0.3277381887388827
149.3734335839599,0.608952725078703,0.5733483612435933,-19.955076,0.007552999999999921,0.009550999999999976,-0.0012850000000000014,0.0147305788868321,-0.0066147978650583,-0.3110524222107974
150.37593984962405,0.6089526601524547,0.5733485942450486,-19.957232,0.0010459999999998804,0.01860299999999998,-0.014206,0.0147131255943121,-0.0041887902047863,-0.2930760894206152
151.3784461152882,0.6089525994149969,0.5733488263738391,-19.945993,-0.002498999999999807,0.03014,-0.009079,0.0202458193231342,-0.0040491638646267,-0.2751162499918663
152.38095238095238,0.6089525442625924,0.5733490579790308,-19.934397,0.0016439999999999788,0.02773600000000004,0.008136999999999998,0.0223925743030872,-0.0066147978650583,-0.2583958735847134
153.38345864661653,0.608952494171643,0.5733492901078212,-19.936325,0.008008999999999933,0.014816999999999969,0.014846999999999999,0.0204203522483336,-0.008883725892651,-0.2431242426297626
154.38596491228068,0.6089524463496214,0.5733495238074081,-19.947397,0.008218999999999976,0.009558000000000011,0.0009680000000000001,0.0133168621927167,-0.0081855941918533,-0.2280102672661448
155.3884711779449,0.6089524002729291,0.5733497585541926,-19.953268,0.003041999999999989,0.018193000000000015,-0.009277,0.0130027029273577,-0.0063704517697793,-0.2115167836617504
156.39097744360902,0.6089523576868955,0.5733499938245757,-19.950541,-0.0022379999999999622,0.02394099999999999,-0.005169,0.0194080612821769,-0.0058643062867009,-0.194726070485743
157.39348370927317,0.6089523177188555,0.573350228745893,-19.947132,-0.0018800000000001038,0.017517000000000005,0.0031320000000000002,0.0193033415270572,-0.0070860367630969,-0.1790358048564082
158.39598997493732,0.6089522817650729,0.5733504631436116,-19.948732,0.00282300000000002,0.010653999999999997,0.004639,0.0149574716895914,-0.008272860654453,-0.1633449807217133
159.3984962406015,0.6089522489528829,0.5733506985885277,-19.950865,0.006232000000000015,0.015212000000000003,-0.002827,0.0152890842474703,-0.0084473935796525,-0.1468344452505283
160.40100250626566,0.6089522192822857,0.5733509356042401,-19.947632,0.0041440000000001476,0.025485000000000008,-0.005908,0.0166329877715059,-0.0083775804095727,-0.1294860819252153
161.4035087719298,0.6089521938004786,0.5733511726199525,-19.941256,-0.0009750000000001702,0.027857999999999994,0.00011599999999999978,0.0196175007924162,-0.0091280719879303,-0.1132541184559399
162.406015037594,0.6089521735546594,0.573351409286599,-19.940136,-0.0017730000000000246,0.01976,0.008564,0.0178721715404219,-0.0106988683147251,-0.0981571949591135
163.40852130325814,0.6089521580212289,0.5733516459532457,-19.948555,0.0007590000000001762,0.009860999999999995,0.008901,0.0152367243699104,-0.0116587994033221,-0.083670665461588
164.4110275689223,0.6089521431859304,0.573351883143491,-19.960382,0.002537999999999929,0.007823999999999998,-0.0027849999999999993,0.0133168621927167,-0.0106988683147251,-0.0686962466249598
165.41353383458645,0.608952129921428,0.5733521206828022,-19.964327,0.00174300000000005,0.017301000000000004,-0.011309,0.0151145513222708,-0.0090757121103703,-0.0523774530253977
166.41604010025063,0.6089521203221171,0.5733523587457121,-19.957397,-7.299999999998974e-05,0.025834999999999997,-0.008155,0.0168947871593051,-0.0084997534572124,-0.0360410839602683
167.41854636591478,0.6089521147370636,0.5733525959359576,-19.947796,-0.000336000000000114,0.02509,0.002425,0.0172787595947438,-0.0095993108859686,-0.0204552064734955
168.42105263157893,0.6089521147370636,0.5733528333007357,-19.944401,-1.3000000000040757e-05,0.017539,0.008837000000000001,0.0149749249821113,-0.0116238928182821,-0.0056373785773564
169.4235588972431,0.6089521184022549,0.5733530696183166,-19.949783,-0.00018199999999990446,0.011724000000000002,0.006809,0.0152541776624304,-0.0126885436619987,0.0091804318654901
170.42606516290726,0.6089521222419794,0.5733533059358972,-19.958717,-0.0006610000000000227,0.010214999999999998,0.00021799999999999944,0.0150272848596711,-0.0127583568320783,0.0246964089157197
171.42857142857142,0.6089521278270329,0.5733535433006756,-19.964899,-0.0007299999999998974,0.014782999999999998,-0.0050609999999999995,0.0168598805742652,-0.0121649448864005,0.0407359847415476
172.43107769423557,0.6089521372518109,0.573353780141855,-19.964569,-0.0012810000000000876,0.020696000000000006,-0.005504,0.0170344134994646,-0.0117111592808818,0.0572817060504539
173.43358395989975,0.6089521515635107,0.5733540168085016,-19.959822,-0.0006409999999998917,0.02356699999999999,-0.002121,0.0182386906833407,-0.0122522113490002,0.0736179878491208
174.4360902255639,0.608952169540402,0.5733542534751481,-19.955919,-0.0012070000000001802,0.021731,0.002832,0.0158650429006284,-0.0132645023151567,0.0896226570899088
175.43859649122803,0.6089521924042153,0.5733544896181959,-19.957201,-0.001518999999999826,0.01789200000000002,0.006717000000000001,0.0158999494856683,-0.0138055543832751,0.1053131670653378
176.44110275689223,0.6089522184096211,0.5733547257612437,-19.96666,-0.001435000000000075,0.013760999999999995,0.008741,0.0154985237577096,-0.0136484747505956,0.1209862237482469
177.4436090225564,0.6089522459858232,0.5733549619042915,-19.983208,-0.0014080000000000759,0.008174999999999988,0.004264,0.0138928208458748,-0.0125314640293192,0.1370781769049271
178.44611528822054,0.6089522742601571,0.5733551989200039,-19.997231,-0.0016769999999999285,0.008432999999999996,-0.008965,0.0127409035395586,-0.0107337748997651,0.1540776663660594
179.4486215538847,0.6089523053270178,0.5733554347139859,-19.996695,-0.0032769999999999744,0.02091700000000002,-0.017776,0.0154810704651897,-0.0092502450355698,0.1721243708316807
180.45112781954887,0.6089523404081357,0.573355669984369,-19.98103,-0.0034609999999999363,0.035026,-0.008462,0.0188495559215387,-0.009773843811168,0.1902932483449417
181.45363408521305,0.6089523836923012,0.5733559056038181,-19.966955,-0.0037480000000000846,0.03705999999999998,0.009916000000000001,0.0187273828738991,-0.0115715329407224,0.2067866097762881
182.4561403508772,0.6089524336087179,0.5733561396524707,-19.970303,-0.0040599999999999525,0.019751999999999992,0.021083,0.013229595730117,-0.012897983172238,0.2211332162276815
183.45864661654133,0.6089524859685954,0.5733563731775247,-19.992907,-0.0031080000000001107,-0.0006220000000000114,0.014524,0.0115366263556825,-0.0119729586686809,0.2349387531576641
184.4611528822055,0.6089525374558084,0.5733566061789798,-20.019989,-0.0006770000000000387,-0.007757999999999987,-0.005503000000000001,0.0113097335529232,-0.0088313660150911,0.2504896542462262
185.4636591478697,0.6089525863250274,0.5733568383077703,-20.032112,-0.0011699999999998933,0.008450999999999986,-0.021773,0.0171042266695444,-0.0055501470213419,0.2685712652968874
186.46616541353384,0.6089526365905099,0.5733570699129621,-20.020725,-0.00383,0.03302700000000003,-0.021349999999999997,0.0207694180987325,-0.0044680428851053,0.2879618907398369
187.468671679198,0.6089526954081056,0.5733573011690879,-19.995796,-0.007411999999999974,0.043995000000000006,-0.003522000000000001,0.0208741378538521,-0.0060039326268603,0.3060434843372057
188.47117794486212,0.6089527633014136,0.5733575324252138,-19.978636,-0.008032000000000039,0.032607,0.016307,0.016615534478986,-0.0084124869946125,0.3216816344350749
189.4736842105263,0.6089528378269726,0.5733577621105435,-19.984121,-0.00510199999999994,0.009303000000000006,0.024361,0.0126885436619987,-0.0100007366139274,0.3356616868369644
190.47619047619045,0.6089529135742622,0.573357991795873,-20.009682,-0.0021290000000000475,-0.006018999999999997,0.01216,0.0087615528450115,-0.0089535390627308,0.3505319269705412
191.47869674185463,0.6089529870526237,0.5733582206085379,-20.036644,-0.0009500000000000064,-0.0013239999999999919,-0.008907000000000002,0.0135612082879959,-0.0059864793343404,0.3674267141298462
192.4812030075188,0.608953058785656,0.5733584488976041,-20.044918,-0.0032170000000000254,0.018284999999999996,-0.023142,0.0174532925199432,-0.0033684854563489,0.3863286299289448
193.4837092731829,0.6089531354056101,0.5733586768376044,-20.03093,-0.007792999999999939,0.03730899999999998,-0.016979,0.0201585528605345,-0.0024783675378319,0.4053701720682031
194.48621553884712,0.6089532193559472,0.5733589037304071,-20.009808,-0.010364999999999958,0.03840199999999999,0.003564000000000001,0.0204028989558137,-0.003630284844148,0.4227012915405067
195.48872180451127,0.6089533118583974,0.5733591278306831,-20.001383,-0.008380000000000054,0.020567000000000057,0.018049,0.0169471470368649,-0.0053407075111024,0.4378681852870448
196.49122807017545,0.6089534082005722,0.5733593507092286,-20.010633,-0.005036999999999958,0.004081000000000001,0.013023,0.0125140107367993,-0.0059690260418205,0.4523719062777028
197.4937343358396,0.6089535047172798,0.5733595732387082,-20.025648,-0.0028840000000001087,0.0032439999999999136,-0.0020090000000000004,0.0121649448864004,-0.0051487212933831,0.4674689519475762
198.49624060150376,0.6089536001867899,0.5733597950700562,-20.032593,-0.004202000000000039,0.01426700000000003,-0.011574,0.0168947871593051,-0.0038397243543875,0.4835783933033614
199.4987468671679,0.6089536987978926,0.5733600167268712,-20.028826,-0.007507999999999848,0.024329000000000045,-0.007787,0.0179768912955415,-0.0029496064358702,0.4999320934879632
200.5012531328321,0.6089538017723185,0.5733602382091532,-20.022295,-0.009983999999999993,0.024170999999999943,0.001979,0.0178721715404219,-0.0025132741228717,0.5161636555315106
201.50375939849624,0.6089539096336662,0.5733604572479744,-20.01968,-0.008848000000000189,0.016925999999999997,0.00544,0.0164410015537865,-0.0028972465583105,0.5314876638173133
202.5062656641604,0.6089540206366066,0.5733606750650649,-20.021694,-0.005822999999999912,0.012145000000000072,0.002444,0.0153414441250301,-0.0035953782591082,0.5464800595452369
203.50877192982452,0.6089541346066069,0.5733608907877605,-20.023516,-0.004529999999999923,0.013402999999999943,-0.003441,0.0152890842474703,-0.0038048177693474,0.5617691263394147
204.5112781954887,0.6089542515436667,0.5733611056377914,-20.020115,-0.005820000000000158,0.017172999999999994,-0.004659,0.0167202542341056,-0.0032986722862691,0.5772153251261497
205.51378446115288,0.6089543709241876,0.5733613199642236,-20.013933,-0.00885199999999986,0.01887899999999998,1.600000000000039e-05,0.0180467044656213,-0.0029321531433503,0.5929755784584884
206.51629072681703,0.608954493620834,0.5733615325453264,-20.011797,-0.009405000000000108,0.014743000000000062,0.006461,0.0163537350911868,-0.0032288591161895,0.6083170574901036
207.5187969924812,0.6089546182373426,0.5733617449518965,-20.016319,-0.007528999999999897,0.011390000000000011,0.005099,0.015079644737231,-0.0037699111843076,0.6237806397561884
208.5213032581453,0.6089547461699767,0.5733619557876701,-20.021635,-0.007055999999999951,0.013537999999999939,-0.0036100000000000004,0.0172962128872638,-0.0035430183815483,0.6398028146493739
209.52380952380952,0.6089548779423353,0.5733621641799828,-20.019497,-0.009452000000000016,0.019040000000000057,-0.009247,0.0165457213089062,-0.0027750735106708,0.6557376358134972
210.52631578947367,0.608955011634556,0.5733623711760321,-20.010656,-0.01145700000000005,0.022603999999999957,-0.003084,0.0193207948195772,-0.0027925268031909,0.671148893108607
211.52882205513785,0.6089551510863632,0.5733625776484825,-20.003986,-0.010858999999999952,0.02095999999999998,0.006809,0.0194604211597367,-0.0035604716740684,0.686088894052386
212.531328320802,0.6089552933306972,0.5733627815029392,-20.00651,-0.008373000000000186,0.014013000000000053,0.009698,0.0173485727648236,-0.003996803987067,0.7005577084580039
213.53383458646616,0.6089554390656898,0.5733629844847312,-20.015579,-0.006180999999999992,0.007826,0.0026290000000000003,0.015079644737231,-0.0037873644768275,0.7146600037207033
214.5363408521303,0.6089555839280176,0.5733631862447928,-20.022371,-0.008422999999999847,0.00820999999999994,-0.006200000000000001,0.0170518667919846,-0.0029321531433503,0.7292858279458305
215.5388471177945,0.6089557308847408,0.5733633871321897,-20.020973,-0.011924000000000046,0.015531000000000073,-0.008342,0.0212406569967709,-0.002129301687433,0.7446621786559007
216.54135338345864,0.6089558809830564,0.5733635859251914,-20.012966,-0.012402000000000024,0.022066999999999948,-0.004351,0.0214675497995302,-0.0021467549799529,0.759794200723984
217.5438596491228,0.6089560357937611,0.5733637821001993,-20.004864,-0.009724000000000066,0.020989000000000035,0.0029819999999999994,0.0192335283569775,-0.0029845130209102,0.7741931845062298
218.54636591478692,0.6089561951423218,0.5733639768789439,-20.001728,-0.006596999999999964,0.015101000000000031,0.005488000000000001,0.0163711883837068,-0.0035081117965085,0.7877543229810557
219.54887218045116,0.6089563565852776,0.5733641714831555,-20.00304,-0.006178000000000017,0.009277999999999897,0.002315,0.0159348560707082,-0.0034382986264287,0.801071202627065
220.55137844611528,0.6089565183772992,0.5733643641675049,-20.003588,-0.009814999999999907,0.00943000000000005,-0.0025239999999999998,0.016004669240788,-0.0031066860685498,0.8151036672663917
221.55388471177943,0.6089566836599795,0.5733645556301238,-20.000843,-0.01396799999999998,0.01296799999999998,-0.002569,0.019687313962496,-0.0033335788713091,0.8296073708037571
222.5563909774436,0.6089568513861205,0.5733647443002161,-19.997292,-0.014882000000000062,0.01605000000000001,0.001739,0.0201934594455743,-0.0042236967898261,0.8443204614914843
223.55889724310777,0.6089570213811897,0.573364931050446,-19.997295,-0.010504999999999987,0.015503000000000045,0.003404,0.019669860669976,-0.0047647488579445,0.8584925524709711
224.56140350877192,0.6089571945178515,0.5733651164044125,-20.000134,-0.006226000000000065,0.012961999999999918,0.0012159999999999999,0.0180990643431811,-0.0047647488579445,0.8721759338066064
225.56390977443607,0.6089573702725071,0.5733653003621157,-20.000843,-0.005237999999999854,0.01113900000000001,-0.0046099999999999995,0.0185179433636598,-0.0045378560551851,0.8862258342851608
226.56641604010025,0.608957547772492,0.5733654846688847,-19.99572,-0.011036000000000046,0.013179000000000052,-0.005975,0.0169820536219048,-0.004555309347705,0.9010960744187376
227.5689223057644,0.6089577280650038,0.5733656654849952,-19.986261,-0.017146000000000106,0.01624199999999998,-0.0016630000000000004,0.0195651409148564,-0.0050789081233033,0.9163328162419404
228.57142857142856,0.6089579113245752,0.5733658443812436,-19.979368,-0.018594999999999917,0.016604000000000063,0.0058130000000000005,0.0218864288200088,-0.0065624379874986,0.9312728171857192
229.5739348370927,0.6089580966785418,0.5733660194377675,-19.980598,-0.02515400000000012,-0.004219000000000084,0.00583,0.0046949356878647,-0.0085870199198121,0.946020797005194
230.5764411027569,0.6089582867448974,0.5733661943197585,-19.978893,0.037278000000000144,0.07660700000000009,-0.0007389999999999999,0.0614181363776804,-0.0606850980918427,0.9647307789464508
231.57894736842104,0.6089584942645455,0.5733663774047971,-20.026573,0.04791299999999987,0.08417499999999989,0.10873899999999999,0.011065387457644,-0.1718276474055491,1.0182076497742645
232.5814536340852,0.6089587146996299,0.5733665597917039,-20.1919,-0.09139599999999981,0.07091800000000004,0.105714,-0.0858876524906409,-0.21544344286618,1.1620576867236372
233.58395989974937,0.608958959394791,0.5733667308339706,-20.421146,-0.1602110000000001,0.17049500000000006,0.036455000000000015,0.0893783109946296,-0.2284286925010177,1.3117546464803609
234.58646616541355,0.6089592248593703,0.5733668814558851,-20.701916,-0.133204,0.164026,0.07444200000000001,0.0601789526087644,-0.2561096318909404,1.3796653902221678
235.58897243107768,0.6089595208672115,0.5733670078177229,-21.058332,-0.044452999999999965,0.12822199999999984,0.06869599999999998,0.0475253155318056,-0.2691297881108181,1.377518478162582
236.59147869674183,0.6089597561375947,0.5733671289435729,-21.473988,0.021504999999999996,0.10146600000000006,0.05291499999999999,0.0378212848907171,-0.2733534674473517,1.352455602463821
237.593984962406,0.6089600922880085,0.5733672422154414,-21.936247,0.03162299999999996,0.09069799999999995,0.040308999999999984,0.0112748269678833,-0.2712067124673987,1.3332221090134286
238.59649122807016,0.6089604654394025,0.5733673654356867,-22.431574,0.03070099999999998,0.07724900000000012,0.03008000000000005,0.0148178453494318,-0.2639461427791023,1.3212490805315773
239.59899749373432,0.6089608483646405,0.5733674987788415,-22.941427,0.029837000000000002,0.07525900000000019,-0.012198000000000042,0.0168424272817452,-0.2304532744333312,1.3133253729939856
240.6015037593985,0.6089612438562491,0.5733676387542475,-23.41287,0.02875800000000006,0.07682199999999995,-0.06361699999999998,0.0090233522328106,-0.1816887751326095,1.3070945126577806
241.60401002506265,0.6089616503434319,0.5733677825693778,-23.807875,0.026256999999999975,0.07158499999999979,-0.09028900000000001,0.0071907565182166,-0.1321214243759707,1.3015792373148936
242.6065162907268,0.6089620693969852,0.5733679302242326,-24.113066,0.02143600000000001,0.06558200000000003,-0.090088,0.0123569311041198,-0.0900938959879471,1.2974952715849823
243.60902255639093,0.6089624182883027,0.5733680932379848,-24.335815,0.01693,0.05151899999999987,-0.077327,0.0060039326268604,-0.057194439587854,1.2960290728402597
244.61152882205516,0.6089628331530659,0.5733682475250906,-24.494455,0.012338999999999989,0.045193999999999956,-0.05271299999999998,0.002129301687433,-0.0370882466048794,1.29730326791397
245.6140350877193,0.6089632719288398,0.573368400590466,-24.61195,0.011538999999999966,0.035258000000000234,-0.033733,-0.0015009831567151,-0.0246964089157197,1.2979314991782254
246.61654135338344,0.6089637222237869,0.5733685576700986,-24.700516,0.014776000000000011,0.025322999999999762,-0.025295000000000012,0.0060388392119003,-0.0181165176357009,1.2974602602801872
247.6190476190476,0.6089641781037874,0.573368717716791,-24.766493,0.015117000000000047,0.020239000000000118,-0.020069999999999998,-0.0025481807079117,-0.0148702052269915,1.2960290728402593
248.62155388471177,0.6089646366017819,0.5733688791597469,-24.812565,0.012378,0.02082000000000006,-0.019253,-0.0014660765716752,-0.0127758101245984,1.2938299754360387
249.62406015037595,0.608965098415902,0.573369042348032,-24.840572,0.007800000000000029,0.02321799999999996,-0.016033999999999996,-0.0003316125578789,-0.0126885436619987,1.2922592314691213
250.62656641604008,0.6089655644188122,0.5733692058853829,-24.856871,0.002834000000000003,0.024739999999999984,-0.005247000000000002,-0.0131597825600372,-0.014137166941154,1.2930970767765415
251.62907268170423,0.6089660344359799,0.573369369073668,-24.871788,0.003385999999999889,0.023301000000000016,0.0008710000000000002,-0.003979350694547,-0.0149225651045514,1.2932191800110109
252.6315789473684,0.6089665082928718,0.5733695331346176,-24.890165,-0.00046799999999991293,0.0030930000000002345,0.004706999999999999,-0.0065798912800186,-0.0148527519344716,1.2937776330117716
253.63408521303256,0.608966981277099,0.5733696961483699,-24.914373,-0.0022660000000001013,-0.005569000000000379,0.006022,-0.0136659280431155,-0.014468779499033,1.2948423711219508
254.63659147869672,0.6089674533886618,0.5733698595111878,-24.943693,0.0034970000000000834,-0.007094999999999629,0.0035010000000000006,-0.0116413461108021,-0.0133692220702765,1.2931842908792637
255.6390977443609,0.6089679241039611,0.5733700246193351,-24.972675,0.004812999999999956,-0.008426000000000045,-0.0030059999999999983,-0.0108734012399246,-0.0100880030765271,1.2923464630251362
256.64160401002505,0.6089683911540688,0.5733701888548176,-24.994558,-1.8999999999991246e-05,-0.005441999999999947,-0.010697000000000002,-0.0049916416607037,-0.00614355896702,1.2934460728137702
257.64411027568923,0.6089688554116499,0.5733703539629649,-25.005499,-0.0008109999999998951,-0.0018040000000003609,-0.011266,-0.0071209433481368,-0.0047822021504644,1.2946153386928514
258.6466165413533,0.6089693215890931,0.5733705176748487,-25.00877,-0.0024420000000000552,0.0013670000000001181,-0.004138,-0.0079412480965741,-0.0053058009260626,1.2956451876712831
259.64912280701753,0.6089697874174704,0.5733706824339301,-25.007717,-0.0031160000000001187,0.004207000000000072,-0.002605,-0.0026005405854715,-0.0057246799465413,1.2969368185842214
260.6516290726817,0.6089702555147759,0.5733708454476822,-25.003716,-0.002405999999999908,0.004681000000000157,-0.0017079999999999999,-0.0063180918922194,-0.0054803338512621,1.297495271584982
261.65413533834584,0.6089707232630153,0.573371007065171,-24.999729,-0.0040480000000000516,0.003425999999999707,0.0011819999999999999,-0.0098785635662879,-0.0054803338512621,1.2990311264201522
262.65664160401,0.6089711920584525,0.5733711678099951,-25.000151,-0.004824999999999857,-0.0006469999999998421,0.006861,-0.0059690260418206,-0.0057595865315811,1.3008461990290558
263.65914786967414,0.608971659806692,0.5733713273330886,-25.007414,-0.0022210000000000285,-0.0044520000000001225,0.006407,-0.0032463124087094,-0.0059690260418205,1.301649137751436
264.6616541353383,0.6089721306965241,0.5733714858089848,-25.01799,0.010354999999999892,-0.03599499999999978,-0.0028340000000000006,-0.0181688775132609,-0.0058293997016609,1.3086828146369731
265.6641604010025,0.6089725750573517,0.5733716350346358,-25.032312,-0.22357399999999994,-0.132911,-0.00711,-0.0571246264177744,0.0193207948195772,1.4748555429061834
266.66666666666663,0.608973010691533,0.5733717306786787,-24.989582,-0.38415800000000005,-0.027497000000000327,-0.06575,0.1243023493270361,0.0220609617452083,1.6711178696528233
267.6691729323308,0.6089733978055611,0.5733718107892914,-24.936752,-0.36750299999999997,-0.11456299999999997,0.026840000000000003,-0.0372627795300789,0.0125140107367993,1.8601196092578745
268.671679197995,0.6089737742730807,0.5733717997937172,-24.890293,-0.35183000000000003,-0.14978199999999964,-0.013857999999999995,0.0524122374373897,0.0192858882345374,2.043937651171332
269.6741854636591,0.6089741254333263,0.573371727711619,-24.844336,-0.31048499999999996,-0.17520500000000028,0.016936,0.0546288055874225,0.0058643062867009,2.2144389530651205
270.6766917293233,0.608974443432316,0.5733716132180202,-24.82402,-0.26217100000000004,-0.20612199999999992,0.023154,0.0279776279094691,0.0029670597283903,2.375602551474522
271.6791979949875,0.6089747212887329,0.573371457185585,-24.817553,-0.22135100000000008,-0.22555999999999998,0.010395,0.0598647933434055,-0.0012566370614357,2.5272716983794137
272.6817042606516,0.6089749583044454,0.5733712718316184,-24.825638,-0.18163699999999983,-0.2416560000000001,0.014314,0.0404392787687086,-0.0038048177693474,2.669079438304565
273.6842105263158,0.6089751529086569,0.5733710599486473,-24.841114,-0.15030699999999997,-0.24324299999999988,0.001932999999999999,0.0342957198016885,-0.0025656340004316,2.800241175938035
274.68671679198,0.6089753023088409,0.5733708257254616,-24.851095,-0.1230840000000002,-0.23167700000000002,-0.00867,0.0435983247148183,-0.0026878070480711,2.917370204586081
275.6892230576441,0.6089754105192545,0.5733705726527202,-24.853287,-0.09720499999999999,-0.20707599999999998,-0.0052499999999999995,0.0342084533390888,-0.0040142572795869,3.0172552580513767
276.69172932330827,0.6089754815541552,0.5733703040465482,-24.853041,-0.07660299999999998,-0.18822500000000003,0.002834,0.0255865268342368,-0.005166174585903,3.102776548478732
277.6942355889724,0.6089755194277999,0.5733700253174667,-24.857929,-0.06139799999999984,-0.172482,0.005589,0.0297927703315432,-0.0056548667764615,-3.108832840983152
278.69674185463657,0.6089755272817814,0.5733697382108048,-24.868488,-0.050212000000000145,-0.15726099999999998,0.005364,0.0158475896081085,-0.0049043751981039,-3.0516907263662727
279.69924812030075,0.6089755093048902,0.5733694418538977,-24.879116,-0.04343699999999995,-0.13139,-0.005935,0.0176976386152225,-0.0035430183815483,-3.0108152025510284
280.7017543859649,0.6089754698604491,0.5733691397374042,-24.882975,-0.04116199999999992,-0.096778,-0.009384,0.022444934180647,-0.0022165681500327,-2.9861711011529906
281.70426065162906,0.6089754148825777,0.5733688316867912,-24.87792,-0.04182100000000011,-0.059080999999999995,-0.005784,0.0166853476490657,-0.0035953782591082,-2.9751232542543296
282.70676691729324,0.6089753523997904,0.5733685164803284,-24.871655,-0.04307100000000008,-0.029168000000000027,0.002071,0.010751228192285,-0.0058817595792208,-2.97500101139352
283.70927318295736,0.6089752872990093,0.573368195165213,-24.870764,-0.043602999999999836,-0.0028249999999999664,0.009832,0.00307177948351,-0.0090757121103703,-2.9836751930561767
284.71177944862154,0.6089752235944916,0.5733678665197148,-24.879944,-0.04027700000000012,0.010948999999999987,0.010235,-0.0031590459461097,-0.0112399203828434,-2.998947085810514
285.7142857142857,0.6089751646023629,0.5733675340344924,-24.89806,-0.03507199999999999,0.024409000000000014,0.006923,-0.0032986722862692,-0.0108384946548847,-3.0205016402732565
286.71679197994985,0.6089751117188866,0.5733671952660846,-24.916895,-0.03276900000000005,0.03984399999999999,-0.003956000000000001,-0.0094422312532893,-0.0087615528450115,-3.0459659940598542
287.719298245614,0.6089750675620565,0.573366851436222,-24.929155,-0.03136699999999992,0.05223,-0.008710999999999998,-0.0117460658659218,-0.0078888882190142,-3.0713081049856417
288.7218045112781,0.608975033702669,0.573366503766635,-24.932991,-0.028866999999999976,0.062827,-0.008108,-0.0123394778115999,-0.0077143552938148,-3.0962664529155006
289.72431077694233,0.6089750164239094,0.573366151384659,-24.93325,-0.022629999999999928,0.067911,0.00315,-0.0137531945057153,-0.0099134701513277,-3.1181704222944924
290.7268170426065,0.6089750122351192,0.5733657962101563,-24.942076,-0.01572400000000007,0.057842000000000005,0.010432,-0.0123743843966397,-0.0104370689269259,-3.135187225421804
291.72932330827064,0.6089750181692387,0.5733654401629887,-24.961895,-0.01246500000000017,0.037658,0.010881,-0.0160570291183478,-0.0099832833214075,3.1367755274009963
292.7318295739348,0.6089750289902801,0.5733650839412885,-24.987768,-0.0115949999999998,0.01863,-0.0007010000000000002,-0.0081681408993334,-0.0080459678516937,3.130963441365515
293.734335839599,0.6089750420802494,0.5733647231817321,-25.008087,-0.010240000000000027,0.007605000000000001,-0.009997,-0.0075747289536553,-0.0048694686130641,3.129235844658721
294.7368421052631,0.608975054821153,0.5733643610259123,-25.01449,-0.00890000000000013,0.0034049999999999983,-0.014131999999999999,-0.0113970000155229,-0.0021991148575128,3.1312079270871345
295.7393483709273,0.6089750672129907,0.5733639990446254,-25.010012,-0.00727499999999992,0.00011699999999999905,-0.006444999999999999,-0.0156556033903891,-0.0024958208303518,3.136548634598237
296.7418546365915,0.6089750816992235,0.5733636356670752,-25.004482,-0.00857999999999981,-0.007954000000000003,0.002482,-0.0129677963423178,-0.0039269908169872,-3.139428567490368
297.7443609022556,0.6089750933929294,0.5733632705441957,-25.000332,-0.006797000000000164,-0.013419999999999998,-0.001032,-0.0049567350756638,-0.0036826447217079,-3.131783973006756
298.7468671679198,0.6089751012469111,0.5733629050722503,-24.994936,-0.0050560000000001715,-0.017863,-6.200000000000042e-05,-0.0131597825600372,-0.0037873644768275,-3.1232317549522284
299.749373433584,0.608975103690372,0.5733625399493707,-24.993784,-0.0008549999999996061,-0.021314,0.008567,-0.006754424205218,-0.0050090949532237,-3.1149240226193204
300.7518796992481,0.6089751021195757,0.573362172906629,-25.000715,-0.0020809999999999995,-0.020603999999999997,0.006842000000000001,-0.0081506876068135,-0.0045902159327451,-3.1090421757736366
301.7543859649123,0.608975099327049,0.5733618079582825,-25.012173,-0.0006800000000000139,-0.015124000000000005,0.0020349999999999986,-0.0081855941918534,-0.0034208453339088,-3.1053070839079058
302.7568922305764,0.6089750907749356,0.5733614431844688,-25.021961,-0.0006090000000003037,-0.00945,-0.004052999999999999,-0.0060213859193804,-0.0021118483949131,-3.1043472749923566
303.7593984962406,0.6089750820482892,0.5733610782361221,-25.024973,0.0002460000000001905,-0.005020999999999991,-0.008982,-0.0107337748997651,-0.0015533430342749,-3.10501067464104
304.7619047619048,0.6089750708781821,0.573360712240578,-25.020594,-0.002367000000000008,0.0013699999999999962,-0.0066560000000000005,-0.0089535390627309,-0.001483529864195,-3.1082221851844647
305.7644110275689,0.6089750623260687,0.5733603455469022,-25.009684,-0.005936999999999859,0.012104999999999998,-0.0047870000000000005,-0.0092502450355699,-0.0017627825445141,-3.1132659423766333
306.76691729323306,0.6089750565664822,0.5733599781550947,-24.995302,-0.0057280000000003994,0.018902000000000002,-0.0036439999999999997,-0.0110828407501639,-0.0020245819323132,-3.1185019824924933
307.76942355889724,0.6089750544720871,0.5733596091924908,-24.984306,-0.0034329999999997973,0.020746,0.010872,-0.0111177473352038,-0.0047123889803846,-3.123109512091418
308.77192982456137,0.6089750565664822,0.5733592404044199,-24.988132,-3.999999999981796e-05,0.00954,0.017027,-0.0101578162466069,-0.0061610122595399,-3.125396102851041
309.77443609022555,0.6089750598826078,0.5733588716163489,-25.004778,0.0022209999999995844,-0.000529,0.006152000000000001,-0.008918632477691,-0.0053058009260626,-3.1271063858916555
310.77694235588973,0.6089750621515359,0.5733585045736073,-25.023485,0.002962000000000131,-0.011337,-0.003445000000000002,-0.0115540796482024,-0.0023038346126325,-3.126286133503096
311.77944862155385,0.6089750619770029,0.5733581361346021,-25.030344,0.001895000000000202,-0.008581999999999998,-0.018094,-0.0100880030765272,0.0010471975511967,-3.126687471964592
312.78195488721803,0.6089750611043382,0.5733577683937288,-25.02001,-0.0006450000000000067,0.005304,-0.014208,-0.0122173047639603,0.0006806784082777,-3.1289913763903945
313.7844611528822,0.6089750591844761,0.5733574004783224,-25.000246,-0.0037329999999999863,0.016467,-0.003960999999999999,-0.0142244334037537,-0.0021467549799529,-3.1315219118195685
314.78696741854634,0.6089750621515359,0.5733570316902514,-24.983303,-0.003855000000000164,0.016982,0.007949,-0.0095644043009289,-0.0041713369122664,-3.1313999307581466
315.7894736842105,0.6089750691328528,0.5733566620295159,-24.976707,-0.0030079999999998996,0.0042190000000000005,0.01423,-0.0091629785729702,-0.005201081170943,-3.1288342443978374
316.79197994987464,0.6089750769868345,0.573356292892379,-24.986937,0.010796999999999723,-0.024721,0.019694000000000003,-0.004921828490624,-0.005532693728822,-3.13112083515746
317.7944862155388,0.6089750860625466,0.5733559405104031,-25.005627,0.2393270000000003,0.16602,-0.033468,0.0176278254451427,0.0175580122750629,2.9612652178204466
318.796992481203,0.608975164253297,0.5733556385684425,-24.983433,0.3493679999999999,0.49031900000000006,-0.012804,-0.0647168086639497,0.0133343154852367,2.651486589257633
319.7994987468672,0.6089752677513216,0.5733554043452569,-24.960457,0.3661380000000001,0.37895499999999993,-0.014761,0.0150447381521911,0.0166329877715061,2.391641970220717
320.8020050125313,0.6089754593884736,0.5733552357464512,-24.915972,0.35704800000000003,0.28461000000000003,-0.009722000000000001,-0.0590968484725279,0.0169820536219049,2.161415815482948
321.8045112781955,0.6089757306126394,0.5733551181112595,-24.869595,0.3383489999999999,0.21830700000000003,0.016094999999999998,0.0007679448708775,0.006736970912698,1.9552400011316875
322.8070175438596,0.6089760386632523,0.5733550455055626,-24.833786,0.316709,0.15793400000000002,-0.004278999999999998,-0.0190240888467381,0.0072431163957764,1.77063661341471
323.8095238095238,0.6089763735919358,0.5733550201982884,-24.810066,0.315749,0.11027399999999998,0.028436,-0.0062133721370998,0.0025132741228719,1.5997163975938575
324.812030075188,0.6089767252757801,0.5733550392223774,-24.810802,0.29919,0.06149800000000005,0.022296000000000003,0.0133517687777566,0.0045204027626652,1.444399634725345
325.8145363408521,0.608977084639073,0.5733551039740925,-24.823565,0.29047,0.018516999999999895,0.000756999999999999,0.0051138147083433,0.0054279739737024,1.3049477402245353
326.8170426065163,0.6089774445259648,0.5733552123590392,-24.840227,0.268883,-0.010140000000000038,0.0003320000000000007,0.0057944931166211,0.005253441048503,1.1841186484688453
327.8195488721804,0.6089778017948627,0.5733553612356244,-24.850418,0.23503400000000008,-0.013307999999999875,-0.006217,0.0174009326423834,0.0059166661642608,1.0952639537031066
328.8220551378446,0.60897815784203,0.5733555436225312,-24.846264,0.17775699999999994,0.0037079999999998225,-0.014045,0.0121474915938805,0.0039618974020272,1.044195497616705
329.8245614035088,0.6089785156345267,0.5733557544583048,-24.834871,0.12012500000000004,0.033473000000000086,-0.005634999999999999,0.0271224165759918,0.0009773843811169,1.0291682127570336
330.8270676691729,0.6089788804083404,0.5733559813511075,-24.823698,0.055439000000000016,0.06082199999999993,0.005704999999999999,0.0164410015537865,-0.0019547687622336,1.0516655417218257
331.8295739348371,0.6089792579230576,0.5733562106873713,-24.820742,-0.019094000000000166,0.07980699999999996,0.01015,0.0224100275956071,-0.0048694686130641,1.107795382825841
