Time [s],Longitude [rad],Latitude [rad],Altitude [m],V North [m/s],V East [m/s],V Down [m/s],Roll [rad],Pitch [rad],Yaw [rad]
2.0050125313283207,0.6090016192559671,0.5733585396547252,-14.982712,-0.002468000000000201,0.002829999999999895,0.002164,0.0319046187264563,-0.0061959188445797,0.1432042651261347
3.007518796992481,0.6090016557333485,0.5733588169875433,-14.97636,-0.0086269999999996,-0.0022819999999998952,0.010005,0.0317649923862968,-0.0069638637154572,0.1649859741910239
4.010025062656641,0.6090016981448493,0.5733590936222298,-14.97682,-0.0034790000000002,-0.006113000000000004,0.0012250000000000004,0.0351509311351657,-0.0084823001646923,0.1865582437456739
5.012531328320802,0.6090017461414037,0.5733593688606528,-14.982259,0.00442,0.0032969999999999007,-0.0066220000000001,0.0362679418564421,-0.0095818575934487,0.2077639941574049
6.015037593984962,0.6090018004211435,0.5733596449717405,-14.984674,0.0035520000000000005,0.009288000000000102,-0.0056249999999999,0.0336324946859307,-0.0094596845458092,0.2291442774943355
7.017543859649122,0.6090018602859367,0.5733599216064269,-14.982932,-0.0019309999999999002,0.0027749999999998956,0.004225,0.0365122879517213,-0.00918043186549,0.2505943740013458
8.020050125313283,0.6090019295755081,0.5733601989392451,-14.984282,-0.0025000000000001002,-0.011484999999999999,0.006916,0.035395277230445,-0.0094771378383291,0.2716430447803974
9.022556390977442,0.6090020037520013,0.5733604760975303,-14.990329,-8.99999999999e-05,-0.008905999999999997,-0.004265,0.032620203719774,-0.0099832833214075,0.2922379125006381
10.025062656641603,0.6090020817682188,0.5733607536048813,-14.993146,-0.0010220000000001,0.009141000000000097,-0.009508,0.0358490628359635,-0.0097389372261282,0.3138625593861403
11.027568922305765,0.6090021657185558,0.5733610300650349,-14.98827,-0.0030319999999999002,0.012885,0.0032840000000000005,0.0376467519655176,-0.0100530964914873,0.3362725869817475
12.030075187969924,0.6090022575228745,0.5733613056525237,-14.98532,-0.0016429999999998997,0.00026600000000000235,0.013223,0.036006142468643,-0.0109083078249645,0.3580368427541168
13.032581453634084,0.6090023577047736,0.5733615810654797,-14.993448,0.0035329999999997998,-0.0158160000000001,0.0016409999999998995,0.0349589449174464,-0.011309733552923,0.3786840703519172
14.035087719298245,0.6090024624245287,0.5733618552567051,-15.008282,0.0036839999999999,-0.007727000000000001,-0.0090599999999999,0.0360235957611629,-0.0104021623418861,0.3995582256590618
15.037593984962406,0.6090025694132118,0.5733621297969965,-15.018021,-0.0013080000000000127,0.009027000000000101,-0.010253,0.0352731041828053,-0.0087964594300513,0.4217239071593898
16.040100250626566,0.609002683732278,0.5733624045118209,-15.018629,-0.007662999999999687,0.01269,0.0008440000000000999,0.0392524548773524,-0.0074700091985355,0.4453207411930606
17.042606516290725,0.6090028062543914,0.5733626780049146,-15.014297,-0.0066540000000002,0.0018589999999999024,0.0066869999999999,0.0404916386462684,-0.007033676885537,0.468760530500637
18.045112781954884,0.609002937503151,0.5733629478328169,-15.011497,0.0009539999999998994,-0.004934000000000001,0.005143,0.0404916386462684,-0.0080983277292536,0.4913101844364037
19.047619047619047,0.6090030755586949,0.5733632167880547,-15.014365,0.0074790000000003005,-0.007411000000000001,0.00239,0.038763762686794,-0.00921533845053,0.5117130833922174
20.050125313283207,0.6090032191992923,0.5733634850451608,-15.023951,0.0043069999999998,-0.0027089999999999025,-0.00019500000000000073,0.0405265452313083,-0.0085521133347721,0.5322730619807107
21.052631578947366,0.609003367377746,0.5733637538258655,-15.037676,-0.0018289999999999,-0.002131000000000098,-0.0043600000000001,0.0395317075576715,-0.0064053583548191,0.5542467921699044
22.05513784461153,0.6090035204431213,0.5733640213848399,-15.048869,-0.006662999999999999,0.004639999999999998,-0.0074969999999999,0.0375769387954379,-0.0040317105721068,0.5784893805735206
23.05764411027569,0.6090036785699515,0.5733642871984849,-15.050676,-0.007115,0.007871000000000104,-0.004112,0.0401251195033496,-0.0028274333882307,0.6033079799901725
24.06015037593985,0.6090038442016976,0.5733645498705373,-15.043322,-8.400000000020197e-05,0.0025179999999999994,0.0034010000000001,0.0425511271636217,-0.0029845130209102,0.6275506033003738
25.062656641604008,0.6090040182110239,0.573364809750063,-15.035205,0.002775000000000201,0.0016569999999999016,0.011099999999999801,0.0439822971502571,-0.0043284165449459,0.6515139390236708
26.065162907268167,0.6090042016451284,0.5733650670115946,-15.032809,0.0006849999999999998,-0.004304999999999906,-9.899999999990038e-05,0.0407010781565077,-0.0052708943410229,0.674238160791222
27.06766917293233,0.6090043918860168,0.5733653220041984,-15.034649,-0.0026440000000000994,-0.0027510000000001977,-0.002123,0.0408057979116274,-0.0056199601914217,0.6965260153391896
28.07017543859649,0.6090045877119589,0.5733655740297424,-15.036181,-0.0024469999999998,-0.0018579999999997002,-0.004147,0.03998549316319,-0.0050265482457436,0.7178888279303077
29.07268170426065,0.6090047891229545,0.5733658232627596,-15.03613,0.0009829999999996994,-0.0013910000000003017,0.002106,0.0431619924018197,-0.0039269908169872,0.7387978374626146
30.07518796992481,0.6090049966426027,0.5733660705759146,-15.036899,0.005018000000000201,-0.0052019999999996965,0.0010730000000000002,0.0410675972994265,-0.0034382986264287,0.7599861520351182
31.07769423558897,0.6090052090491727,0.57336631492201,-15.037781,-0.0013669999999999013,0.001602999999999799,-0.0041729999999999,0.0419228086329037,-0.0034906585039886,0.7816282522131405
32.08020050125313,0.6090054282625267,0.5733665569991772,-15.031874,-0.007206000000000299,0.007805999999999997,-0.0076480000000001,0.0446455222660149,-0.0037000980142278,0.8040906222330152
33.08270676691729,0.6090056551553293,0.5733667948875542,-15.016734,-0.007805999999999702,0.0072340000000001015,0.0048780000000001,0.0472460628514865,-0.0050963614158234,0.8258025181278245
34.08521303258145,0.6090058899021138,0.573367028587141,-15.002558,0.002220999999999803,-0.0023349999999998997,0.0140549999999998,0.0488692190558412,-0.0075747289536554,0.8456993239604375
35.08771929824561,0.6090061333755444,0.573367257399806,-14.999967,0.008954000000000097,-0.010615000000000298,0.005195000000000101,0.0463210383479295,-0.0089535390627308,0.8634143984148874
36.09022556390977,0.6090063817358969,0.5733674839435429,-15.007959,0.0048889999999999,-0.009011999999999801,-0.007753,0.0418879020478638,-0.0082030474843732,0.8797331920144491
37.092731829573935,0.6090066328887764,0.5733677076947529,-15.016387,-0.006796,-0.001169,-0.010634,0.0430572726467001,-0.0062482787221396,0.8977100658566984
38.095238095238095,0.609006888230446,0.5733679283043704,-15.018111,-0.0073379999999999,0.0048709999999999,-0.0017440000000000008,0.0474031424841659,-0.005497787143782,0.9165596392315296
39.097744360902254,0.6090071477609057,0.5733681448997306,-15.017496,0.0020689999999999008,0.0031200000000000012,0.009264000000000001,0.0505272818452358,-0.0068242373752978,0.9349031020298676
40.100250626566414,0.6090074127018862,0.5733683578298994,-15.019654,0.007373999999999999,-0.0008100000000000017,-0.0003520000000000003,0.0451865743341332,-0.0078016217564145,0.9526879547478124
41.10275689223057,0.609007683751519,0.5733685688402059,-15.021162,0.0023510000000000024,0.0012280000000002012,-0.0076089999999999994,0.0469493568786474,-0.0070511301780569,0.970577614487339
42.10526315789473,0.6090079605607384,0.5733687779306502,-15.016326,-0.0033759999999997993,0.0009449999999998002,-0.0015310000000000002,0.0455181868920121,-0.006457718232379,0.9899856583162238
43.10776942355889,0.6090082438276759,0.5733689830068374,-15.006411,-0.0101190000000002,0.0007600000000001009,0.004633,0.0447327887286146,-0.0061610122595399,1.0100569796207437
44.11027568922306,0.6090085325051343,0.5733691833706356,-14.999037,-0.0030999999999999014,-0.007369000000000202,0.009901,0.0441568300754565,-0.0071034900556168,1.0295348017131227
45.11278195488722,0.6090088251968497,0.5733693776257812,-15.003215,0.00040699999999980335,-0.0044069999999998,0.0056779999999999,0.0458148928648511,-0.0086568330898917,1.049047582750419
46.11528822055138,0.6090091192848288,0.5733695666449392,-15.018343,0.0039570000000001965,0.000994000000000099,-0.0065679999999999,0.0476474885794451,-0.0084473935796525,1.0692759487810335
47.11779448621554,0.6090094165144004,0.5733697507771753,-15.032555,0.004878,0.004568999999999601,-0.015484,0.0476300352869252,-0.0069987703004972,1.0902723120424027
48.1203007518797,0.6090097196780914,0.5733699319423516,-15.032673,-0.00039600000000010113,0.003930000000000201,-0.008407999999999999,0.0485550597904822,-0.0049043751981039,1.1122111007399715
49.122807017543856,0.6090100299976324,0.5733701097914026,-15.017225,-0.008091999999999998,0.005639000000000199,0.005802999999999999,0.0499513231920777,-0.0055850536063817,1.134115000305793
50.125313283208015,0.6090103474730234,0.5733702825789984,-14.999555,-0.007000999999999799,0.0013029999999999015,0.0160839999999999,0.0482234472326033,-0.0080110612666539,1.1567344325050546
51.127819548872175,0.6090106708825338,0.5733704487343433,-14.992517,-0.002428000000000298,-0.0092270000000001,0.0108340000000001,0.0488866723483611,-0.0090582588178504,1.1794759679387854
52.130325814536334,0.6090109981317685,0.5733706079083709,-15.002338,0.002194000000000196,-0.014157000000000001,0.0009059999999999971,0.0482409005251232,-0.008604473212332,1.2010831266251825
53.1328320802005,0.6090113274753984,0.5733707611482793,-15.024832,0.002155999999999998,-0.004202999999999801,-0.009860999999999998,0.0502654824574366,-0.0083077672394928,1.2215210194324988
54.13533834586466,0.6090116578662258,0.5733709077559365,-15.044678,-0.0005719999999999961,0.0138319999999997,-0.0190569999999999,0.0534419816960663,-0.0077143552938148,1.2418890118032728
55.13784461152882,0.6090119926203763,0.5733710484294742,-15.045429,0.0015369999999999967,0.015123000000000202,-0.009506000000000101,0.0548906049752216,-0.0064926248174188,1.262169772618032
56.14035087719298,0.6090123355775743,0.573371184390623,-15.026434,0.005568999999999904,-0.0010250000000001022,0.008398000000000001,0.0489564855184409,-0.0053756140961425,1.28108900208331
57.14285714285714,0.6090126860396881,0.5733713152903168,-15.007834,-0.0018389999999998997,-0.0136069999999999,0.025017,0.0423591409459023,-0.0061261056745001,1.3002702927357754
58.1453634085213,0.6090130399924605,0.5733714426993521,-15.009281,-0.0032030000000001016,-0.0158070000000001,0.013224999999999999,0.044610615680975,-0.0075921822461753,1.3192245509591414
59.14786967418546,0.6090133925489694,0.5733715634761365,-15.032302,-0.0034189999999999013,-0.0053019999999999,-0.0106170000000001,0.0487295927156816,-0.0074700091985355,1.3380915776264923
60.15037593984962,0.6090137442328136,0.5733716781442683,-15.058142,-0.002041000000000001,0.008744000000000099,-0.021058999999999897,0.0476300352869252,-0.0049916416607036,1.3583723384412518
61.15288220551378,0.6090140990582507,0.5733717853074844,-15.065845,0.001145999999999904,0.013493999999999801,-0.0190459999999999,0.0514872129338327,-0.002129301687433,1.378688005841051
62.15538847117794,0.6090144592942082,0.5733718874092457,-15.051023,0.0057060000000001,0.005086,0.0087569999999999,0.051696652444072,-0.0006632251157578,1.3982007170651776
63.1578947368421,0.609014825987884,0.5733719844495521,-15.028008,0.0004689999999999972,-0.006049999999999899,0.020376,0.0446455222660149,-0.001483529864195,1.4181848068136829
64.16040100250626,0.6090151972194159,0.5733720762538708,-15.015758,-0.001660000000000099,-0.012080000000000101,0.011870999999999899,0.0439473905652172,-0.0031241393610697,1.4379767532648358
65.16290726817043,0.609015568101882,0.5733721621240698,-15.020795,-0.0036779999999998966,-0.009674,0.0006170000000001018,0.0447153354360947,-0.0044854961776252,1.4577338280375338
66.16541353383458,0.6090159377626175,0.5733722415365509,-15.034849,-0.002465000000000002,0.0016130000000001,-0.013582000000000101,0.0467399173684081,-0.0040666171571466,1.4785730593063462
67.16791979949875,0.6090163086450835,0.5733723150149124,-15.044504,-0.001989000000000102,0.009755,-0.0116539999999999,0.0497418836818383,-0.0023561944901921,1.5005293536563125
68.1704260651629,0.6090166824946094,0.5733723818610228,-15.042985,0.0018710000000001017,0.0057540000000000004,3.0000000000000512e-05,0.0534594349885863,-0.0007679448708775,1.5224506367014838
69.17293233082707,0.6090170591366619,0.5733724427730136,-15.033721,0.0023309999999998957,-0.0035940000000003,0.0039429999999999995,0.0508763476956347,-0.0001221730476395,1.5446163880149817
70.17543859649122,0.6090174390948401,0.5733724974018193,-15.024077,-0.0034579999999998987,-0.0064679999999995,0.008485,0.0512952267161133,-0.0010646508437164,1.5663456499358486
71.17794486215539,0.6090178209728804,0.5733725452238407,-15.019212,-0.0027700000000000988,-0.0042200000000001,0.002872,0.05232497097479,-0.0031066860685498,1.587691026687739
72.18045112781954,0.6090182033745195,0.573372586239078,-15.020012,-0.0029689999999999023,0.0025249999999994,2.9999999998997842e-06,0.0515046662263526,-0.0046600291028247,1.6093331966789313
73.1829573934837,0.6090185856016257,0.5733726185276693,-15.025208,0.0031359999999999028,0.0018540000000006997,-0.0028599999999999997,0.0502829357499566,-0.0043982297150255,1.6304865523065175
74.18546365914787,0.6090189685268637,0.5733726436604105,-15.03221,0.002356000000000101,-0.0008250000000003003,-0.0016019999999999,0.0481885406475634,-0.0026354471705114,1.6515178046996344
75.18796992481202,0.6090193538955625,0.5733726618118348,-15.038701,0.0016429999999999015,-0.0062980000000000995,-0.005117,0.051696652444072,0.0001047197551196,1.6735437376867552
76.19047619047619,0.6090197390897284,0.5733726736800736,-15.041551,-0.0016280000000000044,-0.0043349999999997,0.00020899999999999998,0.0531976356007871,0.001239183768916,1.6962156344833317
77.19298245614034,0.6090201237602956,0.5733726794396602,-15.040958,-0.004468,0.0023559999999998,0.0013249999999999998,0.0537561409614253,0.0008377580409573,1.718678074316376
78.19548872180451,0.6090205080817969,0.5733726771707321,-15.03637,-0.0003470000000000001,0.0056100000000003,-0.0033779999999999995,0.0558505360638185,0.0013089969389958,1.739883754914937
79.19799498746866,0.6090208931014298,0.5733726679204871,-15.025091,0.0016310000000001046,0.0019579999999997004,0.0001260000000001,0.0543320996145834,0.0011344640137964,1.7606183187885072
80.20050125313283,0.6090212810881226,0.5733726511653263,-15.01231,-0.0007220000000001045,-0.0049450000000002,0.006676999999999799,0.0533547152334666,0.0002443460952792,1.781213221415333
81.203007518797,0.6090216682021505,0.5733726272543156,-15.005013,0.0038650000000000004,-0.0092829999999994,0.0085890000000001,0.0524645973149495,-0.0002094395102392,1.8009702787347386
82.20551378446115,0.6090220514764544,0.573372596012922,-15.01017,0.004240000000000098,-0.005742000000000199,0.0044669999999999,0.0546637121724624,-0.0010471975511965,1.819889647826357
83.20802005012531,0.6090224338780935,0.5733725583138101,-15.024814,0.0021869999999999043,0.0036099999999997003,-0.0122099999999999,0.0553443905807401,-0.000558505360638,1.83826798230315
84.21052631578947,0.6090228136617386,0.573372516425908,-15.030959,0.0011960000000000998,0.006767000000000399,-0.018893,0.0554840169208997,0.0011868238913561,1.8575014583002496
85.21303258145363,0.6090231941435156,0.5733724679057548,-15.018404,-0.0028860000000001038,0.0047379999999996,-0.0014260000000000002,0.0585383431118898,0.0013788101090754,1.8777124583048068
86.21553884711778,0.6090235753234242,0.5733724146732126,-14.993446,-0.003166999999999899,-0.0006619999999996999,0.013670000000000002,0.0580671042138513,-0.000925024503557,1.897661536748517
87.21804511278195,0.6090239573759975,0.5733723548084193,-14.971551,-0.0007970000000000962,-0.005171000000000201,0.015338999999999998,0.054768431927582,-0.0042935099599059,1.917593301526048
88.22055137844612,0.6090243359379123,0.5733722879623089,-14.968103,-0.002819999999999899,-0.0078879999999999,0.0122439999999999,0.0525693170700692,-0.0072256631032565,1.9383451790657973
89.22305764411027,0.6090247124054319,0.5733722141348816,-14.983008,-0.0006440000000001028,-0.0079120000000001,-0.0118379999999999,0.0537910475464652,-0.0072256631032565,1.959690555817688
90.22556390977444,0.6090250843350955,0.5733721328025385,-15.002242,0.002124000000000098,-0.003514999999999699,-0.013072,0.055065137900421,-0.0054803338512621,1.9811407221378683
91.2280701754386,0.6090254520759689,0.5733720446634113,-15.015203,0.004243999999999901,0.007205999999999799,-0.0069939999999999,0.0575609587307729,-0.0034208453339088,2.00220684620944
92.23057644110276,0.6090258165007167,0.5733719514628292,-15.017543,0.0009090000000001042,0.0073110000000001,-0.0015740000000000996,0.057246799465414,-0.0020071286397933,2.022522513609239
93.23308270676692,0.609026179878267,0.5733718518045289,-15.010975,-0.0002450000000000993,0.003317999999999899,0.0024969999999999992,0.0562868683768171,-0.0015533430342749,2.0423843604969347
94.23558897243107,0.6090265432558173,0.5733717446413128,-14.998349,-0.007131999999999902,-0.002485999999999799,0.0037080000000001,0.0530231026755877,-0.0025132741228717,2.063520140658953
95.23809523809524,0.6090269047135054,0.5733716306713127,-14.984652,-0.0022800000000001014,-0.008927000000000301,0.0066849999999999,0.0540528469342643,-0.0042586033748661,2.084254721985816
96.2406015037594,0.609027262680535,0.5733715100690613,-14.976855,0.002722000000000002,-0.006292999999999899,0.007096999999999899,0.0580845575063712,-0.0057072266540214,2.1046575860350445
97.24310776942356,0.6090276159351755,0.5733713824854931,-14.982265,0.006149000000000002,-0.0016259999999999018,0.0056160000000001,0.0640361302556719,-0.007033676885537,2.123751662584788
98.24561403508773,0.609027964826493,0.5733712489678053,-14.999119,0.004624999999999997,0.0035110000000000002,-0.0098770000000001,0.0578053048260521,-0.0070511301780569,2.1417808613980114
99.24812030075188,0.6090283081327569,0.5733711103886626,-15.013345,6.000000000010164e-05,0.0018949999999997996,-0.0149569999999998,0.0555189235059396,-0.0052534410485027,2.1598622630091624
100.25062656641605,0.6090286489955599,0.5733709660499334,-15.015697,0.0006989999999999982,0.0031170000000003,-9.900000000009901e-05,0.0602836723638841,-0.0032812189937492,2.1778567123169794
101.2531328320802,0.6090289860186383,0.5733708157770849,-15.013022,-0.001346,-6.00000000019682e-06,0.011002999999999999,0.0605280184591633,-0.0021118483949129,2.1953973585659847
102.25563909774436,0.6090293200746572,0.5733706604427814,-15.015333,-0.003682000000000102,-0.008050999999999801,0.006526999999999899,0.0563566815468969,-0.0012740903539558,2.213234675881244
103.25814536340852,0.6090296501164187,0.5733704984762269,-15.023215,-0.003352000000000001,-0.005964000000000299,-0.0059319999999999,0.0654149403647474,-0.0009948376736366,2.2321713411857504
104.26065162907268,0.6090299749221925,0.5733703307500857,-15.026123,0.003136,0.0033760000000001983,-0.011452,0.0612959633300408,-0.0004537856055184,2.249101052383388
105.26315789473684,0.6090302939683797,0.5733701583115557,-15.014884,0.010437000000000102,0.0121589999999999,-0.006687999999999998,0.0529532895055079,-0.001169370598836,2.264652058191705
106.265664160401,0.609030610920172,0.5733699809861037,-14.993383,0.005695999999999899,0.0063320000000002,0.013151999999999999,0.0507367213554751,-0.0026005405854714,2.280988148004154
107.26817042606515,0.609030925777569,0.5733697991227956,-14.976014,-0.0033049999999998983,-0.0066720000000002,0.01384,0.051068333913354,-0.0038571776469074,2.2988427789855934
108.27067669172932,0.6090312380169722,0.5733696148160267,-14.976242,-0.000892000000000101,-0.013342000000000001,0.0110089999999999,0.0469144502936075,-0.0047822021504644,2.3170465630838946
109.27318295739347,0.609031542053328,0.5733694257968687,-14.997536,-0.005000999999999797,-0.012983999999999898,-0.0028249999999999005,0.0447502420211346,-0.0044854961776252,2.3356695054553542
110.27568922305764,0.6090318373630373,0.5733692310181241,-15.026827,-0.0037910000000001,-0.003396000000000003,-0.024115,0.0491833783212002,-0.0011868238913561,2.354169960619909
111.2781954887218,0.6090321244696992,0.5733690294325956,-15.038817,-0.000654000000000203,0.009052999999999804,-0.020208,0.052010811709431,0.0014486232791552,2.3719548133378536
112.28070175438596,0.6090324059913076,0.5733688229601449,-15.023211,0.007031000000000301,0.020000000000000198,-0.0012139999999999998,0.0499164166070378,0.0017278759594745,2.388814746271996
113.28320802005013,0.6090326857675867,0.5733686114262396,-14.989505,0.006899999999999899,0.010395000000000001,0.020265000000000102,0.0496371639267187,-0.0011519173063161,2.4057268820040663
114.28571428571428,0.6090329655438659,0.5733683976234063,-14.962176,0.0028059999999998017,-0.0085690000000001,0.024611999999999898,0.0442615498305761,-0.0053930673886624,2.423564216772619
115.28822055137844,0.6090332427021511,0.5733681808535133,-14.958897,-0.006132999999999701,-0.020853,0.0072000000000000015,0.0415911960750248,-0.0076969020012949,2.443565620187304
116.2907268170426,0.6090335118319218,0.5733679609420274,-14.977968,-0.0005720000000002008,-0.012227000000000002,-0.008674000000000001,0.0404916386462684,-0.0075049157835755,2.463514820804061
117.29323308270676,0.6090337722350462,0.5733677364926856,-15.005541,-0.003315999999999899,-0.0015549999999998967,-0.015292,0.044313909708136,-0.0043633231299857,2.482957753764693
118.29573934837092,0.6090340214680634,0.5733675071564219,-15.024718,-0.000845000000000002,0.010054999999999897,-0.017993,0.0500560429471973,-0.0006806784082777,2.501335966068438
119.29824561403508,0.6090342644178951,0.5733672725841705,-15.025714,0.003242999999999902,0.009311,-0.0015880000000000026,0.0519759051243911,0.0014660765716751,2.518893925983624
120.30075187969923,0.6090345012590747,0.5733670341721947,-15.010946,0.0082709999999999,0.0062170000000002015,0.007938000000000101,0.0496720705117586,0.0004712388980385,2.5358585263130085
121.3032581453634,0.6090347346095957,0.573366792793159,-14.993534,0.004578000000000198,0.0005489999999999003,0.0134459999999998,0.0446804288510548,-0.0023212879051524,2.552788237510646
122.30576441102755,0.6090349656911886,0.5733665493197284,-14.985658,-0.0008509999999998987,-0.005673000000000001,0.0095670000000001,0.0442790031230961,-0.0052359877559828,2.5712713790090214
123.30827067669172,0.6090351897914645,0.5733663039264356,-14.989694,-0.006832000000000199,-0.009521000000000203,-0.0026499999999999996,0.0465130245656488,-0.0056723200689814,2.589998726976335
124.31077694235589,0.609035407957621,0.5733660548679513,-14.995912,-0.006156000000000102,-0.004622999999999794,-0.014565999999999999,0.0484328867428426,-0.0036477381366681,2.60998281672484
125.31328320802004,0.6090356172225985,0.5733658009225452,-14.99523,0.0055270000000003025,0.005081999999999795,-0.0019449999999999,0.0467399173684081,-0.0023387411976723,2.6285706256184573
126.3157894736842,0.6090358189826599,0.5733655447082109,-14.992311,0.008876999999999798,0.0054310000000001996,0.0083909999999998,0.0426907535037813,-0.0024434609527919,2.64696613413509
127.31829573934836,0.6090360141104703,0.5733652862249488,-14.995478,0.0025540000000000007,-0.003238999999999999,0.0068550000000001,0.0419751685104636,-0.0038048177693474,2.6650828263037165
128.32080200501252,0.6090362026060295,0.573365026694489,-15.006023,-0.0025849999999999,-0.0046410000000000964,-0.0057780000000001,0.0473507826066061,-0.0035953782591082,2.683827749736598
129.32330827067668,0.6090363844693376,0.5733647640224365,-15.012083,-0.0050930000000002015,-0.0006780000000001021,-0.013812999999999898,0.048921578933401,-0.0014311699866353,2.701874401842342
130.32581453634086,0.6090365591767957,0.5733644985578573,-15.006068,-0.0018669999999997994,0.003927000000000201,0.0023619999999999995,0.0488343124708013,-0.0012740903539558,2.719467512688662
131.328320802005,0.6090367272520026,0.5733642294280866,-14.994251,0.002770999999999999,0.004137000000000002,0.0044789999999999995,0.0455880000620918,-0.0016580627893945,2.736815876013976
132.33082706766916,0.6090368886949585,0.573363958029388,-14.983272,0.008657999999999902,0.003235999999999895,0.00791,0.0415213829049451,-0.0027227136331111,2.7531000422811784
133.33333333333331,0.6090370450764594,0.5733636861070905,-14.979746,0.004998000000000199,-0.0004259999999999993,0.006377,0.0404043721836687,-0.0046774823953448,2.7696806178152467
134.3358395989975,0.6090371951747752,0.5733634138357272,-14.98783,-0.0033040000000001003,-0.007852999999999902,-7.599999999999968e-05,0.0404218254761886,-0.0057421332390612,2.787360541338561
135.33834586466165,0.6090373384663067,0.5733631398190346,-15.0025,-0.004965000000000199,-0.0030700000000001004,-0.0066410000000001,0.0413817565647855,-0.0042586033748661,2.804639388199768
136.3408521303258,0.609037473031192,0.573362863533414,-15.013973,0.002850000000000099,0.0004730000000001053,-0.0115569999999998,0.0423765942384223,-0.0015533430342749,2.821219963733837
137.34335839598998,0.6090376013128921,0.5733625862005959,-15.018909,0.0028030000000001006,0.0004809999999998982,0.0027809999999999,0.044313909708136,8.726646259971105e-05,2.8377307610044107
138.34586466165413,0.609037722787808,0.5733623079951131,-15.019297,-0.0023659999999998994,0.0013830000000000994,0.002845,0.0466351976132884,-3.49065850397956e-05,2.853299080478908
139.34837092731829,0.6090378369323411,0.5733620280443011,-15.015002,0.000685999999999699,0.0082639999999998,-0.003795,0.0426733002112613,-0.0009424777960769,2.86865806516292
140.35087719298244,0.6090379458408863,0.5733617468717586,-15.004758,0.0081330000000002,0.0131880000000002,0.0004299999999999998,0.0379609112308766,-0.0013089969389956,2.8835808048003964
141.35338345864662,0.6090380528295696,0.573361466048282,-14.997089,0.0026589999999999,-0.003563000000000198,0.015899,0.0332834288355318,-0.0026005405854714,2.900597607927709
142.35588972431077,0.6090381561530613,0.5733611853993382,-15.003599,-0.007783,-0.018924999999999803,0.004468999999999999,0.0391477351222328,-0.0025830872929515,2.9199010018146434
143.35839598997492,0.6090382497027091,0.5733609033541311,-15.017338,-0.0051250000000001,-0.013863999999999994,-0.0174009999999999,0.0406487182789479,8.726646259971105e-05,2.939850219884694
144.36090225563908,0.6090383329549145,0.5733606204362593,-15.020864,0.0057360000000002,0.006323999999999899,-0.010328000000000101,0.0449771348238938,0.0026878070480713,2.958472638657378
145.36340852130326,0.6090384088767369,0.5733603369947888,-15.013635,0.0053219999999998,0.010483000000000096,0.007263,0.0370184334347997,0.0032288591161895,2.975385036188836
146.3659147869674,0.6090384758973802,0.5733600533787854,-15.00657,-0.0004349999999997377,-5.100000000009958e-05,0.010273000000000001,0.0337372144410503,0.0017802358370342,2.9920005008546515
147.36842105263156,0.60903853733297,0.5733597701118478,-15.002894,0.0024009999999998377,0.001455999999999999,-0.0032790000000000995,0.0390430153671131,0.0009424777960769,3.008039919600847
148.37092731829574,0.6090385947543022,0.5733594880666406,-15.00059,-0.0018730000000002,-0.0027280000000000013,-8.5e-05,0.0377689250131573,-0.0003490658503988,3.0246902733984102
149.3734335839599,0.609038644321653,0.5733592042761043,-14.995871,-0.0021479999999995,0.0012790000000000024,-0.0076629999999999,0.0335801348083709,-0.0006632251157578,3.0414279634717434
150.37593984962405,0.6090386869076868,0.5733589215327655,-14.98076,0.0013539999999995999,0.008668000000000002,-0.005186,0.0321838714067754,-0.0011344640137962,3.056996544745628
151.3784461152882,0.6090387249558644,0.5733586389639597,-14.962156,0.0047710000000002,0.007071999999999998,0.017525,0.0372802328225988,-0.0029496064358702,3.072006376312779
152.38095238095238,0.6090387582916532,0.5733583563951536,-14.962134,0.0021899999999997,-0.012719999999999902,0.0247839999999999,0.0318871654339364,-0.0056897733615015,3.087504917523781
153.38345864661653,0.6090387841225261,0.5733580752226112,-14.992085,-0.0038359999999997003,-0.0262160000000001,-0.0105509999999999,0.0357967029584036,-0.0047472955654244,3.103021034200351
154.38596491228068,0.6090387984342259,0.5733577945736674,-15.019081,0.0025089999999998,0.005601000000000002,-0.044648,0.0390430153671131,-0.0001221730476395,3.116686770257249
155.3884711779449,0.6090388027975491,0.57335751549552,-15.010676,0.0052970000000001,0.03616,-0.011200000000000002,0.0341910000465689,0.0019722220547535,3.127123699557835
156.39097744360902,0.6090388057646088,0.5733572369409714,-14.979965,-0.0035300000000001996,0.018598,0.030195,0.0337721210260902,-0.0006108652381979,3.1382067148409245
157.39348370927317,0.6090388097788662,0.5733569596081532,-14.959787,-0.0056499999999997,-0.010170999999999899,0.026801,0.0359537825910831,-0.0052185344634629,-3.131871309282525
158.39598997493732,0.60903881239686,0.573356682624401,-14.962233,0.0038839999999997,-0.020751000000000103,-0.001354000000000001,0.0253247274464377,-0.0062657320146595,-3.115639607612638
159.3984962406015,0.6090388096043332,0.5733564061642475,-14.981464,0.003608000000000099,-0.015156,-0.006718000000000099,0.0234223185617639,-0.0047996554429843,-3.098413225348746
160.40100250626566,0.6090387958162321,0.5733561311003574,-15.003292,-0.0010779999999998985,-0.005318000000000003,-0.0232929999999998,0.031363566658338,-0.0015009831567149,-3.0817977606829303
161.4035087719298,0.6090387715561555,0.5733558574327308,-15.00301,0.0035290000000000998,0.017572000000000004,-0.0193800000000001,0.0327598300599335,0.0006806784082777,-3.067503514109097
162.406015037594,0.6090387429327557,0.5733555867321637,-14.979444,0.0017449999999997,0.0240680000000001,0.019348999999999998,0.0321838714067754,-0.001169370598836,-3.055181332510384
163.40852130325814,0.6090387134366915,0.5733553184750576,-14.963364,-0.0047389999999998995,-0.002047,0.033224000000000004,0.0304909020323409,-0.0051836278784231,-3.041445538937311
164.4110275689223,0.6090386820207649,0.573355051439682,-14.974931,-0.0014429999999998012,-0.0242430000000001,0.0022000000000000006,0.0279078147393893,-0.0057770398241012,-3.0252490056518515
165.41353383458645,0.6090386436235214,0.5733547845788396,-14.997787,0.0043569999999997005,-0.011661999999999999,-0.0315439999999999,0.0284139602224676,-0.0016406094968746,-3.009418904242848
166.41604010025063,0.6090385968486974,0.5733545199869249,-14.999265,0.004491000000000299,0.0164060000000001,-0.023742000000000103,0.0324631240870945,0.0011519173063163,-2.995770464398837
167.41854636591478,0.6090385434416222,0.5733542576639383,-14.974155,0.011565999999999903,0.0247139999999999,0.013694000000000001,0.0277681883992297,-0.0016755160819144,-2.986328233145548
168.42105263157893,0.6090384933506727,0.573354003893065,-14.948433,0.0128949999999999,0.0299449999999999,0.045554,-0.0457799862798112,-0.0132645023151567,-2.938506106921148
169.4235588972431,0.6090384333113464,0.5733537593724369,-14.960745,0.066854,-0.1950029999999999,-0.02019,0.0392175482923125,0.0078016217564147,-2.7428897439839632
170.42606516290726,0.6090383373182376,0.5733535438242742,-14.963496,0.1179690000000002,-0.13331199999999999,-0.018139,0.1033234917180643,0.0035430183815485,-2.486378599098602
171.42857142857142,0.6090382076402743,0.5733533637062955,-14.963558,0.04981999999999989,0.03177300000000011,0.013857999999999999,0.1233773248234791,-0.008604473212332,-2.2509687292159466
172.43107769423557,0.6090380186211163,0.5733532308867394,-14.954889,0.0008850000000000247,0.08488699999999988,-0.022811,0.1439198501194524,-0.0154112572951099,-2.04535138531874
173.43358395989975,0.6090377817799367,0.5733531439693426,-14.940494,-0.019043000000000032,0.0675029999999999,0.025677,0.1232376984833196,-0.0182037840983007,-1.8557561639548403
174.4360902255639,0.6090375259146683,0.5733530970199857,-14.936239,-0.004607000000000083,0.040126000000000106,0.0055720000000000006,0.1114741793248778,-0.0168598805742652,-1.670542364785271
175.43859649122803,0.6090372592283586,0.5733530874206749,-14.945956,0.010477000000000125,0.0288750000000002,-0.007783,0.1062905514464546,-0.0132819556076768,-1.4819245103491965
176.44110275689223,0.60903698782966,0.5733531169167392,-14.954603,0.010718999999999979,0.0536909999999996,-0.009926,0.1054353401129774,-0.0093724180832095,-1.2917007784683607
177.4436090225564,0.609036721841482,0.5733531884752385,-14.960144,0.003588999999999898,0.059810000000000196,0.009513,0.1115090859099177,-0.0122696646415201,-1.102751625633673
178.44611528822054,0.6090364692923391,0.5733533019216399,-14.981695,-0.026093999999999895,0.026181000000000003,0.008678,0.1146506785635075,-0.0123394778115999,-0.919963432698646
179.4486215538847,0.6090362338474231,0.5733534588267397,-15.009318,0.034457000000000015,0.001928999999999792,-0.014259,0.1499935959163926,0.0032288591161895,-0.7833560583594451
180.45112781954887,0.6090360153322008,0.5733536467987002,-14.996764,-0.2268630000000002,0.007966000000000209,-0.067634,0.0540528469342643,0.0249582083035189,-0.82280065653415
181.45363408521305,0.6090358072889539,0.57335384070478,-14.947422,-0.09302699999999961,-0.1543259999999999,0.063335,0.0474729556542457,0.0210486707790515,-0.9675759623331744
182.4561403508772,0.6090356112884789,0.5733540400213806,-14.899091,-0.0976340000000003,-0.054647999999999995,0.0139779999999999,0.0928515162060983,0.0161268422884277,-1.1666477804833344
183.45864661654133,0.6090353885844664,0.5733542007662047,-14.863041,-0.08884099999999981,0.006264999999999896,-0.0010199999999999012,0.0460941455451702,0.020926497731412,-1.387938355596376
184.4611528822055,0.6090351435402395,0.5733543190995279,-14.831556,-0.05369399999999999,0.033779,-0.007382,0.0480489143074039,0.0226543736908864,-1.6100662349647694
185.4636591478697,0.609034885406043,0.5733543873419018,-14.794453,-0.019881000000000093,0.050522,-0.018033,0.0596029939556063,0.0243647963578408,-1.8247415235205613
186.46616541353384,0.6090346237811882,0.5733544033989308,-14.734193,0.0023889999999999745,0.058727999999999794,-0.0090969999999999,0.023369958684204,0.0201410995680146,-2.029067236504831
187.468671679198,0.6090343750717698,0.573354372506603,-14.660961,0.004809000000000119,0.0665090000000002,0.027984999999999798,-0.0077492618788548,0.0045902159327451,-2.2266732398827034
188.4711779448621,0.6090341443392427,0.5733542927450563,-14.61256,-0.01817400000000008,-0.018789,0.0476970000000001,-0.0476474885794451,-0.0148702052269915,-2.362617232026514
189.4736842105263,0.6090339225078948,0.5733541724918708,-14.623026,0.10256999999999997,-0.08351900000000011,0.006092999999999994,-0.0062133721370998,-0.0233350520991642,-2.401695398324762
190.47619047619045,0.6090336966622895,0.5733540124451785,-14.658497,0.06539900000000012,-0.0722709999999997,-0.0566949999999999,0.0419228086329038,-0.0243298897728008,-2.392235574152613
191.47869674185463,0.6090334627881697,0.5733538352942593,-14.678504,0.11167799999999979,0.0600889999999997,-0.0148180000000001,-0.0102974425867665,-0.0271049632834718,-2.3698253545707884
192.4812030075188,0.6090332198383378,0.5733536616339988,-14.69558,0.0284720000000002,0.0156500000000002,0.026184,-0.0033335788713091,-0.0303163691071415,-2.355967597389585
193.4837092731829,0.609032976713973,0.5733534967003845,-14.730025,0.0037079999999997003,-0.0097950000000001,0.010378000000000002,-0.0012566370614359,-0.0317649923862968,-2.351708924201549
194.48621553884712,0.6090327330660095,0.5733533370027578,-14.777655,-0.0034199999999998,-0.002337,-0.016303000000000102,-0.016004669240788,-0.0296007841138237,-2.353506560971226
195.48872180451127,0.6090324885453813,0.5733531800976581,-14.820971,-0.0049219999999999,0.015508000000000001,-0.0149499999999998,-0.0125838239068791,-0.0255516202491969,-2.357939662364706
196.49122807017545,0.6090322455955494,0.5733530221453608,-14.856493,-0.0002440000000000003,0.010615,0.010753999999999899,-0.0115191730631625,-0.0234397718542838,-2.3616574405642576
197.4937343358396,0.6090320077071724,0.5733528641930635,-14.900039,0.0075349999999998005,-0.0113780000000001,0.0120729999999999,-0.0108908545324446,-0.0213279234593706,-2.3624428038210694
198.49624060150376,0.6090317713895916,0.5733527079860955,-14.949944,0.0114740000000001,-0.0162799999999998,-0.0158259999999999,-0.0053058009260627,-0.0161966554585073,-2.3612733983156486
199.4987468671679,0.6090315347229451,0.5733525542225885,-14.980806,-0.006278000000000101,0.016276999999999802,-0.0256279999999999,-0.0080459678516938,-0.0102974425867665,-2.3615876623007623
200.5012531328321,0.6090313001506936,0.5733524013317459,-14.989138,-0.0167259999999998,0.0192140000000001,0.0196069999999999,-0.0102799892942465,-0.0081506876068133,-2.3639437520712
201.50375939849624,0.6090310699417653,0.57335224704464,-15.002373,-0.0014590000000000002,-0.0141740000000001,0.026071,-0.0077318085863348,-0.0079412480965741,-2.3656018323138874
202.5062656641604,0.6090308425253637,0.5733520911867379,-15.031775,0.0172239999999998,-0.020494999999999902,-0.004666,-0.0027925268031909,-0.0049567350756638,-2.3659334099651805
203.5087719298245,0.6090306130145672,0.5733519377722965,-15.06223,0.0071300000000001,-0.0015769999999998997,-0.02028,-0.0093200582056497,0.0002617993877991,-2.365793853438192
204.5112781954887,0.6090303812348424,0.573351787324915,-15.077748,-0.010984999999999998,0.014735999999999999,-0.010151,-0.0091629785729702,0.0050789081233035,-2.3662825456287493
205.51378446115288,0.609030151200447,0.5733516367030006,-15.074206,-0.00797,0.0139859999999998,0.002461999999999999,-0.0085172067497323,0.0075747289536554,-2.366893480680118
206.51629072681703,0.6090299258784405,0.573351486255619,-15.059694,0.0031729999999999,0.0008389999999999995,0.012708,-0.0049741883681838,0.007103490055617,-2.367259930009867
207.5187969924812,0.6090297057924219,0.5733513389498301,-15.050066,0.0527470000000001,0.007495999999999999,0.018323,-0.0069289571304174,0.0020769418098733,-2.407856358224425
208.5213032581453,0.6090294996690372,0.5733511916440414,-15.062021,-0.1383409999999999,0.0880000000000001,0.007523,0.1195725070541315,0.0034732052114687,-2.582197262299553
209.52380952380952,0.6090293190274596,0.5733510302010855,-15.077216,-0.0745810000000002,0.110379,-0.030512,0.0913330797568632,0.0188844625065787,-2.802056388173279
210.52631578947367,0.6090291738160659,0.5733508520029689,-15.065653,0.011339000000000099,0.027497999999999967,-0.024874999999999897,0.0309795942228993,0.0247313155007598,-2.99201807632022
211.52882205513785,0.6090290860260045,0.5733506491957099,-15.030063,0.04195900000000011,0.028788000000000036,0.012222999999999897,0.0610516172347616,0.0175231056900231,3.124156674736029
212.531328320802,0.6090290654311193,0.5733504203830448,-14.981963,0.030943,0.005953999999999904,0.016497000000000102,0.0190240888467381,0.010140362954087,2.979294556260011
213.53383458646616,0.6090291005122374,0.5733501807493385,-14.952673,0.026497,-0.019989999999999897,0.0359169999999999,0.0195476876223364,0.0020594885173532,2.852758185490422
214.5363408521303,0.6090291830663109,0.5733499376249738,-14.959166,0.08144699999999991,-0.053910000000000124,0.0027370000000000033,0.038135444156076,0.0,2.7422436580014606
215.5388471177945,0.6090292987816402,0.5733497047980516,-14.985182,0.050317999999999904,-0.06818299999999988,-0.025135,0.0197920337176156,0.0017104226669544,2.6557279487794894
216.54135338345864,0.6090294366626512,0.573349486631895,-15.007086,0.003027000000000099,-0.027414000000000008,-0.019648999999999903,0.0192160750644575,0.002775073510671,2.588375535865396
217.5438596491228,0.6090295926950863,0.5733492859190311,-15.016651,-0.009206000000000103,-0.0163760000000001,-0.001792000000000099,0.0229510796637254,0.0033161255787892,2.538738476658432
218.5463659147869,0.6090297646100177,0.5733490981216035,-15.020631,-0.02105,-0.027156999999999903,0.0130389999999999,0.0238586508747624,0.0038571776469076,2.504529901146296
219.5488721804512,0.6090299501385172,0.5733489169564272,-15.022036,-0.018651999999999898,-0.024889,-0.0069649999999999,0.029530970943744,0.0050963614158234,2.480479421133446
220.55137844611528,0.6090301443936629,0.573348739980041,-15.017355,-0.005548999999999998,-0.016195000000000098,0.0003280000000000999,0.0291469985083053,0.0058643062867009,2.4647715625852524
221.55388471177943,0.6090303419649342,0.5733485668433793,-15.011498,-0.001825000000000205,-0.011777999999999903,0.0108169999999999,0.0229336263712054,0.0055152404363021,2.4546137463386453
222.5563909774436,0.6090305411070019,0.573348397197376,-15.014998,-0.010856999999999898,-0.0128050000000002,0.007150000000000001,0.0239633706298821,0.004607669225265,2.4498836946262306
223.55889724310777,0.609030741645333,0.5733482298203008,-15.025597,-0.010232,-0.0059629999999996994,-0.011938,0.0263370184125944,0.0053232542185828,2.44803387251192
224.56140350877192,0.6090309428817957,0.573348063490423,-15.032077,-0.00013399999999990156,0.0029259999999998003,-0.006581,0.0251676478137582,0.0067020643276582,2.450581721607273
225.56390977443607,0.6090311437691925,0.573347897684144,-15.028805,-0.011028999999999999,-0.0126699999999999,-0.0028660000000000005,0.0278380015693095,0.0078539816339744,2.473236426910717
226.56641604010025,0.609031341340464,0.5733477289108054,-15.017675,-0.0201229999999999,-0.0221529999999998,0.002914000000000001,0.0356570766182441,0.0075223690760957,2.5164155933523764
227.5689223057644,0.6090315347229451,0.5733475576940057,-15.006438,-0.025731999999999897,-0.0265940000000003,0.01311,0.0440870169053767,0.0051312680008634,2.5762280617248074
228.57142857142856,0.6090317171098519,0.5733473767033623,-15.000023,-0.020887000000000308,-0.021372999999999802,-0.0037029999999999997,0.0439299372726972,0.0029670597283903,2.6489909429602063
229.5739348370927,0.6090318820434663,0.57334718384448,-14.99472,-0.006435999999999692,-0.018627999999999992,-0.0044079999999999,0.0463384916404494,0.0009948376736368,2.730567562385251
230.5764411027569,0.6090320283020575,0.5733469780701612,-14.988542,0.003741999999999704,-0.01770300000000001,0.0020709999999998,0.0540004870567045,-0.0012915436464757,2.819160545029653
231.57894736842104,0.6090321503005722,0.5733467604276035,-14.985886,0.007498000000000199,-0.023509000000000085,0.0056310000000001,0.0574213323906134,-0.0038746309394273,2.9134955736466543
232.5814536340852,0.6090322448974177,0.5733465326621361,-14.991809,0.008579999999999796,-0.023292000000000007,0.005110999999999999,0.0601614993162445,-0.0055501470213419,3.011443433815284
233.58395989974937,0.6090323086019354,0.5733462975662859,-15.008416,0.016976000000000102,-0.011734999999999995,-0.0011430000000000988,0.0578751179961319,-0.0061610122595399,3.109967357356826
234.58646616541355,0.609032337748934,0.5733460575835136,-15.033173,0.015619000000000098,-0.008416000000000007,-0.0056799999999999,0.0567755605673755,-0.0046251225177849,-3.0747467701312137
235.58897243107768,0.6090323325129461,0.5733458156808793,-15.056646,0.019215,-0.0023299999999999987,-0.009686,0.0577529449484923,-0.0015533430342749,-2.977636476017324
236.59147869674183,0.6090322934175708,0.5733455741273109,-15.072491,0.0204129999999999,0.007313999999999987,-0.00023899999999989988,0.0544891792472629,0.0009075712110371,-2.88333633653207
237.593984962406,0.6090322232553349,0.573345335889868,-15.082372,0.019888999999999803,0.009818000000000104,-0.0008170000000000998,0.0521853446346304,0.0032114058236696,-2.7926839351834847
238.59649122807016,0.609032122898903,0.5733451056809397,-15.085884,0.021168000000000096,0.013122999999999996,-0.003273,0.0515570261039124,0.0053756140961425,-2.7069359962994657
239.59899749373432,0.6090319963625322,0.5733448873402502,-15.081228,0.013122000000000099,0.017537999999999915,0.004373999999999999,0.0532150888933071,0.0053581608036226,-2.626703210585286
240.6015037593985,0.6090318464387495,0.5733446798206021,-15.076064,-0.0020039999999998948,0.018784000000000092,0.008724,0.0491310184436403,0.0053232542185828,-2.552404474514718
241.60401002506265,0.609031677316345,0.5733444834710613,-15.081736,-0.0022420000000002993,0.011227999999999905,0.012340999999999998,0.0368613538021202,0.0067544242052182,-2.4831148857572507
242.6065162907268,0.6090314891698516,0.5733442981170948,-15.099334,0.007647000000000195,-0.0008859999999999008,-0.012455999999999998,0.036006142468643,0.011711159280882,-2.4185550694595173
243.60902255639093,0.6090312837445986,0.5733441256785646,-15.105952,0.014301000000000105,0.017816999999999902,-0.026807,0.0349938515024863,0.0173485727648237,-2.361395641176458
244.6115288220552,0.6090310650548434,0.5733439670281356,-15.084981,-0.002098000000000211,0.036058,-0.0015629999999999984,0.0381703507411159,0.0192509816494974,-2.312893080889876
245.6140350877193,0.6090308376384418,0.573343821467676,-15.053095,-0.023784,0.0143090000000001,0.029810999999999997,0.0316428193386572,0.0162141087510274,-2.271284396615746
246.61654135338344,0.6090306053351184,0.5733436851574615,-15.036725,-0.019593999999999896,-0.0117430000000001,0.0128939999999999,0.0314682864134577,0.0142593399887938,-2.234283224487248
247.6190476190476,0.6090303662250108,0.5733435547813663,-15.025311,0.003974999999999999,0.004894000000000204,-0.0268679999999999,0.0275936554740303,0.0165108147238663,-2.2012965190778484
248.62155388471177,0.6090301187373228,0.5733434301648577,-14.999049,0.0073589999999999,0.0244789999999997,-0.0034389999999999993,0.0321140582366956,0.0171914931321441,-2.1731618115357
249.62406015037595,0.6090298681080424,0.5733433139259296,-14.974205,-0.005170999999999898,0.0004430000000001967,0.03031,0.0383448836663154,0.0127932634171183,-2.1483257064666508
250.62656641604008,0.609029614511702,0.5733432057155159,-14.972966,-0.016747000000000102,-0.016348,0.002567,0.0295658775287839,0.0097389372261285,-2.128463859578955
251.62907268170423,0.6090293563775057,0.5733431023920242,-14.974525,0.000664000000000102,0.008167999999999905,-0.034972,0.02153736296961,0.0112399203828434,-2.111935486842813
252.6315789473684,0.6090290937054532,0.5733430046535861,-14.952281,0.004137999999999899,0.0226110000000002,-0.010925999999999901,0.0254469004940773,0.0106116018521256,-2.0991424503184977
253.63408521303256,0.6090288320805983,0.5733429119766028,-14.913465,-0.012856999999999997,0.0125689999999997,0.0221339999999999,0.0322885911618951,0.0050090949532237,-2.0896829053990285
254.63659147869672,0.6090285734228031,0.5733428222666793,-14.890511,-0.0163779999999999,-0.0145889999999999,0.0341589999999999,0.0342084533390888,-0.002705260340591,-2.082160274523545
255.6390977443609,0.6090283123215472,0.5733427327312886,-14.900125,-0.0017260000000000999,-0.015767,-0.003955999999999901,0.0271049632834719,-0.0046949356878647,-2.074951890179884
256.64160401002505,0.6090280473805666,0.5733426442430954,-14.922789,0.0077399999999999995,0.007556000000000101,-0.0270899999999999,0.0180816110506612,-0.0016231562043547,-2.067866289749099
257.64411027568923,0.6090277798215923,0.5733425576747646,-14.93675,0.005361000000000102,0.0121489999999999,-0.0116550000000001,0.0213628300444105,0.0008726646259973,-2.0614954714601774
258.6466165413533,0.6090275119135522,0.5733424747716253,-14.936203,0.0008939999999998983,0.002439,-0.001778,0.0277681883992297,0.0008901179185172,-2.0556839264767643
259.64912280701753,0.6090272454017753,0.5733423946610126,-14.925086,-0.015473999999999901,0.0015960000000000002,0.007000999999999999,0.0250978346436784,-0.0015009831567149,-2.051966148277213
260.6516290726817,0.6090269808098607,0.5733423135032023,-14.915688,-0.010865,-0.0007800000000001001,0.018024000000000002,0.0191462618943777,-0.0046949356878647,-2.0473413050121088
261.65413533834584,0.6090267148216827,0.5733422319963262,-14.925572,0.00986,-0.0119469999999998,0.013345000000000001,0.0220609617452083,-0.0064926248174188,-2.0389459571507507
262.65664160401,0.6090264469136425,0.573342151013049,-14.952879,0.0138779999999999,-0.0066790000000001,-0.019356,0.0202109127380943,-0.0039793506945469,-2.0288056989164183
263.65914786967414,0.6090261767366743,0.5733420726477656,-14.969936,0.0019490000000001,0.014415999999999998,-0.027475,0.0210486707790516,0.0005410520681183,-2.0187176434800143
264.6616541353383,0.6090259058615745,0.5733419979476736,-14.964782,-0.00894,0.0135359999999999,0.006280000000000001,0.0236317580720032,0.0016406094968748,-2.0088913874314085
265.6641604010025,0.6090256374299354,0.5733419255165095,-14.957529,-0.0004580000000001007,-0.011288,0.027739999999999897,0.0246615023306798,-0.0014486232791552,-1.996953230628012
266.66666666666663,0.6090253700454942,0.5733418548306749,-14.967348,0.011230000000000101,-0.020560999999999698,0.005706000000000001,0.0225671072282866,-0.0028972465583105,-1.982379888453492
267.6691729323308,0.6090250979486637,0.5733417881590975,-14.982852,0.0039019999999998986,0.0011789999999997983,-0.0266479999999998,0.0228463599086057,0.0002792526803192,-1.9676669897519825
268.671679197995,0.6090248216630432,0.5733417248036456,-14.982407,-0.007025,0.0217929999999999,-0.008542000000000102,0.0235270383168835,0.0028623399732707,-1.9542100299802083
269.6741854636591,0.6090245452028896,0.5733416645897864,-14.97251,-0.0055389999999999,0.004593,0.019066,0.0239633706298821,0.0013962634015955,-1.940247884656444
270.6766917293233,0.6090242722333946,0.5733416062957893,-14.968962,0.005692000000000001,-0.0103749999999999,0.00789,0.0227940000310459,-0.0007330382858374,-1.925115530975803
271.6791979949875,0.6090239989148336,0.5733415520160496,-14.975961,0.013832999999999901,-0.0082529999999998,0.0012339999999999,0.022444934180647,-0.0018500490071138,-1.908098466049104
272.6817042606516,0.6090237219310813,0.5733415029722977,-14.991192,-0.000907000000000005,-0.0035570000000001,-0.006972999999999899,0.0223053078404875,-0.0012915436464757,-1.8921115119002223
273.6842105263158,0.6090234425038682,0.5733414582918689,-15.001835,-0.010410999999999997,0.0078919999999998,-0.0172079999999999,0.0197571271325758,0.0016755160819146,-1.87757277960477
274.68671679198,0.6090231622039903,0.5733414171020984,-14.99201,-0.0015069999999999008,0.0148730000000001,-0.0069220000000001,0.0251327412287183,0.0038571776469076,-1.8628596191038729
275.6892230576441,0.6090228839985075,0.573341378530322,-14.973988,0.0022730000000000007,0.0005669999999999009,0.0281599999999999,0.0272096830385916,0.0007155849933178,-1.8479722747436265
276.69172932330827,0.6090226071892881,0.5733413424020065,-14.978656,-0.008133,-0.0197239999999999,0.0210480000000001,0.0225322006432467,-0.0018325957145939,-1.8327528465866028
277.6942355889724,0.6090223286347396,0.5733413087171519,-14.998734,-0.0006910000000000006,-0.0031529999999998,-0.0297179999999999,0.017208946424664,0.0010646508437166,-1.81680050231679
278.69674185463657,0.6090220469385983,0.5733412773012253,-15.005035,0.017976999999999903,0.01428099999999975,-0.018530000000000102,0.0217468024798493,0.0048171087355044,-1.79836982541573
279.69924812030075,0.6090217643697924,0.5733412516448855,-14.996597,0.007911000000000102,0.0025660000000000504,0.013799000000000002,0.02769837522915,0.0042411500823462,-1.7798171849065405
280.7017543859649,0.609021483022717,0.5733412319226648,-14.988509,-0.014939000000000004,-0.0060269999999999005,0.0094149999999999,0.0266686309704733,0.0025481807079117,-1.7633929385135727
281.70426065162906,0.6090212018501745,0.5733412155165699,-14.981143,-0.010779000000000098,0.0023019999999998,-0.0064709999999999004,0.021851522234969,0.0019373154697137,-1.7476153017018847
282.70676691729324,0.6090209210266978,0.5733412017284688,-14.970595,0.009261000000000099,0.0076840000000001,0.0021260000000001,0.0225322006432467,0.0001221730476397,-1.7301098238373067
283.70927318295736,0.6090206409013529,0.5733411926527566,-14.968357,0.012708,-0.004821,0.0177689999999999,0.0281172542496286,-0.0025656340004316,-1.711486864012554
284.71177944862154,0.6090203611250739,0.5733411875913018,-14.983232,-0.004993000000000001,-0.012905000000000002,-0.00336,0.0256737932968365,-0.0034208453339088,-1.6947494357386086
285.7142857142857,0.6090200780326691,0.5733411867186372,-14.999995,-0.004914999999999999,0.0016140000000000009,-0.024959,0.0206297917585729,-0.0002094395102392,-1.6782735275997818
286.71679197994985,0.6090197938930669,0.5733411910819604,-14.99474,5.4999999999999494e-05,0.01737,-0.014674000000000001,0.0206472450510929,0.0029496064358705,-1.661972309465788
287.719298245614,0.6090195118478597,0.5733411994595407,-14.973801,-0.0013290000000000003,0.008426,0.024962000000000102,0.0281696141271884,0.0012915436464757,-1.6462117245208916
288.7218045112781,0.6090192322461137,0.573341210280582,-14.96565,0.00016899999999990187,-0.0166510000000001,0.0237779999999999,0.0291644518008252,-0.0027925268031909,-1.6309752444970755
289.72431077694233,0.6090189531679662,0.5733412252904136,-14.977093,5.400000000009911e-05,-0.007497999999999699,-0.012515000000000002,0.0220784150377282,-0.0028274333882307,-1.615808001684688
290.7268170426065,0.6090186723444895,0.5733412444890355,-14.990152,-0.002735999999999999,0.0076589999999998,-0.015609999999999999,0.0216769893097695,-0.0002094395102392,-1.601252234975736
291.72932330827064,0.6090183913464801,0.573341266480184,-14.994393,-0.0015240000000001017,0.0041159999999999,-0.0049689999999999,0.0238586508747624,0.0016929693744345,-1.5865915390721528
292.7318295739348,0.6090181105230034,0.5733412928346557,-14.987836,0.012697000000000097,0.0028209999999999997,0.0024529999999998997,0.026145032194875,0.0023038346126325,-1.5713199081172018
293.734335839599,0.6090178323175206,0.5733413237269834,-14.980083,-0.005763999999999998,-0.0009399999999999001,0.0141319999999999,0.0280299877870289,0.0005061454830783,-1.5576019692623777
294.7368421052631,0.6090175541120377,0.573341357586371,-14.979251,-0.0216990000000001,-0.0056019999999999,-0.0035199999999999,0.0235444916094035,-0.0005759586531579,-1.5460651509204777
295.7393483709273,0.6090172769537525,0.5733413931910877,-14.973129,0.0067890000000001005,0.0065089999999998,-0.013315,0.0234572251468037,-0.0001221730476395,-1.5317187015487157
296.7418546365915,0.6090170017153296,0.5733414314137983,-14.963362,0.0226229999999999,0.0028719999999999996,0.0171939999999999,0.0314159265358979,-0.002094395102393,-1.514945581291568
297.7443609022556,0.609016725429709,0.573341473999832,-14.96965,-0.0016260000000000024,-0.0151469999999999,0.013416,0.029845130209103,-0.0043807764225056,-1.5005815564542395
298.7468671679198,0.6090164491440884,0.5733415223454523,-14.987228,-0.016064999999999996,-0.0023939999999999994,-0.0216219999999998,0.0171565865471042,-0.0023561944901921,-1.4874569597319225
299.749373433584,0.6090161712876715,0.5733415731345336,-14.988704,-0.003475999999999901,0.0176949999999999,-0.0249190000000001,0.0185528499486997,0.0011344640137964,-1.4729880056999651
300.7518796992481,0.6090158962237814,0.573341625843477,-14.966351,0.007143000000000002,0.014223999999999999,0.012514,0.028291787174828,0.0003665191429189,-1.457594411136884
301.7543859649123,0.609015626395879,0.5733416809958813,-14.946506,0.004949999999999899,-0.0111809999999999,0.033976,0.0316428193386571,-0.0051138147083433,-1.4430562024402074
302.7568922305764,0.6090153583133058,0.5733417406861417,-14.954093,-0.001353,-0.02002,0.005298000000000001,0.0226020138133265,-0.0075572756611352,-1.4289531741392223
303.7593984962406,0.6090150884854034,0.5733418047397254,-14.974216,-0.0030810000000000004,-0.0010990000000000002,-0.028208,0.0158475896081085,-0.0046600291028247,-1.4150429523607049
304.7619047619048,0.6090148156904414,0.5733418721094345,-14.978431,0.0019160000000001016,0.015506,-0.018587,0.0224798407656869,-0.0011519173063161,-1.4002426999301334
305.7644110275689,0.6090145451644073,0.573341942969802,-14.963363,-0.00026600000000010296,0.010936000000000001,0.010109,0.0248534885483992,-0.0013962634015953,-1.385058422704245
306.76691729323306,0.6090142793507622,0.5733420171462953,-14.946601,-0.000577999999999898,-0.0040140000000002014,0.01715,0.0263719249976343,-0.0048345620280243,-1.3705894686722877
307.76942355889724,0.6090140156315123,0.5733420958606446,-14.940784,-0.00012099999999999958,-0.0104569999999997,0.006096000000000001,0.0264766447527539,-0.0082205007768931,-1.356923715162096
308.77192982456137,0.6090137522613281,0.5733421777165866,-14.941964,-0.002597000000000002,-0.0011660000000001999,-0.010335,0.022148228207808,-0.0091280719879303,-1.3434848719079588
309.77443609022555,0.6090134899383416,0.5733422621905222,-14.940155,-0.003823000000000099,0.0070749999999999,-0.005896,0.0207694180987325,-0.0089186324776908,-1.329853745730127
310.77694235588973,0.6090132286625526,0.573342349282452,-14.93888,0.009609000000000001,0.0029320000000002,0.0126,0.0253770873239975,-0.010419615634406,-1.3150183423684203
311.77944862155385,0.6090129700047575,0.5733424409122376,-14.95157,0.0029950000000000983,-0.009648000000000101,0.0073639999999999,0.0260926723173152,-0.0115715329407224,-1.301369640725022
312.78195488721803,0.6090127123941599,0.5733425353345503,-14.969708,-0.013521000000000099,-0.0025799999999998003,-0.023411999999999898,0.0170344134994646,-0.0084997534572124,-1.288716439980376
313.7844611528822,0.6090124549580951,0.5733426322003237,-14.966658,-0.007337999999999901,0.0151599999999998,-0.019194,0.0182561439758606,-0.0055850536063817,-1.274997960073483
314.78696741854634,0.6090122015362879,0.5733427315095582,-14.946272,0.011936999999999899,0.006400000000000001,0.0245260000000001,0.0268431638956727,-0.0080459678516937,-1.2597263291185323
315.7894736842105,0.6090119510815402,0.5733428329131878,-14.940295,0.010127,-0.013637999999999801,0.027945999999999898,0.0299847565492625,-0.011990411961201,-1.2449255356358924
316.79197994987464,0.6090117013249241,0.5733429381565416,-14.95831,-0.0113349999999999,-0.0098070000000001,-0.008524,0.0205425252959732,-0.0120602251312806,-1.231626248908743
317.7944862155388,0.6090114512192424,0.573343046890554,-14.979875,-0.007778,0.003587,-0.0263969999999999,0.0149574716895914,-0.0083252205320127,-1.2172973750025495
318.796992481203,0.6090112019862252,0.5733431577189615,-14.983788,0.009729999999999902,0.012939999999999901,-0.0102380000000001,0.0211533905341712,-0.0053756140961425,-1.2007692640657963
319.7994987468672,0.609010955022136,0.5733432715144288,-14.974793,0.006287000000000098,0.004882000000000098,0.016453,0.0280125344945089,-0.00614355896702,-1.1839269065972218
320.8020050125313,0.6090107127704358,0.5733433888005545,-14.970584,-0.0074680000000000996,-0.009306000000000099,0.013114,0.0269304303582725,-0.0082205007768931,-1.1692134668436442
321.8045112781955,0.6090104729621967,0.5733435106245361,-14.973843,9.10000000000008e-05,-0.004548,-0.006540000000000001,0.0180816110506612,-0.0080808744367337,-1.1535578110933775
322.8070175438596,0.6090102329794245,0.5733436357646436,-14.976757,0.002304999999999998,0.006666999999999999,-0.006372,0.0228987197861656,-0.0068591439603375,-1.1373263712228774
323.8095238095238,0.6090099950910475,0.5733437626500802,-14.974791,-0.0008819999999999002,0.006092000000000201,-0.002098,0.023980823922402,-0.0069638637154572,-1.1205191646854369
324.812030075188,0.6090097598206643,0.5733438921535108,-14.971283,-0.0012289999999999975,-0.0016390000000001993,0.008353,0.0260577657322753,-0.0089360857702109,-1.104514111472214
325.8145363408521,0.6090095283900054,0.5733440254966656,-14.976933,-0.0020320000000000997,-0.011628000000000102,0.010613000000000001,0.0216071761396898,-0.0107163216072452,-1.0893122413274663
326.8170426065163,0.6090092980065442,0.5733441614578143,-14.990508,-0.0032720000000000006,-0.0042709999999996995,-0.0158219999999999,0.0167377075266256,-0.0085521133347721,-1.0736917365083347
327.8195488721804,0.6090090684957475,0.5733442995133581,-14.992024,0.0064380000000002005,0.0179779999999998,-0.014589000000000098,0.0209963109014917,-0.0056548667764615,-1.0558719946586428
328.8220551378446,0.6090088428246752,0.5733444407104946,-14.983537,0.0055259999999997984,0.007760000000000201,0.018425999999999998,0.0276111087665502,-0.0067195176201781,-1.0386109850623904
329.8245614035088,0.6090086208187945,0.5733445855728225,-14.985338,-0.007872999999999901,-0.015694000000000298,0.011446999999999898,0.0241553568476015,-0.0087790061375314,-1.0234085913188675
