Time [s],Longitude [rad],Latitude [rad],Altitude [m],V North [m/s],V East [m/s],V Down [m/s],Roll [rad],Pitch [rad],Yaw [rad]
1.0025062656641603,0.6097300186311859,0.5734837286313121,-6.58656,0.07918500000000006,-0.18907999999999997,-0.087565,0.06462954220135,-0.3446327140988003,-2.705015854869592
2.0050125313283207,0.6097299551012011,0.5734835708535478,-6.999248,0.10258400000000001,-0.13270700000000002,-0.030563000000000007,-0.0500560429471973,-0.35473818792114,-2.5399078647105604
3.007518796992481,0.609729866613008,0.5734834317508064,-7.409154,0.13253100000000007,-0.10776899999999995,0.02065800000000001,-0.0187273828738991,-0.3293087232662899,-2.3817461977080043
4.010025062656641,0.6097297578789956,0.573483313766549,-7.835239,0.12351699999999999,-0.1242930000000001,-0.025897999999999977,-0.077859137931467,-0.2097013096271185,-2.306435188124572
5.012531328320802,0.6097296275029005,0.5734832071269317,-8.175602,0.022730000000000028,-0.09116199999999997,-0.149721,-0.1057320460858164,-0.0970752129959244,-2.368307075201185
6.015037593984962,0.60972949084362,0.5734831032798413,-8.368189,-0.03990900000000008,0.04972399999999999,-0.116926,-0.0008901179185171,-0.0704414886104911,-2.513675461333331
7.017543859649122,0.6097293665761773,0.5734829907061045,-8.47162,-0.07030599999999998,0.11877599999999999,-0.056844000000000006,0.0627096800241562,-0.0604232987040436,-2.6671947096052144
8.020050125313283,0.6097292711066673,0.5734828622498714,-8.538614,-0.09926000000000001,0.15053000000000005,-0.013958000000000012,-0.015673056682909,-0.0430049127691403,-2.8147098681706053
9.022556390977442,0.6097292065294849,0.5734827170384778,-8.614151,-0.14383599999999996,0.136548,0.021095000000000003,-0.0753109572235553,-0.0334056018831714,-2.925241447526359
10.025062656641603,0.609729159580128,0.5734825416328879,-8.711001,-0.13669200000000004,0.03577199999999997,0.012077000000000004,0.0197745804250957,-0.050160762702317,-2.9078230441381625
11.027568922305765,0.6097291087910468,0.5734823540099933,-8.80182,-0.033017000000000074,-0.100489,-0.022426,0.0872490093071965,-0.0664097780383841,-2.7672893596603823
12.030075187969924,0.6097290332182901,0.5734821594057817,-8.867803,-0.026859999999999884,-0.20837899999999998,-0.0004279999999999978,0.0342782665091686,-0.086463611143799,-2.6193901762996754
13.032581453634084,0.6097289197718888,0.5734819599146482,-8.96297,-0.05219599999999991,-0.167929,0.042095999999999995,0.0578925712886519,-0.0941430598525741,-2.5568202622420184
14.035087719298245,0.6097287710698365,0.5734817506496709,-9.103214,-0.0900780000000001,-0.12347700000000006,0.045919000000000015,0.0341037335839692,-0.0892037780694301,-2.551968246921473
15.037593984962406,0.6097285977586419,0.5734815265493949,-9.275985,-0.10717899999999991,-0.09397199999999994,0.008299999999999974,0.0237190245346029,-0.0699527964199326,-2.5647263943140426
16.040100250626566,0.6097284096121484,0.5734812860430241,-9.431458,-0.09598000000000018,-0.076098,-0.04171299999999997,0.02768092193663,-0.0494451777089992,-2.571428511001578
17.042606516290725,0.6097282106446137,0.5734810315740191,-9.533189,-0.06977999999999995,-0.05565599999999993,-0.05588000000000001,0.02153736296961,-0.0370009801422797,-2.5711667116137797
18.045112781954884,0.6097280059174924,0.5734807662839728,-9.594903,-0.06555899999999992,-0.026316000000000006,-0.018702000000000003,0.0212930168743308,-0.0338768407812097,-2.5707653731522826
19.047619047619047,0.6097277973506469,0.573480490696484,-9.655323,-0.06893300000000013,-0.021359000000000128,0.015692000000000005,0.0094073246682494,-0.0345226126044477,-2.5715158647306406
20.050125313283207,0.6097275840714123,0.5734802044624866,-9.738612,-0.06376099999999996,-0.04253899999999988,0.018869999999999998,0.0154112572951099,-0.0315555528760573,-2.5730168129807707
21.052631578947366,0.6097273620655314,0.5734799095018429,-9.823184,-0.049348999999999865,-0.053908999999999985,-0.017324000000000006,0.0117635191584417,-0.0237190245346028,-2.573173944973328
22.05513784461153,0.6097271287150104,0.573479608258014,-9.883005,-0.037867000000000095,-0.048362000000000016,-0.029059999999999996,0.0087440995524915,-0.0179943445880614,-2.571358732738084
23.05764411027569,0.6097268880341065,0.5734793017781975,-9.913194,-0.027992000000000017,-0.02475100000000019,-0.025713,0.0063879050622992,-0.0158301363155886,-2.5697006524953965
24.06015037593985,0.609726646655071,0.5734789912841235,-9.932266,-0.03072600000000003,0.009361000000000175,0.006604000000000002,0.0060213859193804,-0.0187797427514588,-2.571672717470517
25.062656641604008,0.6097264073704305,0.5734786753795289,-9.974678,-0.03973800000000005,-0.002363000000000115,0.029772999999999997,0.0033510321638291,-0.0186226631187793,-2.57327861236857
26.065162907268167,0.6097261647696645,0.5734783537153477,-10.030821,-0.03370000000000006,-0.03588400000000003,-0.0072559999999999986,0.0095469510084089,-0.0109606677025242,-2.5742386656302143
27.06766917293233,0.609725916234779,0.5734780282114423,-10.059255,-0.016445000000000043,-0.03151499999999996,-0.033409,0.002757620218151,-0.0048520153205442,-2.573802176237583
28.07017543859649,0.6097256626384387,0.5734777000895428,-10.059829,-0.016487999999999836,-0.00807699999999989,-0.020549,0.0026354471705114,-0.0039793506945469,-2.573941732764572
29.07268170426065,0.6097254086930325,0.5734773690005838,-10.053238,-0.01857299999999995,0.008996000000000004,0.010841,-0.0001221730476396,-0.0047472955654244,-2.573575283434824
30.07518796992481,0.6097251550966922,0.5734770356426967,-10.071733,-0.020636999999999794,-0.015351000000000115,0.023226,0.0042236967898262,-0.0047822021504644,-2.573208554852395
31.07769423558897,0.609724899056891,0.5734766998413486,-10.096665,-0.011046000000000333,-0.022816999999999865,-0.014552,0.003682644721708,0.0008552113334772,-2.5738197517031507
32.08020050125313,0.6097246393518982,0.5734763631673359,-10.094581,-0.0059749999999998415,-0.0032970000000001054,-0.028065,-0.0001047197551196,0.0037873644768278,-2.5738892681672576
33.08270676691729,0.6097243805195701,0.5734760254461256,-10.072702,-0.003605999999999998,0.010750000000000037,-0.0019119999999999988,-0.0021642082724729,0.002460914245312,-2.574430424955131
34.08521303258145,0.609724122036308,0.5734756872013165,-10.065295,-0.006765000000000132,-0.016213000000000033,0.022843,0.0017976891295541,-0.0002967059728389,-2.572929459251708
35.08771929824561,0.6097238605859859,0.5734753484329087,-10.060824,-0.007448999999999817,-0.016629999999999923,-0.02485,0.0051661745859032,0.0034557519189488,-2.572231449723958
36.09022556390977,0.6097235991356641,0.5734750065229084,-10.033229,-0.007857000000000003,0.019676999999999945,-0.008514999999999998,-0.0050789081233034,0.0008726646259973,-2.5737497116402683
37.092731829573935,0.6097233394306714,0.5734746644383749,-10.024377,-0.009009999999999962,0.004734999999999934,0.037458,-0.0014835298641951,-0.0041364303272264,-2.5742035146990787
38.095238095238095,0.6097230786784811,0.5734743216557099,-10.038789,-0.006515000000000271,-0.026105000000000045,-0.001030999999999999,0.0004014257279586,-0.0002617993877991,-2.573557969768644
39.097744360902254,0.6097228158318957,0.5734739774767813,-10.031045,0.0026410000000001155,0.0022720000000000518,-0.025659,-0.0001570796326794,0.0029670597283903,-2.573662637163886
40.100250626566414,0.6097225531598434,0.5734736348686492,-10.015676,0.009306000000000036,0.008263000000000131,0.008381,0.0017627825445142,-0.000279252680319,-2.573331076965885
41.10275689223057,0.6097222887424617,0.5734732945294451,-10.013307,0.004545999999999939,-0.016492000000000173,0.005611999999999999,-0.0048171087355043,-0.0026878070480711,-2.5716032010064103
42.10526315789473,0.6097220238014812,0.573472954015708,-9.99754,-0.007022000000000084,-0.0030200000000000227,-0.027149,0.0013962634015954,-0.0007504915783576,-2.5698228779029133
43.10776942355889,0.6097217616530276,0.5734726112330429,-9.966201,-0.012866999999999962,0.035515000000000185,0.014483,0.0014311699866353,-0.0054628805587422,-2.573522818837509
44.11027568922306,0.6097215036933642,0.5734722663559827,-9.98135,-0.0018139999999999823,-0.008291000000000048,0.058421,-0.0042760566673861,-0.0089709923552507,-2.573802176237584
45.11278195488722,0.6097212406722459,0.573471922700653,-10.016181,0.007722000000000229,-0.04399900000000012,-0.034807000000000005,0.0040840704496667,-0.0005410520681181,-2.570189344685955
46.11528822055138,0.6097209732878045,0.5734715806161195,-9.997239,0.0121509999999998,0.01459100000000002,-0.043755,-0.0012391837689159,0.0002443460952792,-2.568042554799417
47.11779448621554,0.6097207095685545,0.5734712395787838,-9.977131,0.0010150000000002102,0.024005999999999972,0.044108,-0.0033161255787892,-0.0075049157835755,-2.568164535860839
48.1203007518797,0.6097204458493045,0.5734708981923821,-10.001057,-0.01524300000000034,-0.020339999999999803,0.017708,0.0042760566673861,-0.0042586033748661,-2.5686883789825323
49.122807017543856,0.609720180908324,0.5734705548861182,-10.005371,-0.0006260000000000154,-0.009157000000000082,-0.042045,-0.0028099800957108,0.000628318530718,-2.568566136121723
50.125313283208015,0.6097199154437449,0.5734702131506506,-9.988756,0.012988,0.01081399999999988,0.004024999999999999,0.002146754979953,-0.0042236967898261,-2.566628698478961
51.127819548872175,0.6097196503282314,0.5734698729859794,-9.991993,0.010106000000000392,-0.009148999999999852,0.029441000000000002,0.0003665191429188,-0.0068765972528574,-2.563661935456544
52.130325814536334,0.6097193841655205,0.5734695338685057,-10.003816,-0.0049320000000001585,-0.014093000000000133,-0.016099,-0.00305432619099,-0.0022340214425526,-2.5620035759611763
53.1328320802005,0.6097191185264084,0.5734691947510321,-9.990672,0.01854900000000015,0.029135000000000133,-0.017714,0.0102625360017266,-0.0003141592653588,-2.562684289276038
54.13533834586466,0.6097188701660559,0.5734688744831143,-9.978151,0.1788939999999999,0.22291099999999986,0.006367999999999999,-0.0118682389135614,-0.0008028514559172,-2.669638170558007
55.13784461152882,0.6097186823686283,0.5734685561350588,-9.996627,-0.09491000000000027,0.3319630000000001,0.051250000000000004,-0.0029146998508305,-0.0205250720034533,-2.8476268127698035
56.14035087719298,0.6097185333175102,0.5734682529713676,-10.031375,-0.04020299999999999,0.33165100000000003,-0.00938,0.0056199601914217,-0.0283266937598678,-3.003955953870936
57.14285714285714,0.6097184706601899,0.5734679267693304,-10.066241,-0.02205799999999991,0.34605099999999994,0.014420000000000002,-0.001221730476396,-0.0364424747816416,-3.137630668921304
58.1453634085213,0.609718466122334,0.5734675982983652,-10.121523,0.020439000000000096,0.289357,0.023447000000000003,0.0006283185307179,-0.0394968009726315,3.04320828657524
59.14786967418546,0.6097185130716908,0.5734672719217951,-10.203298,0.04446299999999992,0.202863,0.021579999999999988,-0.0057595865315812,-0.0411548637620262,2.9712834949933566
60.15037593984962,0.6097185921351059,0.5734669535737396,-10.29411,0.05065799999999987,0.132284,-0.004297999999999996,0.0129852496348378,-0.0406487182789478,2.9251367801311163
61.15288220551378,0.6097186895244782,0.573466642207001,-10.374321,0.0308010000000003,0.08257700000000001,-0.012781,0.0056025068989017,-0.0383099770812753,2.9035995218812616
62.15538847117794,0.6097187961640955,0.5734663345054538,-10.441871,0.005231999999999903,0.042080000000000006,-0.012337999999999995,0.0062657320146596,-0.0340339204138893,2.9024301338291325
63.1578947368421,0.60971890681797,0.573466026105775,-10.493917,-0.0021640000000000548,0.005584000000000033,-0.017177000000000005,0.0031066860685499,-0.026755897433073,2.915834087951524
64.16040100250626,0.6097190174718448,0.5734657163098329,-10.535041,-0.00285499999999983,-0.017856000000000094,-0.004562999999999998,0.0080634211442138,-0.0196175007924161,2.9401642046171275
65.16290726817043,0.6097191235878632,0.573465405466693,-10.572384,-0.0026480000000002057,-0.03798199999999996,-0.0076929999999999985,0.010768681484805,-0.0120427718387607,2.9742329443495947
66.16541353383458,0.6097192188828403,0.5734650956707509,-10.60128,-0.004062999999999928,-0.061929999999999985,-0.008537,0.0077667151713747,-0.0058992128717407,3.0154054184837733
67.16791979949875,0.6097192995170517,0.5734647834313477,-10.622087,-0.018139999999999823,-0.09124100000000002,-0.008305,0.0099832833214075,-0.0012566370614357,3.0603475943627494
68.1704260651629,0.6097193592073122,0.5734644671776872,-10.62983,-0.02648600000000023,-0.103854,-0.021596,0.016004669240788,0.0039618974020272,3.102793862144912
69.17293233082707,0.609719401618813,0.5734641469097694,-10.606639,-0.010772999999999922,-0.081423,-0.034944,0.0081332343142935,0.0096516707635287,3.1392711736984227
70.17543859649122,0.6097194304167457,0.57346382594372,-10.556034,0.0030329999999998414,-0.047431,-0.014809999999999997,0.0105068820970058,0.0138230076757952,-3.112271244329337
71.17794486215539,0.6097194503134992,0.5734635056758023,-10.510887,0.0015360000000002039,-0.049965999999999997,0.023072000000000002,0.0145036860840728,0.0139626340159546,-3.08343826546005
72.18045112781954,0.60971945991281,0.5734631852333516,-10.497552,-0.006121999999999961,-0.08477799999999999,0.029206999999999997,0.0149749249821113,0.011100294042684,-3.056560317152385
73.1829573934837,0.60971945275696,0.5734628651399668,-10.492826,-0.005549999999999944,-0.078793,-0.012903999999999999,0.0150272848596711,0.0098960168588078,-3.03867053523981
74.18546365914787,0.6097194311148775,0.5734625439993843,-10.463043,0.001862999999999726,-0.042029,-0.029075000000000004,0.0110304808726041,0.0090931654028905,-3.029856797050164
75.18796992481202,0.6097194042368069,0.5734622228588021,-10.40535,0.002531000000000283,-0.004268999999999995,-0.021409000000000004,0.007365289443416,0.0070511301780571,-3.0274655563485915
76.19047619047619,0.6097193791040656,0.5734619018927526,-10.343021,-0.002539000000000069,0.021075999999999984,0.013494000000000006,0.0056723200689815,0.0031764992386298,-3.0283382733344664
77.19298245614034,0.6097193588582464,0.5734615800540386,-10.314893,-0.009041999999999994,0.010579000000000005,0.047962,0.0041364303272265,-0.0016231562043547,-3.031165741629282
78.19548872180451,0.6097193391360258,0.5734612582153245,-10.332035,-0.004722000000000115,-0.025954000000000005,0.033036,0.0094945911308491,-0.0051487212933831,-3.033818519919266
79.19799498746866,0.6097193152250151,0.5734609358530116,-10.360285,0.012240999999999946,-0.025205000000000005,-0.0057950000000000015,0.0069638637154573,-0.0066147978650583,-3.041253535266299
80.20050125313283,0.6097192881724116,0.5734606145378964,-10.370508,0.01059600000000005,0.01606300000000002,-0.024686999999999997,0.0070162235930172,-0.008237954069413,-3.054797569514456
81.203007518797,0.6097192658321973,0.5734602953171762,-10.361099,-0.00819700000000001,0.04441099999999999,-0.011004,0.0022340214425527,-0.0104719755119659,-3.0700516250038388
82.20551378446115,0.6097192522186291,0.5734599722567316,-10.347446,-0.017774999999999874,0.042151999999999995,0.0018110000000000001,0.0008901179185171,-0.0098785635662879,-3.0824608985322257
83.20802005012531,0.6097192468081084,0.5734596465782933,-10.343059,-0.010470999999999897,0.029455,0.012862,0.0001570796326794,-0.0079063415115343,-3.092688493042328
84.21052631578947,0.6097192489025035,0.5734593196781244,-10.355122,0.003113999999999617,0.008569,0.013993,0.0015009831567151,-0.0060737457969402,-3.1005248468508566
85.21303258145363,0.6097192499497011,0.5734589945232847,-10.369821,0.013827000000000034,0.01311,-0.008605,0.0028797932657906,-0.004886921905584,-3.1079776994628454
86.21553884711778,0.6097192553602218,0.5734586723355047,-10.376056,0.013874000000000386,0.035942,-0.0006120000000000006,-0.0005759586531581,-0.0050090949532237,-3.1137895236989386
87.21804511278195,0.6097192658321973,0.5734583527657187,-10.393556,-0.0008510000000003792,0.009409,0.019083000000000003,0.0122173047639603,-0.0048171087355042,-3.1140513056334456
88.22055137844612,0.609719273511646,0.5734580335449986,-10.420544,-0.005732999999999766,-0.026984,-0.003427000000000003,0.0114493598930828,-0.0029321531433503,-3.111538083870451
89.22305764411027,0.6097192782240349,0.5734577113572186,-10.429992,-0.006888000000000005,-0.02024,-0.031004999999999998,0.0035255650890285,3.4906585040017646e-05,-3.1104035674967774
90.22556390977444,0.6097192811910946,0.573457388122241,-10.401209,-0.005091999999999874,0.016301,-0.03761300000000001,0.0015009831567151,0.0044331363000655,-3.110420881162957
91.2280701754386,0.6097192874742801,0.5734570647127307,-10.350019,-0.0023490000000001565,0.030230999999999997,-0.005058,-0.0021642082724729,0.0078714349264945,-3.108658412777708
92.23057644110276,0.6097193009133153,0.5734567407796215,-10.312311,0.00788000000000011,0.017224000000000003,0.029219000000000002,0.002460914245312,0.0095120444233691,-3.1044346287214197
93.23308270676692,0.6097193145268833,0.5734564182427758,-10.311448,0.010247999999999813,-0.029768,0.035619,0.0032812189937493,0.00921533845053,-3.096126896388512
94.23558897243107,0.609719320111937,0.5734560969276605,-10.326758,0.0011900000000002464,-0.059474,-0.01089,0.0141022603561141,0.0101578162466071,-3.087626898585204
95.23809523809524,0.6097193150504822,0.5734557749144136,-10.307899,-0.0028410000000000935,-0.021061,-0.044734,0.0040317105721069,0.0125663706143592,-3.0852185885635466
96.2406015037594,0.6097193051021055,0.5734554548210287,-10.250449,-0.0043239999999999945,0.017923,-0.023753999999999997,-0.0038746309394274,0.0142942465738336,-3.0859863763547914
97.24310776942356,0.6097193002151835,0.5734551335059134,-10.187023,-0.0033120000000002037,0.020186999999999997,0.008617,0.0016755160819145,0.0142767932813137,-3.0861610838129163
98.24561403508773,0.6097193007387823,0.5734548104454689,-10.141159,-0.004040999999999961,0.0009969999999999996,0.019528999999999998,0.0037699111843077,0.0130550628049177,-3.085864412746662
99.24812030075188,0.6097193026586444,0.5734544875595573,-10.112738,0.0008340000000002235,-0.011596,0.011398000000000002,0.0054454272662223,0.01232202451908,-3.085934191010157
100.25062656641605,0.6097193003897164,0.5734541651972445,-10.089897,0.009487000000000023,-0.013685,0.001072,0.0060039326268604,0.0109083078249645,-3.08645775487917
101.2531328320802,0.6097192941065311,0.5734538444057279,-10.066199,0.007446999999999981,-0.009848999999999997,-0.0002139999999999989,0.0022863813201125,0.0076270888312153,-3.08727800726773
102.25563909774436,0.6097192879978787,0.5734535246614089,-10.039699,-0.0069630000000002745,0.011604999999999997,-0.004677999999999998,0.0045029494701453,0.0039444441095073,-3.090349699484777
103.25814536340852,0.6097192845072201,0.5734532021245631,-10.012118,-0.013628999999999891,0.023277,0.0022629999999999977,-0.0006981317007977,0.0016057029118348,-3.0930549423720763
104.26065162907268,0.6097192853798848,0.5734528790641186,-9.987198,0.0013990000000001501,0.010009,0.003972,0.0001745329251994,0.0013788101090754,-3.09485284094114
105.26315789473684,0.6097192899177409,0.573452555829141,-9.96843,0.01738699999999982,0.00469,0.010267,0.0044680428851054,-3.49065850397956e-05,-3.0965804376479342
106.265664160401,0.6097192951537286,0.5734522331177625,-9.968588,0.004808999999999841,-0.0075250000000000004,0.023986,0.00614355896702,-0.0040840704496667,-3.0963538066445637
107.26817042606515,0.6097192948046628,0.5734519133734435,-9.985184,-0.012936999999999976,-0.027048,0.0020300000000000006,0.0057421332390613,-0.0053058009260626,-3.0937705448186863
108.27067669172932,0.6097192911394713,0.5734515925819269,-9.983006,-0.0046719999999997874,-0.0007649999999999983,-0.029796999999999997,0.0005585053606381,-0.0039269908169872,-3.0944339270140766
109.27318295739347,0.6097192911394713,0.5734512702196141,-9.96039,0.00680499999999995,0.035361,-0.0045530000000000015,0.0001745329251994,-0.0039444441095071,-3.097941846824368
110.27568922305764,0.6097192935829323,0.5734509490790317,-9.948522,2.6999999999777202e-05,0.016022,0.01901,0.0001919862177193,-0.0052359877559828,-3.097383638169702
111.2781954887218,0.6097192995170517,0.5734506275893835,-9.952681,0.0004930000000000767,-0.004175999999999999,0.008134,0.0013613568165555,-0.0056548667764615,-3.0944339270140766
112.28070175438596,0.609719305800237,0.5734503069724,-9.960752,0.00541500000000017,-0.011662,0.0011509999999999992,0.0003839724354387,-0.0061959188445797,-3.0912748810679678
113.28320802005013,0.6097193092908956,0.5734499879262127,-9.974779,-0.0006729999999999237,-0.025347,0.009004999999999999,0.0056897733615015,-0.0072082098107364,-3.087504917523782
114.28571428571428,0.6097193049275725,0.5734496662620314,-9.987096,-0.006715999999999944,-0.019026,-0.010048999999999999,0.0088662726001311,-0.0069464104229373,-3.085375720556104
115.28822055137844,0.6097192996915847,0.573449343201587,-9.985009,-5.000000000032756e-05,0.012835,-0.015729,-0.0005759586531581,-0.0065449846949787,-3.08645775487917
116.2907268170426,0.6097192963754592,0.5734490201411424,-9.975599,0.005656000000000105,0.025580000000000002,0.0026569999999999996,-0.0004363323129985,-0.0081506876068133,-3.088011185179908
117.29323308270676,0.609719298993453,0.5734486983024283,-9.976941,-0.0012590000000001211,0.005634,0.014693999999999999,-6.98131700797731e-05,-0.0103672557568461,-3.08719067099196
118.29573934837092,0.6097193030077103,0.5734483768127802,-9.996167,-0.0041719999999996205,-0.021069,0.017563000000000002,0.0031066860685499,-0.0121649448864005,-3.0854454988195985
119.29824561403508,0.6097192996915847,0.5734480544504673,-10.023881,0.0006329999999996616,-0.029128,0.00022699999999999804,0.0057770398241012,-0.0121823981789204,-3.0845552063681563
120.30075187969923,0.6097192904413398,0.5734477315645556,-10.042578,0.0009570000000000967,-0.007085000000000001,-0.015425,0.0057246799465414,-0.0112748269678832,-3.0863528256845405
121.3032581453634,0.609719282761891,0.5734474104239733,-10.043728,-0.0007039999999998159,0.029324000000000003,-0.015932,0.0020594885173533,-0.0100705497840072,-3.090733741733386
122.30576441102755,0.609719280492963,0.573447088934325,-10.038431,0.0011090000000000266,0.041532,0.0059240000000000004,-0.0017278759594743,-0.0094771378383291,-3.0942941086877
123.30827067669172,0.6097192857289507,0.5734467669210781,-10.05313,0.003022999999999776,0.0008790000000000013,0.029289000000000003,0.0054279739737023,-0.009808750396208,-3.092863200500452
124.31077694235589,0.6097192899177409,0.5734464449078311,-10.093459,-0.00449300000000008,-0.043881,0.012173999999999997,0.0068067840827778,-0.0095469510084089,-3.0902975141401425
125.31328320802004,0.6097192862525495,0.5734461225455183,-10.124107,-0.0015329999999997845,-0.026238000000000004,-0.026305,0.0031241393610698,-0.0069464104229373,-3.091536680455766
126.3157894736842,0.6097192759551069,0.573445801404936,-10.124248,0.00154299999999985,0.014672000000000004,-0.030492,0.0028623399732707,-0.003961897402027,-3.096092007256764
127.31829573934836,0.6097192681011252,0.5734454786935572,-10.101214,0.0026209999999999845,0.040045,-0.013679,-0.0024260076602721,-0.0018675022996339,-3.1014851793651816
128.32080200501252,0.6097192729880472,0.5734451568548431,-10.078903,-0.0014759999999998108,0.030595999999999998,0.015693,0.0005061454830783,-0.0021991148575128,-3.1036838927969663
129.32330827067668,0.6097192824128251,0.5734448343179973,-10.081592,-0.006120000000000125,-0.009489999999999998,0.028032,0.0013439035240356,-0.0038048177693474,-3.101066265438118
130.32581453634086,0.6097192900922739,0.5734445119556845,-10.104548,0.000456000000000234,-0.024839,0.007458999999999999,0.0032463124087094,-0.0042062434973062,-3.0982387796900097
131.328320802005,0.6097192914885372,0.5734441904660363,-10.122749,0.007089999999999819,-0.011024,-0.014403,-0.0005759586531581,-0.0034557519189486,-3.097767401165631
132.33082706766916,0.6097192881724116,0.5734438701981185,-10.119446,0.009020000000000028,0.004372000000000001,-0.021037,0.008290313946973,-0.0026179938779913,-3.0983261334190715
133.33333333333331,0.6097192860780165,0.573443549581135,-10.103092,-0.0015650000000002606,0.007852,-0.0021969999999999993,0.0041538836197465,-0.0031939525311495,-3.0981863150926947
134.3358395989975,0.6097192878233457,0.5734432287896184,-10.093109,-0.01252999999999993,0.0016309999999999999,0.009498999999999999,0.0004712388980384,-0.0039269908169872,-3.0974358409676293
135.33834586466165,0.6097192888705434,0.573442905554641,-10.088233,-0.005691999999999808,0.0,-0.0013489999999999995,0.0025307274153917,-0.0026529004630313,-3.096528234850008
136.3408521303258,0.6097192920121359,0.5734425826687293,-10.082037,0.009633000000000003,0.001487,0.003796999999999999,0.00614355896702,-0.0023736477827123,-3.095900003585752
137.34335839598998,0.6097192937574653,0.5734422610045482,-10.089135,0.006531999999999982,-0.013287,0.015878,0.0033335788713091,-0.0033859387488688,-3.094678133483016
138.34586466165413,0.6097192918376031,0.5734419412602292,-10.102578,-0.0013980000000000103,-0.019744,-0.005889000000000001,0.0045553093477052,-0.003665191429188,-3.093386781822758
139.34837092731829,0.6097192886960104,0.5734416202941799,-10.094458,-0.003438000000000052,0.0055049999999999995,-0.030236,0.0021642082724729,-0.0025481807079117,-3.094556169874886
140.35087719298244,0.6097192859034837,0.5734412970592023,-10.063784,-0.0018759999999997667,0.025988,-0.008878,-8.726646259971646e-05,-0.0028099800957108,-3.096545810315575
141.35338345864662,0.6097192874742801,0.5734409724279615,-10.044497,-0.005782000000000398,0.019032,0.023191000000000003,1.7453292519943296e-05,-0.0033161255787892,-3.095900003585752
142.35588972431077,0.6097192970735908,0.573440649192984,-10.051608,0.004931000000000019,-0.001124,0.029003,-0.0004712388980384,-0.0038746309394273,-3.094817951809393
143.35839598997492,0.6097193040549078,0.5734403266561383,-10.082684,0.010584000000000149,-0.035648,0.013667000000000002,0.0035430183815484,-0.0054105206811823,-3.092182487185589
144.36090225563908,0.6097192982953212,0.5734400072608852,-10.107232,0.002755000000000063,-0.042336,-0.026949,0.0055676003138619,-0.0059864793343404,-3.0904021640820925
145.36340852130326,0.6097192869506812,0.5734396894364283,-10.088235,-0.005641999999999925,0.019657,-0.047729,0.0019024088846738,-0.0058293997016609,-3.0943990378823294
146.3659147869674,0.6097192843326873,0.5734393674231814,-10.043152,-0.008413000000000004,0.067926,0.004622000000000001,-0.0050265482457436,-0.0065100781099387,-3.0985178927439883
147.36842105263156,0.6097192918376031,0.5734390448863356,-10.031799,-0.011048000000000169,0.018459000000000003,0.047802,-0.0022689280275926,-0.0063529984772592,-3.09556816413507
148.37092731829574,0.6097193035313091,0.5734387204296276,-10.06009,0.00641999999999987,-0.045290000000000004,0.023870000000000002,0.0048171087355043,-0.0042236967898261,-3.090018139286776
149.3734335839599,0.6097193054511713,0.5734383975437161,-10.088501,0.015299000000000174,-0.048989,-0.020263000000000003,0.0022340214425527,-0.0035604716740684,-3.087749403245401
150.37593984962405,0.6097192979462556,0.5734380767521995,-10.086694,0.0035210000000001074,-0.003804000000000002,-0.036178,0.0026703537555513,-0.0043982297150255,-3.089895896425966
151.3784461152882,0.609719289743208,0.5734377568333475,-10.055343,-0.007290999999999936,0.037709,-0.014813999999999997,0.0004188790204786,-0.0053930673886624,-3.093194760698453
152.38095238095238,0.6097192899177409,0.5734374355182323,-10.030598,-0.00797099999999995,0.034983,0.025164,-0.0016406094968746,-0.0059690260418205,-3.094084791350508
153.38345864661653,0.609719298993453,0.5734371122832548,-10.039459,0.0008759999999998769,-0.00638,0.03379,0.0010995574287564,-0.0068940505453776,-3.0919555943828296
154.38596491228068,0.6097193044039737,0.5734367902700078,-10.070226,0.007165000000000088,-0.031774,0.007063,0.0039095375244672,-0.0083601271170528,-3.090192584945513
155.3884711779449,0.6097193007387823,0.5734364668604974,-10.091641,-0.0002530000000002808,-0.020614,-0.024814999999999997,0.004590215932745,-0.0084997534572122,-3.089895896425966
156.39097744360902,0.6097192956773274,0.5734361453708492,-10.082154,-0.0035719999999996865,0.02016,-0.027596000000000002,-0.0014660765716752,-0.0065798912800185,-3.092182487185589
157.39348370927317,0.6097192951537286,0.5734358244047999,-10.062636,0.0021179999999998422,0.027123,0.013732000000000001,-0.0021991148575128,-0.005811946409141,-3.092828049569317
158.39598997493732,0.6097192984698542,0.5734355022170198,-10.071128,-0.0011730000000000906,-0.010865,0.029346999999999998,0.0033161255787892,-0.0055501470213419,-3.0905068314773345
159.3984962406015,0.6097192998661176,0.5734351782839108,-10.090663,-0.00015499999999990521,-0.025477,-0.013607999999999999,0.0024783675378319,-0.0043807764225056,-3.088552080168393
160.40100250626566,0.6097192963754592,0.5734348562706637,-10.08219,0.00262999999999991,0.009932999999999999,-0.031175,0.0009773843811168,-0.0029845130209102,-3.0898612865468995
161.4035087719298,0.6097192958518604,0.5734345332102192,-10.054955,-0.004704999999999959,0.024963,-0.0005449999999999969,-0.0027925268031909,-0.0020420352248333,-3.0909606345361453
162.406015037594,0.6097192981207883,0.5734342085789783,-10.043079,-0.0027330000000000965,0.0012580000000000004,0.024784999999999998,-0.0032637657012293,-0.0016231562043547,-3.0887265083738376
163.40852130325814,0.6097193009133153,0.5734338858675996,-10.053468,-0.0008930000000000327,-0.021669,0.01408,0.0017278759594743,-0.0009948376736366,-3.085009271226355
164.4110275689223,0.6097193007387823,0.5734335636798197,-10.067178,0.00843600000000011,-0.020469,-0.003961000000000001,0.0061959188445798,6.981317007981325e-05,-3.084572781833724
165.41353383458645,0.6097192921866689,0.5734332427137703,-10.072213,0.006168999999999869,-0.013597000000000005,-0.013694999999999999,0.0027052603405912,8.726646259971105e-05,-3.0858468372810948
166.41604010025063,0.6097192820637592,0.5734329219222537,-10.059476,-0.0017279999999999518,0.007653,-0.021776,-0.0019547687622336,0.0002792526803192,-3.088238077982667
167.41854636591478,0.6097192759551069,0.5734326016543361,-10.029769,-0.008598999999999801,0.030647000000000004,-0.007610000000000002,-0.0030194196059501,0.0002967059728391,-3.0917111086612103
168.42105263157893,0.609719278049502,0.5734322789429573,-10.003957,-0.011495000000000033,0.022688,0.016002000000000002,-0.0005410520681182,0.0008901179185172,-3.0935438963620223
169.4235588972431,0.6097192852053519,0.5734319539626506,-9.99816,-0.00021000000000004349,-0.0021340000000000005,0.018302,-0.0011170107212763,0.0019373154697137,-3.093282114427516
170.42606516290726,0.6097192899177409,0.5734316303786073,-10.004185,0.016823000000000032,-0.011336,0.0033900000000000002,-0.001221730476396,0.0024434609527921,-3.0937881202842537
171.42857142857142,0.6097192902668068,0.5734313099361567,-10.011599,0.01222000000000012,-0.013538999999999999,1.5999999999999955e-05,0.002740166925631,0.000959931088597,-3.0937705448186863
172.43107769423557,0.6097192866016153,0.573430991762634,-10.010479,-0.005551000000000084,-0.016929,-0.013172,0.0059166661642607,0.0,-3.0922871545808315
173.43358395989975,0.6097192813656276,0.5734306716692491,-9.994672,-0.013390000000000235,0.0017010000000000011,-0.014823000000000001,-0.0011868238913561,0.0013613568165555,-3.092967867895694
174.4360902255639,0.6097192799693643,0.5734303486088046,-9.966496,-0.005456999999999823,0.026009,-0.007608999999999998,-0.0065624379874986,0.0038920842319474,-3.096318917512816
175.43859649122803,0.6097192838090886,0.5734300236284979,-9.940967,0.003566999999999876,0.023476,0.011539999999999998,-0.0028972465583105,0.0040840704496667,-3.0979769977555027
176.44110275689223,0.6097192907904055,0.5734296991717899,-9.927851,0.010454999999999881,-0.0026370000000000005,0.010467,0.0017104226669544,0.0045727626402252,-3.0963013420472483
177.4436090225564,0.609719296549992,0.5734293780312075,-9.924717,0.0037329999999999863,-0.024703000000000003,0.005592,0.0067369709126981,0.0033335788713091,-3.09335161343833
178.44611528822054,0.6097192956773274,0.5734290572396911,-9.915283,-0.004633999999999805,-0.021261000000000002,-0.017872,-0.0013089969389957,0.0020943951023932,-3.0912048410050845
179.4486215538847,0.6097192909649385,0.5734287360991087,-9.885963,-0.0030800000000001937,0.012302,-0.012629000000000001,-0.004904375198104,-0.0002617993877991,-3.0909606345361453
180.45112781954887,0.6097192888705434,0.5734284123405324,-9.86097,-0.007794999999999774,0.019787,0.018932,-0.0030368728984701,-0.00307177948351,-3.09033240327189
181.45363408521305,0.6097192907904055,0.5734280882328904,-9.860316,-0.002183000000000046,-0.004757,0.025104,0.0043982297150257,-0.004276056667386,-3.088412523641404
182.4561403508772,0.6097192925357348,0.5734277656960446,-9.873843,0.007182000000000244,-0.029122000000000002,0.00021000000000000012,0.0032812189937493,-0.0046600291028247,-3.087260431802162
183.45864661654133,0.6097192883469446,0.5734274464753244,-9.876469,0.010231999999999797,-0.013274999999999999,-0.01656,0.000610865238198,-0.0059341194567805,-3.0884823019048984
184.4611528822055,0.6097192815401604,0.5734271263819396,-9.868823,0.0028359999999998386,0.012294,-9.400000000000033e-05,0.0024085543677521,-0.008272860654453,-3.090855967140904
185.4636591478697,0.6097192757805739,0.5734268052413571,-9.872671,-0.008751999999999871,0.012839,0.018626999999999998,0.0029321531433504,-0.0100007366139274,-3.0928980896322
186.46616541353384,0.609719275606041,0.5734264823554455,-9.891022,-0.009558000000000177,0.0016469999999999992,0.0075379999999999996,-0.0021118483949131,-0.0103847090493662,-3.094939932870815
187.468671679198,0.6097192764787057,0.5734261568515401,-9.904852,-0.00841499999999984,-0.005243999999999999,-0.019067999999999998,0.0004188790204786,-0.0090931654028902,-3.097034502506133
188.47117794486212,0.6097192775259032,0.5734258309985687,-9.891469,0.00834299999999999,0.026894,-0.023327,0.0006632251157578,-0.0063529984772592,-3.1008044835036115
189.4736842105263,0.6097192824128251,0.5734255070654596,-9.878078,0.012180999999999997,0.034913,0.025527,-0.0066846110351382,-0.0062308254296197,-3.1026543056179228
190.47619047619045,0.6097192916630702,0.5734251857503443,-9.905923,0.00278199999999984,-0.014452000000000003,0.044333000000000004,0.002443460952792,-0.0066846110351381,-3.098867028407557
191.47869674185463,0.6097192975971897,0.5734248649588278,-9.959905,-0.004056999999999977,-0.05598,-0.0009830000000000047,0.0063704517697793,-0.0054803338512621,-3.0943814624167616
192.4812030075188,0.6097192914885372,0.5734245429455808,-9.980985,-0.0012289999999999246,-0.029884,-0.055672,0.0029496064358704,-0.0025132741228717,-3.0953937359296257
193.4837092731829,0.6097192810165617,0.5734242204087351,-9.940641,-0.0028809999999999114,0.040109000000000006,-0.05211999999999999,-0.0042411500823462,0.000959931088597,-3.100141083854928
194.48621553884712,0.609719280492963,0.5734238985700209,-9.883037,-0.006857999999999809,0.06908299999999999,0.017983999999999993,-0.0061610122595399,0.0030543261909901,-3.102322745419921
195.48872180451127,0.6097192949791956,0.5734235758586422,-9.86709,-0.000564000000000231,0.009126000000000002,0.049753,-0.0001047197551196,0.0042236967898263,-3.0977847148318105
196.49122807017545,0.6097193133051528,0.5734232514019343,-9.890291,0.01182799999999995,-0.053047,0.019013,0.0068242373752978,0.0041887902047863,-3.09123999193622
197.4937343358396,0.6097193152250151,0.5734229314830824,-9.906378,0.011216000000000115,-0.05516,-0.027558,0.0047123889803846,0.0040491638646269,-3.0866497760034743
198.49624060150376,0.6097193044039737,0.5734226122623622,-9.8856,-0.004045999999999772,-0.010487000000000003,-0.036403,0.0023038346126325,0.0038048177693477,-3.0863182158054734
199.4987468671679,0.6097192920121359,0.5734222914708458,-9.837019,-0.016624000000000194,0.032952,-0.014473,-0.0016580627893946,0.0032288591161895,-3.089145422300901
200.5012531328321,0.6097192913140043,0.5734219692830659,-9.789369,-0.010101000000000138,0.038650000000000004,0.013250999999999999,-0.003996803987067,0.0034906585039886,-3.090803781796269
201.50375939849624,0.6097192970735908,0.5734216434300944,-9.76952,0.012823000000000029,0.0018200000000000004,0.042778,0.0011170107212763,0.002495820830352,-3.089564336227965
202.5062656641604,0.6097192993425189,0.5734213198460512,-9.790442,0.012030999999999903,-0.0493,0.025974999999999998,0.0066322511575784,0.0006806784082777,-3.086405290281855
203.50877192982452,0.6097192913140043,0.5734209971346724,-9.801888,-0.0001609999999998557,-0.030771000000000007,-0.043007000000000004,0.0018849555921538,0.000314159265359,-3.0877142348609734
204.5112781954887,0.6097192787476337,0.57342067599409,-9.760716,-0.0036689999999999223,0.034454000000000005,-0.044906,0.0022165681500327,0.0004363323129985,-3.0932296498302008
205.51378446115288,0.6097192724644485,0.5734203522355138,-9.706753,-0.009628000000000192,0.042609,0.020648,-0.0046600291028248,-0.0013089969389956,-3.096842219582441
206.51629072681703,0.6097192763041728,0.5734200277788059,-9.691169,-0.004820999999999742,0.007186,0.04326,0.0005585053606381,-0.0027925268031909,-3.098256093356189
207.5187969924812,0.6097192834600227,0.5734197010531699,-9.708613,0.002985999999999933,-0.014592,0.015843,0.0024085543677521,-0.0037175513067477,-3.097924533158188
208.5213032581453,0.6097192869506812,0.5734193753747314,-9.723765,0.006180000000000074,-0.016297,-0.017195000000000002,-0.0013962634015954,-0.0038571776469074,-3.097732529487176
209.52380952380952,0.6097192841581545,0.573419052139754,-9.711467,-0.0005350000000001742,-0.00042000000000000023,-0.033901,0.0042760566673861,-0.0036826447217079,-3.0979769977555027
210.52631578947367,0.609719285030819,0.5734187297774411,-9.673117,0.008392000000000177,0.038291,0.0003820000000000004,-0.0034732052114687,-0.0037873644768275,-3.0998793019204216
211.52882205513785,0.6097192923612018,0.5734184096840562,-9.671327,-0.0001610000000002998,0.001178000000000002,0.057963,5.2359877559829855e-05,-0.00614355896702,-3.0969295733115034
212.531328320802,0.6097192948046628,0.5734180887180069,-9.713744,-0.010539999999999772,-0.048568,0.013041000000000004,0.0080634211442138,-0.0066671577426182,-3.0924442865733885
213.53383458646616,0.6097192916630702,0.5734177646103648,-9.726108,-0.0011900000000002464,-0.014431,-0.060686000000000004,-2.7105474421148534e-20,-0.0055676003138618,-3.092566250181517
214.5363408521303,0.6097192853798848,0.5734174408517886,-9.685012,0.003927000000000014,0.047263,-0.030989999999999997,-0.0062482787221396,-0.0057770398241012,-3.095725296127628
215.5388471177945,0.6097192876488128,0.5734171197112061,-9.649155,0.0034089999999999954,0.038903,0.04031,-0.0005410520681182,-0.0065100781099387,-3.0946435236039487
216.54135338345864,0.609719296724525,0.5734167969998274,-9.6696,-0.005726999999999816,-0.030918,0.054491,0.0016057029118347,-0.0073129295658562,-3.088325431711729
217.5438596491228,0.6097193019605127,0.5734164735903171,-9.715529,0.0019140000000001933,-0.048889,-0.006836000000000002,0.003682644721708,-0.0057595865315811,-3.083752529445164
218.54636591478692,0.6097192963754592,0.5734161498317408,-9.73397,0.007202999999999626,-0.007832000000000002,-0.040537,0.0007853981633974,-0.0055501470213419,-3.084747471838556
219.54887218045116,0.6097192883469446,0.5734158281675598,-9.720283,0.006017000000000383,0.021688,-0.011677,-0.0020594885173533,-0.0071733032256966,-3.087225821923095
220.55137844611528,0.6097192853798848,0.5734155077251091,-9.709489,-0.009937000000000307,0.007306,0.009021999999999999,0.0007679448708775,-0.0081157810217735,-3.0882729671144142
221.55388471177943,0.6097192874742801,0.5734151841410657,-9.701564,-0.0068470000000000475,0.008643,-0.006367,-0.0006981317007977,-0.0072082098107364,-3.089442372619836
222.5563909774436,0.6097192914885372,0.5734148605570223,-9.690997,0.005437000000000136,0.021799,0.008848,-0.0048869219055841,-0.0072431163957764,-3.0892500896961432
223.55889724310777,0.6097192963754592,0.5734145362748474,-9.705231,0.002063000000000148,-0.009813999999999998,0.035380999999999996,0.0026703537555513,-0.0105941485596054,-3.085969080141904
224.56140350877192,0.6097192979462556,0.573414210421876,-9.749002,-0.005120999999999931,-0.041394,0.014289,0.0039444441095071,-0.0126885436619987,-3.082338655671416
225.56390977443607,0.6097192928848006,0.5734138852670364,-9.781837,-0.0019900000000001583,-0.014753999999999996,-0.031266,0.0001047197551196,-0.0117984257434815,-3.0834206899944823
226.56641604010025,0.6097192839836215,0.573413564126454,-9.7793,0.007911000000000001,0.027323999999999998,-0.028629,-0.0004363323129985,-0.0103148958792864,-3.087731810326541
227.5689223057644,0.609719282761891,0.573413242113207,-9.76483,0.005030999999999786,0.035022,0.0064139999999999996,-0.0016755160819145,-0.0099832833214075,-3.090471942345587
228.57142857142856,0.6097192862525495,0.5734129190527625,-9.771331,-0.0006759999999998989,0.003917,0.030597,0.0027227136331111,-0.0107861347773248,-3.0890061450265924
229.5739348370927,0.6097192913140043,0.5734125966904496,-9.809861,-0.0065909999999997915,-0.031295,0.023964999999999997,0.0052883476335428,-0.0105766952670856,-3.085026584892535
230.5764411027569,0.6097192890450762,0.5734122739790709,-9.850614,-0.006579000000000335,-0.032037,-0.020947999999999998,-0.0015533430342749,-0.0076096355386952,-3.08425851784861
231.57894736842104,0.6097192818892263,0.5734119502204946,-9.852224,0.0035930000000004014,0.009546000000000002,-0.050143,-0.0054454272662223,-0.0029496064358702,-3.088011185179908
232.5814536340852,0.6097192801438971,0.5734116276836488,-9.813808,0.0048639999999999795,0.048523,-0.017843,-0.003665191429188,-0.0008726646259971,-3.092042668859212
233.58395989974937,0.6097192876488128,0.5734113051468032,-9.783139,-0.001152000000000264,0.031611,0.028855000000000002,0.0005235987755982,-0.0018849555921538,-3.091536680455766
234.58646616541355,0.6097193007387823,0.5734109815627598,-9.794235,0.0011440000000000339,-0.020192,0.041936,0.0019024088846738,-0.0018675022996339,-3.0868242216622117
235.58897243107768,0.6097193071965005,0.5734106585023153,-9.834804,0.004153000000000073,-0.059492,0.011683999999999996,0.0054628805587422,-0.001169370598836,-3.081465938685541
236.59147869674183,0.6097192962009262,0.5734103345692061,-9.85733,-0.004671000000000092,-0.039755,-0.046865,0.0044680428851054,0.0010471975511967,-3.0814313113531817
237.593984962406,0.6097192817146934,0.5734100118578274,-9.818173,-0.004328999999999805,0.035501,-0.055796000000000005,-0.0010297442586766,0.0035081117965085,-3.0867022406007893
238.59649122807016,0.609719275606041,0.5734096856557902,-9.752332,-0.0069430000000001435,0.067895,0.006085000000000007,-0.0071907565182166,0.0049392817831439,-3.090646649803712
239.59899749373432,0.6097192841581545,0.5734093606754835,-9.717699,0.003595000000000237,0.01817,0.04294099999999999,-0.0019722220547535,0.0058643062867009,-3.089145422300901
240.6015037593985,0.6097193010878481,0.5734090355206439,-9.72451,0.012530999999999626,-0.031927,0.029986000000000002,0.00614355896702,0.0051836278784231,-3.08497412029522
241.60401002506265,0.6097193068474347,0.5734087133328639,-9.745448,0.006464999999999943,-0.044358,-0.002934000000000001,0.004921828490624,0.0035604716740684,-3.0812566038950573
242.6065162907268,0.6097192996915847,0.5734083946357424,-9.748046,-0.00486999999999993,-0.015544000000000002,-0.024224000000000002,0.0026529004630313,0.0030543261909901,-3.0803663114436146
243.60902255639093,0.6097192885214775,0.5734080729715614,-9.723602,-0.015647999999999662,0.006867000000000005,-0.026392,-0.0024260076602721,0.0039793506945471,-3.081553292414604
244.61152882205516,0.6097192825873581,0.5734077474676559,-9.677378,-0.0055240000000003064,0.019815,-0.016033,-0.0023212879051524,0.0065973445725386,-3.083752529445164
245.6140350877193,0.6097192818892263,0.5734074210910858,-9.6275,0.007805000000000284,0.030778,0.009248,-0.0053058009260627,0.0073129295658562,-3.0862308620764107
246.61654135338344,0.6097192881724116,0.5734070966343777,-9.603905,0.014515999999999973,0.019339999999999996,0.0407,-0.0037175513067479,0.0040491638646269,-3.0863182158054734
247.6190476190476,0.6097192949791956,0.5734067761919271,-9.622904,0.003045999999999882,-0.030357,0.033034,0.0066497044500983,-0.0007679448708775,-3.0821817854782467
248.62155388471177,0.6097192970735908,0.5734064555749435,-9.650039,-0.011175999999999853,-0.049021,-0.016947999999999998,0.0078016217564146,-0.0031939525311495,-3.0785164893293038
249.62406015037595,0.6097192883469446,0.5734061314673015,-9.638996,-0.009826000000000334,-0.004853000000000003,-0.044452,-0.0036128315516282,-0.0026354471705114,-3.0801745695719904
250.62656641604008,0.6097192782240349,0.5734058056143302,-9.598837,-0.0013119999999999798,0.038927,-0.010445999999999997,-0.0053756140961425,-0.0017104226669544,-3.0853930342222835
251.62907268170423,0.6097192782240349,0.5734054781905624,-9.56547,0.010775000000000201,0.050652,0.026716999999999998,-0.0075223690760955,-0.0014660765716751,-3.0886743055759105
252.6315789473684,0.6097192890450762,0.5734051554791838,-9.580306,0.008992999999999807,-0.0034549999999999997,0.056955,0.0076619954162551,-0.0035953782591082,-3.0853056804932213
253.63408521303256,0.6097192972481238,0.5734048348622001,-9.63657,-0.004537000000000013,-0.066066,0.015404000000000001,0.0096691240560485,-0.0049043751981039,-3.080139680440243
254.63659147869672,0.6097192892196092,0.5734045118017557,-9.667927,-0.008564999999999934,-0.048142000000000004,-0.05971,0.0035779249665883,-0.0028274333882307,-3.0799652347815063
255.6390977443609,0.609719273686179,0.573404186472383,-9.62851,-0.0019519999999997317,0.039346,-0.06195,-0.0045204027626653,0.0008203047484374,-3.08740025012854
256.64160401002505,0.6097192679265924,0.5734038613175434,-9.566933,-0.0006740000000000634,0.07710900000000001,0.021737,-0.0065275314024587,0.0009424777960769,-3.0932296498302008
257.64411027568923,0.6097192768277716,0.5734035375589671,-9.557104,0.004200999999999677,0.020656999999999995,0.064497,0.0030019663134302,0.0001396263401596,-3.0910828773969548
258.6466165413533,0.6097192921866689,0.5734032139749239,-9.605469,0.009659000000000084,-0.057959,0.038284,0.0058992128717408,-0.0017278759594743,-3.085969080141904
259.64912280701753,0.6097192948046628,0.573402891612611,-9.650527,0.0011120000000000019,-0.06828,-0.046076,0.0028623399732707,-0.0026878070480711,-3.084136292441092
260.6516290726817,0.6097192818892263,0.573402569424831,-9.622273,-0.004036999999999846,0.02729999999999999,-0.076275,-0.0003665191429188,-0.0020071286397933,-3.09043705321384
261.65413533834584,0.6097192761296398,0.5734022458407878,-9.55206,-0.007721000000000089,0.08598700000000001,0.006217999999999994,-0.009843656981248,-0.0016580627893945,-3.0946608372701285
262.65664160401,0.6097192867761483,0.5734019215586127,-9.5372,-0.005129000000000161,0.006473,0.082782,0.0029146998508305,-0.0013788101090754,-3.089704154554342
263.65914786967414,0.6097192970735908,0.5734015962292401,-9.587153,0.0037440000000001916,-0.085103,0.026649,0.0047123889803846,-0.000279252680319,-3.081710406953868
264.6616541353383,0.6097192932338665,0.5734012738669273,-9.617331,0.011746000000000034,-0.03705700000000001,-0.056428,0.0015009831567151,0.0005061454830783,-3.0834731545917973
265.6641604010025,0.6097192783985679,0.5734009577877998,-9.580603,0.11372199999999988,0.06388300000000001,-0.062091999999999994,0.0105941485596055,0.000959931088597,3.109216603979081
266.66666666666663,0.6097193051021055,0.5734006661432818,-9.521915,0.1822910000000002,0.39564499999999997,0.019595999999999995,0.060021872976085,-0.0048520153205442,2.8405409330863387
267.6691729323308,0.609719378405934,0.5734004184810609,-9.505716,0.24995299999999987,0.403071,0.053613999999999995,-0.0035604716740684,0.0005585053606382,2.5568375759081983
268.671679197995,0.6097195225701303,0.5734002151502031,-9.531956,0.2615529999999999,0.2962459999999999,0.039828,0.0117111592808819,-0.0006632251157578,2.3117932093018543
269.6741854636591,0.6097197396890892,0.5734000517873851,-9.565472,0.2843970000000001,0.2280660000000001,-0.033721,0.022759093446006,-0.0016755160819144,2.0960531826358824
270.6766917293233,0.6097200110877878,0.5733999318832655,-9.566458,0.291963,0.21133599999999997,-0.024671,-0.0459021593274508,-0.0165108147238663,1.9065453150010456
271.6791979949875,0.6097203177421374,0.5733998524707845,-9.550941,0.2812,0.19930700000000012,-0.006114999999999999,0.026145032194875,-0.0214675497995302,1.737614879247222
272.6817042606516,0.6097206666334548,0.573399818611397,-9.522923,0.27915100000000004,0.176639,-0.008149,0.0014311699866353,-0.0181339709282211,1.5798196441211223
273.6842105263158,0.6097210460680342,0.5733998264653787,-9.518025,0.288566,0.10606700000000013,0.039629,0.0070336768855371,-0.0150098315671511,1.4316237896941613
274.68671679198,0.6097214403379123,0.5733998756836636,-9.560806,0.28513900000000003,0.02216399999999963,0.047138,0.0194604211597367,-0.01228711793404,1.2938998758725813
275.6892230576441,0.6097218309425989,0.5733999690587785,-9.633663,0.26346200000000003,-0.04689499999999991,0.017631,0.0120602251312808,-0.0139800873084745,1.1707843329836087
276.69172932330827,0.6097222009524004,0.5734000990858078,-9.701832,0.21103799999999995,-0.11151899999999992,-0.023537999999999996,-0.0004363323129985,-0.0180467044656214,1.0716670673095583
277.6942355889724,0.6097225479238556,0.5734002607032965,-9.740252,0.17158600000000002,-0.07974400000000004,-0.03891700000000001,0.0059864793343405,-0.0192160750644574,0.9954310855824458
278.69674185463657,0.6097228774420184,0.5734004490243229,-9.73452,0.11497200000000007,-0.04674299999999998,-0.039949,-0.000296705972839,-0.0155508836352693,0.9366483440153992
279.69924812030075,0.6097231987571337,0.5734006535769112,-9.706664,0.07423499999999983,-0.04880799999999996,0.0012379999999999995,-0.0036477381366681,-0.0105592419745657,0.8887565791538451
280.7017543859649,0.6097235137890636,0.5734008649362835,-9.704261,0.05315500000000006,-0.07115000000000005,0.039167,-0.0010471975511965,-0.0063006385996995,0.8509177886107305
281.70426065162906,0.609723813985695,0.5734010801353804,-9.74237,0.040901000000000076,-0.08648499999999992,0.032376,-0.0013264502315156,-0.0048694686130641,0.8239350332814831
282.70676691729324,0.6097240944601058,0.5734013010940636,-9.795782,0.03713600000000006,-0.06876199999999999,-0.004737999999999999,0.0066322511575784,-0.005497787143782,0.8072322148866049
283.70927318295736,0.6097243614954814,0.5734015285104651,-9.829033,0.029985999999999846,-0.027244999999999964,-0.028692000000000002,0.0112399203828434,-0.0066322511575784,0.7986801539117101
284.71177944862154,0.6097246262619289,0.5734017583703277,-9.832086,0.024144000000000165,0.0002369999999998207,-0.0242,0.0095120444233691,-0.0057246799465413,0.7951196298777641
285.7142857142857,0.6097248950426336,0.5734019939897768,-9.814459,0.0234169999999998,0.0019620000000000193,-0.01613,0.0014660765716752,-0.0015533430342749,0.7938979168546608
286.71679197994985,0.6097251666158653,0.5734022318781538,-9.787566,0.008666000000000063,-0.002154999999999907,-0.0021769999999999984,0.0017278759594743,0.0025830872929517,0.794281871836807
287.719298245614,0.6097254395853603,0.5734024697665308,-9.768775,-0.012532999999999905,0.003533999999999926,0.014794,0.0048520153205442,0.0043982297150257,0.7965508173176921
288.7218045112781,0.6097257137765858,0.5734027025934529,-9.764446,-0.021878000000000064,-0.00047200000000002795,0.011375999999999999,0.0059166661642607,0.0044331363000655,0.798435738003261
289.72431077694233,0.609725983953554,0.5734029324533155,-9.77004,-0.007684000000000024,-0.013750999999999847,0.007537,0.0063529984772593,0.0023736477827123,0.7993083851759654
290.7268170426065,0.6097262527342587,0.5734031612659805,-9.78183,0.01603500000000002,-0.015932000000000057,0.004394,0.0078888882190143,-0.0002268928027591,0.799936756066561
291.72932330827064,0.6097265175007064,0.5734033953146331,-9.790318,0.019775000000000098,-0.0025370000000000115,-0.012761,0.00307177948351,-0.0006632251157578,0.8024151585109782
292.7318295739348,0.6097267834888843,0.5734036326794114,-9.779853,-8.000000000008e-06,0.0065549999999998665,-0.020769,-0.0004188790204786,0.0004712388980385,0.8058883288158617
293.734335839599,0.6097270517459903,0.5734038710913871,-9.754228,-0.013765000000000027,0.014142000000000099,-0.003827999999999998,0.0077318085863348,0.0004712388980385,0.8099025686421562
294.7368421052631,0.6097273245409525,0.5734041046164412,-9.736957,-0.011705999999999994,0.01971300000000009,0.016335,0.0078365283414545,0.0004014257279587,0.8131140093724107
295.7393483709273,0.609727601001106,0.5734043343017706,-9.737189,-0.005565000000000042,0.0048079999999999234,0.01422,0.0013788101090755,0.0016929693744345,0.8144579128964462
296.7418546365915,0.6097278758904631,0.5734045643361662,-9.74277,-0.002002999999999977,-0.019644999999999913,-0.0020220000000000004,0.0030194196059501,0.0028448866807508,0.8136899156656915
297.7443609022556,0.6097281460674313,0.573404793148831,-9.743676,0.001044000000000045,-0.014979000000000076,-0.0043,0.003368485456349,-0.0003141592653588,0.813079067880786
298.7468671679198,0.6097284139754715,0.5734050226596277,-9.743406,0.0062590000000000146,0.007454999999999989,-0.00027399999999999994,0.0047822021504644,-0.0041538836197463,0.8138645009507682
299.749373433584,0.6097286846760386,0.573405255312017,-9.741655,0.004625999999999797,0.013595000000000024,-0.0033420000000000004,0.0030019663134302,-0.0033335788713091,0.8150862139738718
300.7518796992481,0.60972895921633,0.5734054876153404,-9.735178,-0.004983999999999877,0.0064109999999999445,-0.003585999999999999,0.0015533430342749,-0.000890117918517,0.8159763144390965
301.7543859649123,0.6097292362000822,0.5734057181733346,-9.728546,-0.008305000000000007,-0.0009410000000000807,0.0032039999999999994,0.0065798912800186,-0.0001047197551196,0.8161508124577108
302.7568922305764,0.6097295116130381,0.5734059475095983,-9.728216,-0.004251000000000005,-0.005840999999999985,0.009616,0.0053756140961425,-0.0010122909661567,0.8156970792120696
303.7593984962406,0.6097297852806648,0.5734061761477304,-9.737511,0.0069950000000000845,-0.007000999999999813,0.0076089999999999994,0.0012915436464758,-0.0022863813201126,0.8140913937535276
304.7619047619048,0.6097300570284294,0.573406408101988,-9.745206,0.01242399999999999,-0.0052640000000001574,-0.011855,0.0032463124087094,-0.0014486232791552,0.8125030917743351
305.7644110275689,0.6097303294743256,0.5734066414525089,-9.734454,-0.00030100000000010674,0.0037089999999999623,-0.019192,0.0011344640137963,6.981317007981325e-05,0.8116129913091106
306.76691729323306,0.6097306031419524,0.573406874628497,-9.71294,-0.012094999999999967,0.011273000000000089,-0.0018169999999999992,0.0060737457969402,0.0021991148575128,0.8110370850158299
307.76942355889724,0.6097308794275729,0.5734071062336887,-9.701368,-0.00946899999999995,0.0011920000000000819,0.020222,0.0057944931166211,0.0034906585039886,0.8100073058505683
308.77192982456137,0.6097311551895946,0.573407334173689,-9.709927,0.007209999999999939,-0.014210000000000056,0.015184000000000001,0.0012566370614359,0.0031241393610699,0.8073893468791618
309.77443609022555,0.6097314271118922,0.5734075656043479,-9.722863,0.01730100000000001,-0.016003999999999907,-0.008969000000000001,0.0018675022996339,0.0025481807079117,0.8043000791965468
310.77694235588973,0.6097316944963337,0.5734077991294018,-9.71521,0.013250999999999902,-0.005034000000000205,-0.028258,0.0058643062867009,0.0028623399732707,0.8025547150379676
311.77944862155385,0.6097319632770384,0.5734080333525873,-9.682912,-0.003894999999999982,0.015079000000000065,-0.014408,0.0063879050622992,0.0039793506945471,0.8034623211555896
312.78195488721803,0.6097322369446652,0.573408267575773,-9.650465,-0.010675999999999908,0.015705999999999998,0.015039,0.0024958208303518,0.005567600313862,0.8041604703096797
313.7844611528822,0.6097325104377589,0.5734085000536293,-9.640984,-0.0043679999999999275,-0.0041959999999998665,0.023115,0.0016406094968746,0.0072954762733363,0.8025198259062201
314.78696741854634,0.6097327835817868,0.5734087311352223,-9.646063,-0.001794999999999991,-0.02280800000000016,0.0019459999999999998,0.0019024088846738,0.0072780229808164,0.8006000160889037
315.7894736842105,0.6097330493954319,0.5734089608205519,-9.645678,0.0022839999999999527,-0.017291999999999863,-0.011049,0.003368485456349,0.0043458698374658,0.7984008488715135
316.79197994987464,0.6097333141618795,0.5734091932984083,-9.631539,0.010503999999999847,0.010549999999999837,-0.013654999999999999,0.0068242373752978,0.0014660765716751,0.7963064712224129
317.7944862155388,0.609733581546321,0.5734094262998634,-9.601107,-0.00196699999999983,-0.004046999999999912,-0.016419999999999997,0.0151145513222708,0.0050963614158234,0.7455697847735229
318.796992481203,0.6097338456146366,0.5734096704714258,-9.562817,0.12660799999999983,-0.055253999999999914,0.006926999999999996,0.0065100781099388,0.0081157810217737,0.665110036443414
319.7994987468672,0.6097341109046829,0.5734099090579344,-9.542797,0.04541700000000004,-0.09344200000000003,0.023354,-0.0124965574442794,0.0085870199198121,0.6161710565773707
320.8020050125313,0.6097343519346528,0.5734101741734479,-9.540717,0.03075899999999998,-0.08013599999999999,0.005444999999999999,-0.0037873644768276,0.0068940505453776,0.5899387928264808
321.8045112781955,0.6097345692281446,0.5734104433032186,-9.532579,0.012752000000000097,-0.040359000000000034,-0.016515000000000002,-0.0019024088846738,0.0054105206811825,0.5861339226972556
322.8070175438596,0.6097347776204572,0.5734107124329891,-9.508348,-0.0031369999999999454,-0.0005950000000001232,-0.009493999999999999,0.0005585053606381,0.0047647488579445,0.5981243346584568
323.8095238095238,0.6097349889798297,0.5734109794683647,-9.48051,-0.005537000000000125,0.020358000000000098,0.0037410000000000013,0.0076445421237351,0.0030543261909901,0.6196616627214818
324.812030075188,0.6097352064478545,0.573411247027339,-9.458777,-0.009488999999999859,0.028899999999999926,0.005315999999999998,0.003368485456349,0.0012566370614359,0.6441661377793597
325.8145363408521,0.6097354303735975,0.57341151319005,-9.445378,-0.012920000000000043,0.02249100000000004,0.010196000000000002,0.0051661745859032,0.000593411945678,0.664708628168748
326.8170426065163,0.6097356611061245,0.5734117756875695,-9.440138,-0.01044400000000012,0.007589999999999986,0.0038499999999999993,0.0015533430342749,0.0013439035240356,0.6761405173160182
327.8195488721804,0.609735893583981,0.5734120355670951,-9.431823,-0.01550499999999988,0.0049960000000000004,-0.008817,0.0072780229808163,0.0014486232791552,0.6735924064212766
328.8220551378446,0.6097361274581008,0.5734122923050281,-9.414172,-0.010247000000000117,0.0002969999999999917,-0.005205999999999999,0.0082030474843733,-0.0013439035240354,0.649000699807384
329.8245614035088,0.6097363608086217,0.5734125485193623,-9.401386,0.026210000000000067,-0.024481999999999893,0.014255999999999998,0.0080983277292536,-0.0051138147083433,0.5980021092509396
330.8270676691729,0.6097365890976879,0.5734128089224867,-9.40559,0.07772800000000002,-0.07867400000000013,0.018623,0.0100007366139275,-0.0077841684638946,0.5208411728334402
331.8295739348371,0.6097367999334615,0.5734130836373109,-9.418904,0.10152300000000003,-0.1324169999999999,-0.0023879999999999995,0.0091106186954104,-0.008237954069413,0.4231899837310651
332.83208020050125,0.6097369845892964,0.5734133761544936,-9.415821,0.07900599999999991,-0.15405400000000002,-0.026087,0.0046600291028248,-0.0074525559060156,0.3097086932196863
333.8345864661654,0.6097371374801388,0.5734136789691189,-9.393967,0.04509800000000008,-0.156424,-0.0026359999999999995,0.0106465084371654,-0.0083252205320127,0.1846383815684801
334.8370927318296,0.6097372596531866,0.5734139877178634,-9.389673,0.048645999999999745,-0.192303,0.036295,0.0108559479474047,-0.0115191730631625,0.0497244303893184
335.83959899749374,0.6097373383675357,0.5734143034479251,-9.418168,0.06146900000000022,-0.26865,0.018191000000000002,0.0081506876068135,-0.0120253185462408,-0.0943350286170006
336.84210526315786,0.6097373655946721,0.5734146280791661,-9.442813,0.015439000000000203,-0.282657,-0.026634000000000005,0.006754424205218,-0.0089011791851709,-0.2392493324376555
