Time [s],Longitude [rad],Latitude [rad],Altitude [m],V North [m/s],V East [m/s],V Down [m/s],Roll [rad],Pitch [rad],Yaw [rad]
1.0025062656641603,0.6095036017797136,0.5734709762085997,-12.574652,0.002729000000000037,-0.007521000000000111,0.014348999999999997,6.981317007977095e-05,0.0175929188601029,1.8126117470185883
2.0050125313283207,0.6095039847049514,0.5734709234996562,-12.555842,0.00043199999999998795,-0.0031039999999999957,0.007797999999999999,0.0004886921905584,0.0158650429006286,1.8129607605091096
3.007518796992481,0.6095043648376626,0.5734708716633774,-12.53675,-0.0029649999999999954,0.00043799999999993844,-0.004924999999999999,-0.0014311699866353,0.0136310214580757,1.8136240205314529
4.010025062656641,0.6095047447958407,0.5734708191289669,-12.509441,-0.005572000000000021,0.001959000000000266,-0.008735000000000003,-0.0063180918922194,0.012636183784439,1.81435705881729
5.012531328320802,0.6095051261502823,0.5734707643256284,-12.476822,-0.006257999999999986,-0.0009019999999999584,0.00022000000000000491,-6.981317007977236e-05,0.0124791041517595,1.8148457510078488
6.015037593984962,0.609505509599119,0.5734707098713557,-12.449796,0.003898999999999986,-0.003146000000000093,0.008312,5.23598775598294e-05,0.0121823981789204,1.813903255758479
7.017543859649122,0.6095058909535606,0.5734706550680172,-12.431689,0.004722000000000004,-0.0018419999999998993,0.0075219999999999974,-0.002460914245312,0.0098436569812481,1.8124196037212363
8.020050125313283,0.6095062726570679,0.5734706007882775,-12.41515,-0.0010669999999999846,0.003489999999999771,-0.005561,-0.0031241393610698,0.0072954762733363,1.81132011610565
9.022556390977442,0.6095066555823058,0.5734705473812024,-12.3873,-0.005651000000000017,0.007572000000000134,-0.013948999999999996,-0.0051661745859032,0.0055152404363021,1.8116865654353984
10.025062656641603,0.6095070392056755,0.5734704924033309,-12.350689,-0.0016800000000000148,0.007118999999999875,0.0005159999999999956,-0.002757620218151,0.0051312680008634,1.8118088082962087
11.027568922305765,0.609507425097973,0.5734704370763937,-12.32618,0.006556000000000006,-0.0001229999999998732,0.019694000000000003,-0.0007853981633974,0.0056897733615015,1.8106918848413944
12.030075187969924,0.6095078104666719,0.5734703840183845,-12.324474,0.011502000000000012,-0.010308999999999902,0.021408,0.000296705972839,0.0047647488579445,1.809574821760241
13.032581453634084,0.609508193042844,0.5734703316585069,-12.335255,0.004771000000000025,-0.015831000000000373,0.003752,0.0006806784082777,0.0010821041362365,1.8094876076575184
14.035087719298245,0.6095085721283574,0.5734702808694255,-12.340972,-0.00534100000000004,-0.00494899999999987,-0.010937,0.0027750735106709,-0.0040317105721068,1.8107091985075745
15.037593984962406,0.6095089515629368,0.5734702271132845,-12.333146,-0.011270999999999975,0.011643999999999988,-0.012998,0.0040840704496667,-0.007033676885537,1.8120705902307157
16.040100250626566,0.6095093332664442,0.573470172659012,-12.313905,-0.0025240000000000262,0.022759000000000196,-0.006917999999999999,-0.0025132741228718,-0.0064053583548191,1.811547026361702
17.042606516290725,0.6095097217767358,0.5734701171575418,-12.293899,0.0026790000000000425,0.01266799999999968,0.003413999999999997,-0.0071209433481368,-0.0039793506945469,1.8109186554711063
18.045112781954884,0.609510110810626,0.5734700618306046,-12.284221,0.005113999999999952,-0.010176999999999659,0.015267000000000001,-0.0026878070480712,-0.002460914245312,1.8104473991197756
19.047619047619047,0.6095104967029237,0.5734700084235294,-12.293677,0.005527000000000004,-0.02179600000000015,0.019631,0.0019373154697137,-0.0036826447217079,1.8105173170096105
20.050125313283207,0.609510876137503,0.5734699564127177,-12.31948,0.003964999999999996,-0.015633999999999926,0.010807,0.0027052603405912,-0.0074525559060156,1.8112154661637008
21.052631578947366,0.6095112513832921,0.5734699057981694,-12.34624,-0.003479999999999983,-5.699999999997374e-05,-0.0077020000000000005,0.0035604716740684,-0.0118158790360014,1.8124720683185516
22.05513784461153,0.6095116299452069,0.5734698525656271,-12.355183,-0.010527000000000009,0.016125999999999863,-0.023032,-0.0031939525311496,-0.013491395117916,1.8131178925016669
23.05764411027569,0.6095120135685765,0.5734697982858874,-12.342863,-0.009525999999999979,0.02086800000000011,-0.015332000000000002,-0.0024260076602721,-0.0117635191584417,1.812629060684768
24.06015037593985,0.6095124020788679,0.5734697419117526,-12.327005,-0.00022300000000002873,0.011190000000000033,0.007100000000000002,-0.0080459678516938,-0.0076096355386952,1.811407469834712
25.062656641604008,0.6095127905891594,0.5734696851885519,-12.328969,0.0049180000000000335,-0.00920600000000027,0.023951,-0.0029321531433504,-0.003630284844148,1.809766825431253
26.065162907268167,0.6095131763069241,0.5734696303852134,-12.354067,0.011353999999999975,-0.020649999999999835,0.018581,0.0023911010752322,-0.002129301687433,1.808806894342656
27.06766917293233,0.6095135559160365,0.5734695780253357,-12.389201,0.00891900000000001,-0.0189499999999998,-0.0002520000000000022,0.003682644721708,-0.0025830872929515,1.809016351306188
28.07017543859649,0.6095139318599574,0.573469528632518,-12.41521,-0.0025270000000000015,-0.003823000000000132,-0.016496999999999998,0.0032812189937493,-0.0039269908169872,1.8101332747610013
29.07268170426065,0.60951430850201,0.5734694764471733,-12.418364,-0.01075799999999999,0.015249999999999986,-0.024067,0.0007853981633974,-0.0039444441095071,1.8106045311123324
30.07518796992481,0.6095146912527148,0.573469421120236,-12.397685,-0.00930700000000001,0.021088999999999913,-0.021041999999999998,0.0006981317007977,-0.0003490658503988,1.8107267739731416
31.07769423558897,0.6095150802866053,0.5734693638734366,-12.365932,-0.0009350000000000191,0.015429999999999833,-0.0031519999999999986,-0.0047822021504644,0.0054628805587422,1.8101683035190883
32.08020050125313,0.6095154696695614,0.5734693066266372,-12.339431,0.005019000000000051,-0.0004179999999998074,0.011638999999999997,-0.0075398223686155,0.0116413461108022,1.8098540569872672
33.08270676691729,0.609515857656254,0.5734692526959632,-12.328309,0.010947999999999958,-0.01663300000000012,0.015282,0.0025481807079117,0.0158126830230687,1.80898146217444
34.08521303258145,0.6095162418032224,0.5734691999870198,-12.33103,0.010615000000000041,-0.022127999999999926,0.00961,-0.0010995574287564,0.0167202542341058,1.8087369939061133
35.08771929824561,0.60951662053967,0.5734691491979387,-12.335814,-0.001499000000000028,-0.014660000000000117,-0.004749,0.0010297442586766,0.0152018177848707,1.8088243301818836
36.09022556390977,0.6095169970071898,0.5734690984088573,-12.324796,-0.011338000000000015,0.0022500000000000853,-0.022636,0.0090233522328106,0.0135612082879958,1.809208232804152
37.092731829573935,0.6095173748709728,0.5734690465725786,-12.286214,-0.008025000000000004,0.018882000000000065,-0.026725000000000002,0.0013788101090755,0.0135437549954759,1.80981916785552
38.095238095238095,0.6095177576216777,0.5734689905475095,-12.226531,-0.003444999999999976,0.023617999999999917,-0.013529,-0.0078016217564146,0.0152890842474704,1.8099238177974697
39.097744360902254,0.6095181456083704,0.5734689352205723,-12.162757,0.0062309999999999865,0.011495000000000033,0.0022910000000000014,-0.0076969020012949,0.0183259571459404,1.8094700147386584
40.100250626566414,0.6095185351658595,0.5734688818134972,-12.114466,0.008745000000000003,-0.009380999999999862,0.024951,-0.0065798912800186,0.0194080612821769,1.809958846555557
41.10275689223057,0.60951892123269,0.5734688287554879,-12.094288,0.0041999999999999815,-0.024478000000000222,0.025432999999999997,-0.0005061454830783,0.0181339709282211,1.8115819154934487
42.10526315789473,0.6095193018889999,0.5734687770937421,-12.092854,-0.006115999999999955,-0.021526999999999852,0.01004,0.0022689280275926,0.013578661580516,1.8122800646475397
43.10776942355889,0.6095196780074537,0.5734687231630682,-12.090326,-0.01434000000000002,-0.0028890000000001415,-0.009331,0.0045378560551852,0.0074700091985357,1.8111804374056129
44.11027568922306,0.609520055347638,0.5734686671379992,-12.069279,-0.007606999999999975,0.019571000000000005,-0.020048,0.0025132741228718,0.0035604716740684,1.8095224793359732
45.11278195488722,0.60952043792381,0.5734686109383973,-12.030045,0.011287999999999965,0.02678500000000028,-0.013501999999999997,-0.0052883476335428,0.0046949356878647,1.807323381931753
46.11528822055138,0.6095208267831674,0.5734685573567893,-11.989126,0.016286999999999996,0.008178000000000019,0.011061999999999995,-0.0049567350756638,0.0073478361508962,1.8065903436459156
47.11779448621554,0.6095212163406565,0.5734685069167739,-11.969621,0.009236000000000022,-0.015827000000000258,0.027944,-0.0043458698374658,0.0084299402871326,1.807986641954096
48.1203007518797,0.6095215992658943,0.573468457698489,-11.980149,-0.003719000000000028,-0.02461499999999983,0.025689,0.0038920842319473,0.005532693728822,1.8098540569872676
49.122807017543856,0.6095219764315457,0.5734684081311382,-12.00217,-0.01225499999999996,-0.011786999999999992,-0.003573,0.0017976891295541,0.0008028514559175,1.811267791134676
50.125313283208015,0.6095223539462629,0.5734683542004643,-12.006115,-0.01440600000000003,0.009077000000000002,-0.02591,-0.0003316125578789,-0.002094395102393,1.8117215941934863
51.127819548872175,0.6095227344280398,0.5734682974772637,-11.983514,-0.006935999999999998,0.022942999999999714,-0.022004,1.7453292519943086e-05,-0.000925024503557,1.810883766339359
52.130325814536334,0.609523118924074,0.5734682409285959,-11.950141,0.008616000000000013,0.017044999999999977,0.0009769999999999987,-0.0050090949532237,0.0022514747350728,1.809557368467721
53.1328320802005,0.6095235077834313,0.5734681864743232,-11.930901,0.014438000000000006,-0.0022129999999997985,0.020876,-0.0047472955654245,0.0042236967898263,1.8089464508696451
54.13533834586466,0.60952389611919,0.5734681337653798,-11.937145,0.0070949999999999624,-0.02072699999999994,0.023451,-0.0024260076602721,0.0028274333882307,1.8095224793359732
55.13784461152882,0.6095242776481644,0.5734680828017656,-11.96068,-0.005160999999999971,-0.022022999999999904,0.011566000000000002,0.0020245819323134,-0.0006632251157578,1.8107442098123696
56.14035087719298,0.609524654115684,0.5734680283474929,-11.98572,-0.013363000000000014,-0.0064310000000000755,-0.004457000000000003,0.0029321531433504,-0.0035953782591082,1.8119135978644985
57.14285714285714,0.6095250312813354,0.5734679733696215,-11.999416,-0.007079999999999975,0.008162000000000003,-0.015127999999999999,-0.0013264502315156,-0.0035779249665883,1.811791372456981
58.1453634085213,0.6095254110649807,0.5734679168209538,-11.996925,-0.0022270000000000345,0.013126999999999889,-0.016684,0.0008028514559173,-0.0025132741228717,1.8107442098123696
59.14786967418546,0.609525793117554,0.5734678599232201,-11.976217,0.002715999999999996,0.012706000000000106,-0.018709999999999997,-0.0013089969389957,-0.0009424777960769,1.808597437379124
60.15037593984962,0.6095261795334502,0.5734678028509537,-11.943631,0.0031180000000000097,0.007595999999999936,-0.0028319999999999977,-0.003979350694547,-0.0007155849933175,1.8073233819317531
61.15288220551378,0.6095265657748138,0.5734677473494835,-11.921365,0.00842200000000004,-0.0018329999999999735,0.020059999999999995,0.0003490658503988,-0.000925024503557,1.806538018674941
62.15538847117794,0.6095269506199139,0.5734676951641388,-11.926364,0.010297,-0.012020999999999837,0.029776000000000004,-0.0026005405854715,-0.0012915436464757,1.8053860664620396
63.1578947368421,0.6095273311016908,0.5734676442005247,-11.958148,0.0037259999999999516,-0.01811200000000035,0.02042,-0.0010995574287564,-0.0032114058236694,1.8041643359856432
64.16040100250626,0.6095277087909409,0.5734675925387788,-11.996621,-0.00988599999999995,-0.012706999999999802,-0.005660999999999999,0.0038048177693476,-0.0071034900556168,1.8044958961836448
65.16290726817043,0.6095280836876643,0.5734675396553024,-12.017561,-0.014404000000000028,0.004745999999999917,-0.025712000000000002,0.0060911990894602,-0.0104021623418861,1.8045133494761647
66.16541353383458,0.6095284619005132,0.573467482408503,-12.01082,-0.0014219999999999788,0.02016399999999985,-0.02425,0.0032812189937493,-0.0099483767363677,1.8037279862193525
67.16791979949875,0.6095288456984156,0.5734674248126377,-11.988781,0.011031999999999986,0.01879300000000006,-0.004937,-0.0022340214425527,-0.0063180918922194,1.8023665770429196
68.1704260651629,0.6095292319397791,0.5734673708819638,-11.976558,0.010095999999999994,0.0009019999999999584,0.019553,0.0014486232791552,-0.0033859387488688,1.801720892486144
69.17293233082707,0.6095296187047414,0.5734673197438166,-11.989694,0.004817000000000016,-0.013677999999999635,0.026573,0.0030892327760299,-0.0039269908169872,1.80236657704292
70.17543859649122,0.6095300009318476,0.5734672696528672,-12.021883,-0.0020140000000000158,-0.014534000000000269,0.009641999999999998,0.0018675022996339,-0.0064926248174188,1.8032044048970464
71.17794486215539,0.6095303798428282,0.573467218689253,-12.051078,-0.005865000000000009,-0.005631999999999859,-0.012467999999999996,0.0091629785729702,-0.0096691240560484,1.8034137222342383
72.18045112781954,0.6095307598010062,0.5734671659803096,-12.065088,-0.010909000000000002,0.004159000000000024,-0.014156000000000002,0.0045378560551852,-0.0114144533080429,1.803972332314632
73.1829573934837,0.6095311388865198,0.5734671103043064,-12.068679,-0.01023799999999997,0.006523999999999752,-0.004528000000000001,0.0039618974020271,-0.011676252695842,1.8048799384322536
74.18546365914787,0.6095315197173626,0.5734670535811057,-12.073693,0.005245999999999973,0.004541000000000128,0.0068059999999999996,0.0018500490071139,-0.0121300383013605,1.8037803111903272
75.18796992481202,0.6095319029916664,0.5734669987777672,-12.088531,0.018511,0.002966999999999942,0.01144,-0.0024085543677521,-0.0144862327915529,1.8017557816178915
76.19047619047619,0.6095322846951738,0.5734669479886859,-12.114765,0.010525000000000007,-0.0015929999999997335,0.010002,0.0043109632524259,-0.0168249739892252,1.8015463246543597
77.19298245614034,0.6095326662241483,0.5734668984213352,-12.149403,-0.007043999999999995,-0.0019530000000003156,0.008132,0.0029321531433504,-0.0188670092140585,1.8030647261970092
78.19548872180451,0.6095330477531228,0.573466847457721,-12.189166,-0.015865000000000018,-0.00347799999999987,0.001570000000000002,0.0034208453339088,-0.0190589954317779,1.8041120110146684
79.19799498746866,0.6095334266641034,0.5734667933525143,-12.227573,-0.007687999999999973,-0.005793000000000159,-0.004044000000000006,0.0032114058236695,-0.019355701404617,1.803535965095048
80.20050125313283,0.6095338045278864,0.573466735756649,-12.263388,0.001998999999999973,-0.0017819999999999503,0.00011099999999999999,0.0071209433481368,-0.0204028989558135,1.802488819903729
81.203007518797,0.6095341832643341,0.5734666806042447,-12.298162,0.00889300000000004,0.009056000000000175,-0.0012049999999999977,0.0043284165449459,-0.0204727121258934,1.8011099574347758
82.20551378446115,0.6095345640951769,0.5734666273717024,-12.333269,0.012332999999999983,0.009935999999999723,-0.00034999999999999615,-0.0071558499331767,-0.0183085038534205,1.8002895654198756
83.20802005012531,0.6095349471949477,0.5734665765826211,-12.367952,0.008153999999999995,7.50000000002693e-05,-4.200000000000037e-05,0.001518436449235,-0.0143291531588733,1.7994693130313155
84.21052631578947,0.6095353302947185,0.5734665261426058,-12.401375,-0.001468999999999998,-0.009371999999999936,-0.0025220000000000034,0.0068416906678177,-0.0111526539202437,1.7996264450238733
85.21303258145363,0.6095357100783638,0.5734664753535246,-12.432459,-0.007747000000000004,-0.008179000000000158,-0.003417,0.0077841684638947,-0.0099134701513277,1.7999405693826471
86.21553884711778,0.6095360893384103,0.5734664229936469,-12.459458,-0.008404999999999996,-0.0015290000000001136,-0.003868,0.0114842664781226,-0.0081855941918533,1.800307158338736
87.21804511278195,0.6095364691220554,0.5734663699356377,-12.480456,-0.001495000000000024,0.004793999999999965,-0.007036000000000001,0.0074700091985357,-0.0045029494701454,1.8008481755002692
88.22055137844612,0.6095368511746286,0.5734663168776284,-12.491728,0.006773000000000029,0.005796000000000134,-0.011892,0.0036128315516282,0.0011519173063163,1.8011797356982704
89.22305764411027,0.6095372353215971,0.573466264168685,-12.491973,0.006789999999999963,0.0015260000000001384,-0.010812,0.0078714349264944,0.0072431163957764,1.801616085464561
90.22556390977444,0.6095376178977692,0.5734662133796038,-12.480438,0.00414500000000001,-0.0012590000000001211,-0.014605,0.0020420352248333,0.0123743843966399,1.801511435522612
91.2280701754386,0.6095380001248754,0.5734661624159896,-12.455229,-0.0007879999999999554,-0.0028039999999998066,-0.012899999999999998,0.0059864793343405,0.0165980811864661,1.802035016844918
92.23057644110276,0.609538381130251,0.5734661112778425,-12.420671,-0.0071470000000000145,0.0012239999999996698,-0.005313999999999999,0.0064926248174189,0.020280725908174,1.802733148545716
93.23308270676692,0.6095387626592255,0.573466058917965,-12.383258,-0.006804000000000032,0.004037999999999986,-0.002830000000000006,0.0079063415115343,0.0245218759905203,1.8029774946409949
94.23558897243107,0.6095391443627328,0.5734660062090217,-12.341261,-0.0009829999999999561,-0.0012569999999998416,-0.006497999999999997,0.0049916416607037,0.029583330821304,1.8024539307719816
95.23809523809524,0.6095395258917075,0.573465951754749,-12.289113,0.0011359999999999704,-0.009453000000000156,-0.011993999999999998,0.004293509959906,0.0327249234748936,1.8033090722922889
96.2406015037594,0.6095399044536222,0.5734658988712726,-12.228243,0.0030160000000000187,-0.007863999999999649,-0.0036770000000000067,0.0112399203828434,0.0328296432300134,1.8043737929491752
97.24310776942356,0.6095402823174052,0.573465846685928,-12.164026,8.900000000000574e-05,0.002686999999999884,-0.0049889999999999934,0.0093724180832095,0.0320267917740959,1.8044784603444173
98.24561403508773,0.6095406601811882,0.5734657945005833,-12.093164,-0.003393000000000035,0.011012000000000022,-0.008254999999999998,0.0019373154697137,0.0309970475154193,1.804740242278924
99.24812030075188,0.6095410418846956,0.5734657407444425,-12.016443,-0.0034319999999999906,0.010704000000000047,-0.0016010000000000052,0.0036477381366681,0.030159289474462,1.8050194775059507
100.25062656641605,0.60954142638073,0.5734656862901697,-11.942656,-0.004257000000000011,0.0030769999999997744,0.006565000000000001,-0.0001221730476396,0.0296182374063438,1.8046355923369743
101.2531328320802,0.6095418107022311,0.57346563201043,-11.878811,0.00029200000000001447,-0.008321999999999719,0.013175,-0.0078365283414545,0.0277332818141899,1.803256729868021
102.25563909774436,0.6095421918821398,0.5734655780797561,-11.827899,0.0012490000000000001,-0.011156000000000166,0.010558999999999999,-0.000296705972839,0.0230907060038849,1.802261770021337
103.25814536340852,0.6095425697459229,0.5734655227528188,-11.784201,0.0032460000000000266,-0.0044400000000002215,0.004583000000000004,0.0023038346126325,0.0161966554585073,1.8013194143983071
104.26065162907268,0.6095429483078376,0.5734654696948095,-11.74321,0.01153299999999996,0.006400000000000183,0.0037879999999999997,-0.0016231562043547,0.0091106186954104,1.799731112419115
105.26315789473684,0.6095433293132133,0.5734654185566626,-11.704466,0.011656,0.013749999999999929,0.002343999999999999,-0.0057944931166211,0.0033335788713091,1.7987886171697458
106.265664160401,0.6095437143328463,0.5734653689893118,-11.669528,0.006362000000000034,0.011254000000000097,0.005579000000000001,-0.006440264939859,-0.0007155849933175,1.7995216554555833
107.26817042606515,0.6095441005742098,0.5734653209927573,-11.64414,-0.0036570000000000213,-0.0005489999999999107,0.011823,-0.0055501470213419,-0.0037350045992678,1.8014938600570445
108.27067669172932,0.6095444871646392,0.5734652728216699,-11.633584,-0.0062490000000000046,-0.007585000000000175,0.017842999999999998,-0.0015882496193148,-0.0073827427359358,1.803954879022112
109.27318295739347,0.6095448692172124,0.573465223603385,-11.639568,-0.004043000000000019,-0.006904000000000021,0.014027999999999999,-0.0007504915783575,-0.011641346110802,1.8066775577486376
110.27568922305764,0.6095452502225881,0.5734651717671062,-11.655993,-0.0010000000000000009,-0.004909999999999748,0.005412000000000002,-0.0004188790204786,-0.0158999494856681,1.8090861295696825
111.2781954887218,0.6095456312279638,0.5734651204544262,-11.67536,0.002493000000000023,0.0004119999999998569,0.003214999999999999,-0.0004363323129985,-0.0209439510239319,1.8109186554711063
112.28070175438596,0.6095460131060042,0.5734650708870755,-11.697638,0.001941000000000026,0.007967999999999975,0.0033869999999999977,-0.00614355896702,-0.0252898208613978,1.813047974611832
113.28320802005013,0.6095463972529724,0.5734650214942577,-11.722708,-0.0019090000000000495,0.00843499999999997,0.003476,-0.0095469510084089,-0.0279252680319093,1.814322169685543
114.28571428571428,0.6095467817490068,0.5734649698325118,-11.755314,-0.008555999999999953,0.00030300000000016425,0.010365000000000003,-0.0035081117965086,-0.028291787174828,1.816486377958016
115.28822055137844,0.609547166070508,0.5734649160763708,-11.800194,-0.014361000000000013,-0.00928400000000007,0.013294,0.0003316125578789,-0.0274889357189105,1.818720381947276
116.2907268170426,0.6095475482976142,0.5734648602258348,-11.857568,-0.009299000000000002,-0.010552000000000117,0.010796999999999994,0.0006981317007977,-0.0275063890114306,1.818423571254682
117.29323308270676,0.6095479294775228,0.5734648035026341,-11.918338,0.00026999999999999247,-0.005672000000000121,-0.002488999999999998,-0.0042586033748661,-0.0275762021815102,1.8164164775214733
118.29573934837092,0.6095483085630363,0.573464747652098,-11.972665,0.012834999999999985,0.003319000000000294,-0.009528999999999996,0.0005759586531581,-0.0259704992696756,1.8140253589929487
119.29824561403508,0.6095486886957474,0.5734646947686216,-12.015977,0.010443000000000036,0.009840999999999767,-0.012389000000000004,-0.0070860367630969,-0.0227765467385259,1.8123499650840815
120.30075187969923,0.6095490723191169,0.5734646431068758,-12.047043,0.005256999999999956,0.008824000000000165,-0.012681999999999999,-0.0029845130209103,-0.0177150919077424,1.8115644622009293
121.3032581453634,0.6095494583859475,0.5734645919687287,-12.06802,-0.00343899999999997,0.001202999999999843,-0.006453999999999998,-0.0004363323129985,-0.0122522113490002,1.8122976401131072
122.30576441102755,0.6095498442782451,0.57346454013245,-12.085814,-0.008962000000000026,-0.0062109999999999665,-0.001462999999999999,0.0010995574287564,-0.0072256631032565,1.8135541200949103
123.30827067669172,0.6095502280761477,0.5734644872489736,-12.10479,-0.0063209999999999655,-0.006310000000000038,0.003297999999999999,-0.0010821041362364,-0.0038746309394273,1.8137810128976697
124.31077694235589,0.6095506092560563,0.5734644333182998,-12.124915,-0.002925000000000011,-0.002301999999999804,-0.003962,0.0004537856055185,-0.0008377580409573,1.8135541200949103
125.31328320802004,0.6095509899123662,0.573464376944165,-12.136179,-0.0006400000000000294,-9.700000000023579e-05,-0.013339,-0.0021991148575128,0.0020071286397935,1.8131876533118687
126.3157894736842,0.609551370743209,0.5734643209190959,-12.130975,0.004637000000000002,0.0007920000000001259,-0.015632,-0.0040840704496667,0.0042586033748661,1.8122800646475392
127.31829573934836,0.6095517529703152,0.5734642682101525,-12.113802,0.006491999999999998,0.002677999999999958,-0.007952999999999998,-0.0028972465583105,0.0057246799465413,1.8109709804420808
128.32080200501252,0.6095521350228884,0.5734642149776104,-12.094646,0.00472800000000001,0.002619000000000149,0.0035629999999999967,-1.745329251994355e-05,0.007382742735936,1.8097318141264576
129.32330827067668,0.6095525170754617,0.5734641631413315,-12.080321,0.0022199999999999998,0.002758000000000038,0.005264000000000001,-0.0010122909661567,0.0085346600422522,1.809400376101504
130.32581453634086,0.6095529005242983,0.5734641113050527,-12.06905,0.0004930000000000212,0.0010639999999999539,-0.0019679999999999993,-0.0035953782591083,0.0097040306410884,1.8087720052109089
131.328320802005,0.6095532832750034,0.5734640598178398,-12.048961,-0.001336999999999977,-0.0007070000000002352,-0.014452000000000001,-0.0019722220547535,0.0103498024643264,1.8083705445763647
132.33082706766916,0.6095536660257084,0.5734640085051598,-12.015217,-0.001617000000000035,-0.001742999999999828,-0.010069999999999996,-0.0012740903539558,0.0099483767363677,1.8085102232764017
133.33333333333331,0.6095540505217425,0.5734639570179468,-11.977916,0.0015089999999999826,0.0026920000000001387,0.0035319999999999935,-0.0027052603405912,0.0090757121103706,1.8080913093493385
134.3358395989975,0.6095544344941779,0.5734639065779314,-11.948874,0.0063910000000000355,0.005805999999999756,0.010426000000000005,-0.0026703537555513,0.0089011791851711,1.806974246268184
135.33834586466165,0.6095548172448828,0.5734638552652515,-11.933328,0.0029980000000000007,-0.002410999999999941,0.013829,-0.002757620218151,0.0094771378383293,1.807637506290527
136.3408521303258,0.6095552005191867,0.5734638070941641,-11.927936,0.0022419999999999662,-0.011556000000000122,0.005450999999999999,-0.0014486232791552,0.0096865773485685,1.808894108445378
137.34335839598998,0.6095555818736281,0.573463758050412,-11.922625,0.0029020000000000157,-0.01081899999999969,-0.004874,-0.0006283185307179,0.0073303828583761,1.81084899938066
138.34586466165413,0.6095559597374112,0.5734637088321272,-11.907231,-0.001902999999999988,0.0032959999999997436,-0.011654000000000001,0.0061784655520599,0.0029670597283903,1.8125767357137936
139.34837092731829,0.6095563412663858,0.573463658043046,-11.878345,-0.0042139999999999955,0.016164999999999985,-0.009736999999999999,0.0028797932657906,-0.0011170107212763,1.81364145637068
140.35087719298244,0.6095567257624199,0.5734636070794318,-11.846967,-0.008796000000000026,0.014324000000000225,0.004879000000000001,-0.0085870199198121,-0.002705260340591,1.815142422074103
141.35338345864662,0.6095571139236455,0.573463555417686,-11.827469,-0.006643999999999983,0.0011540000000000994,0.015182999999999999,-0.0001570796326794,-0.0026703537555512,1.8170971908363365
142.35588972431077,0.6095574989432786,0.5734635021851437,-11.826522,-0.00036799999999997945,-0.010521000000000225,0.018479000000000002,0.0009424777960769,-0.0023387411976723,1.818615714552034
143.35839598997492,0.6095578827411811,0.5734634487780687,-11.840522,0.005388000000000004,-0.016664000000000012,0.011076,0.0008377580409572,-0.0043807764225056,1.8191042671162525
144.36090225563908,0.6095582625248264,0.5734633958945923,-11.860199,0.001312999999999953,-0.012109000000000147,0.0010270000000000001,0.0015882496193148,-0.0083950337020926,1.819051942145277
145.36340852130326,0.6095586407376752,0.5734633458036429,-11.87494,-0.0036619999999999986,0.004975000000000396,-0.008588000000000002,0.0010297442586766,-0.0118158790360014,1.8182665788884649
146.3659147869674,0.6095590210449193,0.5734632930946995,-11.880649,-0.0026109999999999745,0.017023999999999706,-0.00883,-0.0013264502315156,-0.0121125850088406,1.8177079862613643
147.36842105263156,0.6095594064136182,0.5734632384658938,-11.879887,-0.00518200000000002,0.012633000000000116,-0.002407,-0.0014137166941154,-0.0094422312532893,1.817882554093149
148.37092731829574,0.6095597935276461,0.5734631847097529,-11.881398,-0.0010799999999999699,-0.0032920000000000726,0.0081,-0.0023736477827122,-0.0064751715248989,1.817952454529691
149.3734335839599,0.609560178896345,0.5734631311281448,-11.896068,0.0029329999999999634,-0.013287999999999744,0.016746999999999998,-0.0020594885173533,-0.0064053583548191,1.8180745577641608
150.37593984962405,0.6095605600762537,0.5734630787682673,-11.924461,0.0041520000000000445,-0.012439000000000089,0.005807,-0.0013613568165555,-0.0093200582056496,1.817463762339133
151.3784461152882,0.6095609391617672,0.5734630258847909,-11.950645,-0.005345000000000044,-0.003201999999999927,-0.011852999999999999,0.0050789081233034,-0.0130201562198777,1.817812775829654
152.38095238095238,0.6095613191199453,0.573462971779584,-11.958795,-0.006613999999999953,0.011409000000000002,-0.016502000000000003,0.0022165681500327,-0.0154461638801497,1.8179697681958715
153.38345864661653,0.6095617001253211,0.5734629173253114,-11.961958,-0.004469000000000001,0.018580999999999737,0.00584,-0.0053756140961425,-0.01535889741755,1.817725561726932
154.38596491228068,0.6095620833996248,0.5734628628710388,-11.977203,0.002680999999999989,0.007109000000000254,0.015929000000000002,-0.00614355896702,-0.0123569311041198,1.816137242294447
155.3884711779449,0.6095624715608505,0.5734628078931673,-12.012262,0.003166000000000002,-0.014526000000000039,0.021616999999999997,-0.0018151424220741,-0.010419615634406,1.8141476018537583
156.39097744360902,0.6095628558823517,0.5734627522171643,-12.065069,-0.0021950000000000025,-0.027047000000000043,0.012133999999999999,0.0043458698374658,-0.0112399203828434,1.812751303545578
157.39348370927317,0.6095632333970689,0.5734626970647598,-12.118786,0.0013599999999999723,-0.012666000000000288,-0.009155999999999997,0.0030194196059501,-0.0139800873084745,1.8113026802664227
158.39598997493732,0.6095636109117861,0.5734626426104872,-12.15571,0.007423000000000013,0.009310000000000151,-0.019192,-0.0015882496193148,-0.0165980811864661,1.80981916785552
159.3984962406015,0.6095639912190302,0.5734625881562145,-12.173403,-0.0009709999999999996,0.02176,-0.018048,-0.0057421332390613,-0.0158126830230684,1.8088243301818836
160.40100250626566,0.609564374318801,0.5734625337019418,-12.18071,-0.005093999999999987,0.017288999999999888,-0.002855999999999999,-0.0072256631032565,-0.0122347580564801,1.807393160195248
161.4035087719298,0.6095647630036254,0.5734624790731363,-12.19192,0.0004210000000000047,0.005939000000000139,0.007557999999999999,-0.0018500490071139,-0.0080634211442136,1.804810020542419
162.406015037594,0.6095651504667193,0.5734624256660611,-12.209973,0.002805000000000002,-0.010432999999999915,0.0037979999999999993,-0.0067893307902579,-0.0047647488579445,1.8029949479335148
163.40852130325814,0.6095655354863523,0.573462372084453,-12.23357,0.002676999999999985,-0.0203310000000001,0.006985000000000002,-0.0009599310885968,-0.0032114058236694,1.802331687911172
164.4110275689223,0.6095659156190635,0.5734623195500426,-12.263515,0.00022299999999997322,-0.012526999999999955,0.004130999999999999,0.0038397243543875,-0.0026005405854714,1.8019999880868305
165.41353383458645,0.6095662919120501,0.5734622668410991,-12.292912,0.00034400000000001096,1.4999999999876223e-05,-0.0033240000000000006,-0.0041364303272265,-0.0009948376736366,1.801197311163838
166.41604010025063,0.6095666685541027,0.5734622137830899,-12.312147,0.005107000000000028,0.00797200000000009,-0.015,0.0018675022996339,0.0026529004630313,1.798928295869783
167.41854636591478,0.6095670486868138,0.5734621614232124,-12.313805,0.0033769999999999634,0.006191999999999975,-0.019508,0.0002268928027592,0.0076270888312153,1.7973399938905903
168.42105263157893,0.609567430739387,0.5734621097614665,-12.293595,-0.0022679999999999922,0.0037319999999998466,-0.022098999999999997,0.0013089969389957,0.0133517687777566,1.7968514238730795
169.4235588972431,0.6095678147118225,0.5734620579251878,-12.256873,-0.0029759999999999787,0.00565199999999999,-0.011564999999999999,0.0034033920413889,0.0169471470368649,1.7971655482318536
170.42606516290726,0.6095681995569225,0.5734620057398432,-12.216776,4.799999999999249e-05,0.005772000000000332,0.0030849999999999975,0.002740166925631,0.0190939020168179,1.797060898289904
171.42857142857142,0.6095685830057592,0.5734619532054327,-12.183839,0.0027469999999999994,-0.003964999999999996,0.010499000000000001,0.0038397243543875,0.021223203704251,1.796711622999995
172.43107769423557,0.6095689661055301,0.573461901020088,-12.162881,0.0029730000000000034,-0.012824000000000169,0.011156,0.006754424205218,0.0216071761396898,1.796397638267561
173.43358395989975,0.6095693457146423,0.573461849532875,-12.151649,0.003960000000000019,-0.010815000000000019,0.0063989999999999984,0.0051836278784231,0.019687313962496,1.7949664508276335
174.4360902255639,0.6095697241020243,0.5734617990928597,-12.139289,-0.0008160000000000389,-0.002677999999999958,-0.009162,0.004293509959906,0.0171042266695444,1.7941809479444808
175.43859649122803,0.6095701012676755,0.5734617486528443,-12.110424,-0.0012479999999999714,0.006979999999999986,-0.017985,0.0005235987755982,0.0155334303427496,1.795071100769583
176.44110275689223,0.6095704824475842,0.5734616961184338,-12.066835,0.0013859999999999983,0.011070000000000135,-0.008972,0.0061959188445798,0.0169820536219049,1.7956645999817238
177.4436090225564,0.6095708650237562,0.573461644456688,-12.019343,0.005686999999999998,0.007937999999999779,-5.6000000000000494e-05,0.0031590459461097,0.0187273828738991,1.7958041390554205
178.44611528822054,0.6095712502179221,0.5734615943657384,-11.975345,0.00029600000000001847,-7.699999999966067e-05,0.005329,0.0026529004630313,0.0188321026290188,1.7965546306337778
179.4486215538847,0.6095716343648905,0.5734615427039926,-11.937005,-0.007364000000000037,-0.006221000000000032,0.004050000000000005,0.0108908545324446,0.0174358392274234,1.7988409421407203
180.45112781954887,0.609572016068398,0.5734614899950492,-11.90541,-0.010892000000000013,-0.006627000000000383,0.009648999999999998,0.0089535390627309,0.0146782190092724,1.8002722692069888
181.45363408521305,0.6095723958520431,0.5734614358898423,-11.881501,-0.002864999999999951,-0.004440999999999917,0.007776999999999999,0.0029670597283903,0.0113620934304832,1.8004641507049528
182.4561403508772,0.6095727745884909,0.573461380737438,-11.864344,0.004638999999999949,-0.0011399999999999189,0.004036000000000001,0.0024260076602721,0.0086219265048519,1.7996090091846455
183.45864661654133,0.6095731557683994,0.5734613282030275,-11.847537,0.008887000000000034,-0.00035099999999976816,-0.0023870000000000002,0.0016755160819145,0.0076445421237352,1.798177821744718
184.4611528822055,0.609573537122841,0.5734612775884791,-11.828173,-0.00010900000000002574,-0.0004300000000001525,-0.0006759999999999995,1.7453292519942538e-05,0.005532693728822,1.798177821744718
185.4636591478697,0.6095739167319533,0.5734612257522004,-11.810513,-0.010139000000000009,0.006244999999999834,0.002985,0.0027750735106709,0.0026354471705114,1.7994520168184287
186.46616541353384,0.6095742998317242,0.5734611723451253,-11.793386,-0.00608599999999998,0.008088000000000317,-0.0002570000000000003,0.0057421332390613,0.001850049007114,1.800429383746253
187.468671679198,0.6095746824078963,0.5734611184144515,-11.775607,0.006331000000000031,0.003337999999999841,-0.001092000000000001,0.0016929693744345,0.0022689280275927,1.7989108600305554
188.47117794486212,0.609575065158601,0.5734610653564421,-11.762538,0.008175999999999961,-0.00549500000000025,0.007981,-0.0069813170079773,0.0026878070480713,1.7969560912683218
189.4736842105263,0.6095754477347731,0.5734610133456305,-11.755385,-0.004247000000000001,-0.009605999999999781,0.003196,0.0013788101090755,0.0023387411976725,1.7958913706114352
190.47619047619045,0.6095758262966878,0.5734609609857529,-11.75173,-0.010135000000000005,2.0000000000131024e-05,0.001373,0.00305432619099,0.0002268928027593,1.7953852251283569
191.47869674185463,0.6095762059058002,0.5734609075786777,-11.746276,0.003386,0.015050000000000008,-0.006428,-0.0039095375244672,-0.0001919862177193,1.7944078407472397
192.4812030075188,0.6095765898782357,0.5734608545206685,-11.730847,0.022853000000000012,0.013571999999999917,-0.00942,-0.0079237948040542,0.002740166925631,1.7925228677017937
193.4837092731829,0.6095769743742698,0.5734608056514494,-11.714951,0.013670000000000015,-0.009276000000000284,0.010747,-0.0046600291028248,0.0064053583548191,1.792488100743094
194.48621553884712,0.6095773572995078,0.5734607583530268,-11.71698,-0.0066749999999999865,-0.025713999999999793,0.021522,0.0017976891295541,0.006789330790258,1.794006502285744
195.48872180451127,0.6095777335924946,0.5734607101819393,-11.734109,-0.009881000000000029,-0.014116000000000017,0.0039000000000000007,0.004590215932745,0.0034906585039886,1.7944427298789876
196.49122807017545,0.6095781091873494,0.573460659916457,-11.736911,-0.003381999999999996,0.012961000000000222,-0.030218000000000002,0.0004014257279586,-0.0005061454830783,1.7941636342783012
197.4937343358396,0.6095784891455277,0.5734606079056451,-11.701036,-0.002029000000000003,0.03328499999999979,-0.039704,-0.0034906585039886,-0.0012391837689158,1.7944254336661
198.49624060150376,0.6095788766086216,0.5734605562438994,-11.641189,0.0036590000000000233,0.032083000000000084,-0.0049970000000000014,-0.0124616508592395,0.0035081117965085,1.795699489113471
199.4987468671679,0.6095792707039667,0.5734605058038839,-11.598148,0.010895999999999961,0.00262299999999982,0.033031000000000005,-0.0114319066005628,0.011676252695842,1.7963801849750414
200.5012531328321,0.609579664624779,0.5734604562365332,-11.597636,0.00883600000000001,-0.039031999999999734,0.044712,-0.0080285145591739,0.0168773338667851,1.797060898289904
201.50375939849624,0.6095800452810888,0.5734604092871763,-11.631866,-0.0032220000000000026,-0.0482680000000002,0.019203,0.0029321531433504,0.0150272848596713,1.7991902174306296
202.5062656641604,0.6095804152908902,0.5734603598943585,-11.660209,-0.009560000000000013,-0.0130269999999999,-0.028811000000000003,0.0102799892942465,0.0095818575934489,1.8015463246543597
203.50877192982452,0.6095807865224221,0.5734603080580797,-11.642047,-0.004052,0.030319999999999903,-0.053625,-0.0024260076602721,0.0067195176201781,1.8026806839484009
204.5112781954887,0.6095811656079356,0.5734602555236692,-11.573612,-0.003931999999999991,0.04581599999999986,-0.039989,-0.0074176493209759,0.0093375114981697,1.8034137222342383
205.51378446115288,0.6095815584815503,0.5734602028147258,-11.485173,-0.0038579999999999726,0.03007800000000005,0.001230999999999996,-0.0090757121103705,0.0156556033903891,1.8043387816443803
206.51629072681703,0.6095819550203563,0.57346015115298,-11.420438,0.0002449999999999952,-0.006489999999999885,0.040957,-0.0092851516206098,0.0210835773640916,1.8049845883742028
207.5187969924812,0.6095823480685039,0.5734601000148328,-11.402662,0.0043139999999999845,-0.04007499999999986,0.041652,-0.0042586033748661,0.0223925743030872,1.8056129592647987
208.5213032581453,0.6095827268049515,0.573460050622015,-11.413386,0.0037790000000000323,-0.04319700000000015,0.010615999999999999,0.008307767239493,0.0174532925199433,1.8064506649458785
209.52380952380952,0.6095830987346151,0.573460001578263,-11.414207,-0.0010249999999999981,-0.007924000000000042,-0.022775999999999998,0.0070336768855371,0.008970992355251,1.8076549421297547
210.52631578947367,0.6095834715369434,0.5734599518363793,-11.38359,-0.006810000000000038,0.026368999999999865,-0.033288,0.0020245819323134,0.0031764992386298,1.8084054162548195
211.52882205513785,0.6095838525423191,0.5734599008727652,-11.326322,-0.0020789999999999975,0.037378000000000355,-0.017303,-0.0064926248174189,0.0015533430342751,1.808492647810834
212.531328320802,0.6095842424488739,0.5734598488619536,-11.26782,0.0038930000000000353,0.025202999999999864,0.015384000000000002,-0.0087091929674517,0.0021467549799529,1.80828331302035
213.53383458646616,0.6095846370678178,0.5734597972002077,-11.236382,0.006017999999999968,-0.0032529999999999504,0.03275,-0.0093724180832095,0.0032463124087094,1.8087196802399332
214.5363408521303,0.6095850281961032,0.5734597453639289,-11.239503,0.0023839999999999972,-0.03491299999999997,0.031114,-0.0017802358370342,0.0020594885173532,1.810377760482621
215.5388471177945,0.609585409201479,0.573459695971111,-11.265032,-0.003930999999999962,-0.04031600000000024,0.012339000000000003,0.0035779249665883,-0.0031241393610697,1.811931051157018
216.54135338345864,0.6095857813056755,0.573459644658431,-11.291814,-0.0072510000000000074,-0.007232999999999823,-0.008298,0.0077143552938149,-0.0102799892942464,1.8118088082962085
217.5438596491228,0.6095861544570695,0.573459593520284,-11.299522,-0.0027870000000000394,0.03246299999999991,-0.024209,0.0011519173063162,-0.0151145513222707,1.810970980442081
218.54636591478692,0.6095865387785708,0.5734595420330709,-11.281907,0.0048100000000000365,0.042300000000000004,-0.023259,-0.0042760566673861,-0.0135263017029561,1.8112503378421552
219.54887218045116,0.6095869313031196,0.5734594908949239,-11.25503,0.0049539999999999584,0.017239000000000004,0.004844999999999999,-0.0091629785729702,-0.0068416906678177,1.812646636150336
220.55137844611528,0.609587326794728,0.5734594408039744,-11.250774,0.004753000000000007,-0.018123999999999807,0.036897,-0.0099309234438477,-0.0013264502315155,1.8140776839639237
221.55388471177943,0.6095877158286184,0.5734593915856895,-11.287685,-0.0015739999999999643,-0.04211600000000004,0.037069,0.0037350045992678,-6.981317007981325e-05,1.8155439001619391
222.5563909774436,0.6095880931688026,0.5734593418438058,-11.34119,-0.007321999999999995,-0.032447000000000115,-0.0034429999999999947,0.0080459678516938,-0.0042586033748661,1.8167654910119948
223.55889724310777,0.6095884640512688,0.5734592903565928,-11.372143,-0.009485999999999994,0.005394000000000121,-0.036945000000000006,0.0068242373752978,-0.0086568330898917,1.8177604508586795
224.56140350877192,0.6095888387734592,0.5734592364259189,-11.362411,-0.0003890000000000282,0.034879000000000104,-0.037232,0.0034033920413889,-0.0082205007768931,1.818947152576988
225.56390977443607,0.60958922606202,0.5734591831933769,-11.324546,0.007135999999999976,0.036791999999999714,-0.015344,-0.0072431163957764,-0.0031415926535898,1.8188775139398328
226.56641604010025,0.6095896215536286,0.5734591303099005,-11.288594,-0.0006669999999999732,0.008310999999999957,0.014949,-0.0104719755119659,0.0020769418098733,1.8183886821229347
227.5689223057644,0.6095900154744408,0.5734590779500229,-11.275726,-0.004566999999999988,-0.02229599999999987,0.025376,-0.0002443460952792,0.0037699111843079,1.818615714552034
228.57142857142856,0.609590400145008,0.5734590245429478,-11.289378,-0.005159999999999998,-0.029666999999999888,0.022083000000000002,0.0026354471705114,0.0010646508437166,1.819278852401329
229.5739348370927,0.6095907776597251,0.5734589709613397,-11.314603,0.0021760000000000113,-0.015598000000000223,0.0019229999999999976,0.0055501470213419,-0.0029670597283903,1.818790160210771
230.5764411027569,0.6095911529055144,0.5734589180778634,-11.330059,0.005347999999999964,0.004299000000000053,-0.015858999999999998,0.0031590459461097,-0.006736970912698,1.818406257588502
231.57894736842104,0.609591531816495,0.5734588657179859,-11.329415,0.00714999999999999,0.015509000000000217,-0.014453,-0.0008377580409572,-0.0095120444233689,1.8172194162438535
232.5814536340852,0.609591916487062,0.5734588144053059,-11.315548,0.003061000000000036,0.01695399999999969,-0.011127000000000001,-0.0041538836197465,-0.0108908545324446,1.816137242294447
233.58395989974937,0.6095923042992218,0.5734587636162246,-11.295282,-0.0036309999999999953,0.011359000000000119,0.00019900000000000126,-0.0045727626402251,-0.0115889862332423,1.8176207547053496
234.58646616541355,0.609592693682178,0.5734587117799458,-11.284091,-0.0024260000000000392,-0.0008420000000000094,0.016891,-5.235987755982904e-05,-0.0121300383013605,1.819750091299368
235.58897243107768,0.6095930814943378,0.5734586604672659,-11.297967,-0.008157999999999999,-0.013106000000000062,0.027277,-0.0009948376736367,-0.013823007675795,1.8215477280690444
236.59147869674183,0.6095934649431745,0.5734586081073882,-11.33215,-0.0036129999999999773,-0.015282999999999713,0.012015999999999999,0.0008552113334772,-0.0153763507100699,1.8221412098278924
237.593984962406,0.6095938466466818,0.5734585562711094,-11.370276,0.0018619999999999748,-0.009265000000000079,-0.0021089999999999998,0.0077318085863348,-0.0165457213089061,1.821408171542055
238.59649122807016,0.6095942245104649,0.5734585023404356,-11.401455,0.0023090000000000055,0.0043999999999999595,-0.011107999999999996,0.0024783675378319,-0.0170518667919845,1.8209369326440163
239.59899749373432,0.6095946056903735,0.5734584492824263,-11.418362,0.0027040000000000397,0.012283000000000044,-0.014822000000000002,0.0006457718232378,-0.0156206968053491,1.821181278739296
240.6015037593985,0.609594989662809,0.5734583974461476,-11.423263,0.0030689999999999884,0.009243000000000112,-0.008516,-0.0054628805587422,-0.0129677963423178,1.821966641996108
241.60401002506265,0.6095953760787054,0.5734583457844016,-11.428825,-0.002648000000000039,0.0011049999999999116,0.009668,-0.0053232542185827,-0.0109257611174844,1.821949188703588
242.6065162907268,0.6095957624946017,0.5734582953443863,-11.446054,-0.003440999999999972,-0.0038970000000002614,0.010119,-0.0004712388980384,-0.0095993108859686,1.8211288141419808
243.60902255639093,0.6095961462925042,0.5734582429845088,-11.464447,-0.007186000000000026,-0.009875000000000078,-0.007337,0.0014486232791552,-0.007679448708775,1.820186318892611
244.61152882205516,0.6095965274724129,0.573458188704769,-11.472881,-0.005162999999999973,-0.004164999999999974,-0.012046,0.0010122909661567,-0.006422811647339,1.818790160210771
245.6140350877193,0.6095969096995191,0.5734581333778317,-11.472825,0.007207999999999992,0.009659000000000084,-0.003169,-0.0001570796326794,-0.0043633231299857,1.8178302116688811
246.61654135338344,0.6095972934974216,0.5734580808434212,-11.473185,0.01954699999999998,0.011098000000000052,0.0049949999999999994,-0.0072256631032565,0.0001919862177195,1.8174812156316529
247.6190476190476,0.609597680087851,0.5734580312760704,-11.480109,0.007662000000000002,-0.003743000000000052,0.003196,-0.0039269908169872,0.0055152404363021,1.8177953225371344
248.62155388471177,0.6095980633621546,0.5734579839776478,-11.484881,-0.005191999999999974,-0.01835299999999984,-0.007825,0.000593411945678,0.0087790061375314,1.8180396686324127
249.62406015037595,0.609598442796734,0.5734579352829615,-11.476594,-0.01446200000000003,-0.012192000000000203,-0.01646,0.0052359877559829,0.008604473212332,1.8179697681958709
250.62656641604008,0.60959882083505,0.5734578811777548,-11.450057,-0.015144999999999964,0.007306999999999952,-0.017284,0.0053407075111026,0.0069987703004972,1.817935018690464
251.62907268170423,0.6095992007932282,0.5734578249781529,-11.407969,-0.0012920000000000154,0.02731400000000006,-0.012546000000000002,-0.0009250245035569,0.0063704517697793,1.8166433877775248
252.6315789473684,0.6095995880817893,0.573457770872946,-11.364017,0.01881900000000003,0.024358000000000324,0.007109000000000004,-0.005515240436302,0.0078714349264945,1.8144793016781
253.63408521303256,0.6095999814790025,0.5734577193857331,-11.335087,0.019863999999999993,-0.00487800000000016,0.022054999999999998,-0.0097738438111682,0.0110304808726042,1.814008045326769
254.63659147869672,0.6096003696402282,0.5734576724363762,-11.33406,0.008733999999999964,-0.036303000000000196,0.029066,-0.0011693705988362,0.0120078652537209,1.8141824909855055
255.6390977443609,0.6096007487257418,0.5734576267087498,-11.353736,-0.009295999999999971,-0.03460899999999989,0.009356999999999999,0.0086742863824118,0.0079761546816141,1.8147932864105336
256.64160401002505,0.6096011224007346,0.5734575764432674,-11.363994,-0.01580999999999999,0.0012330000000002617,-0.026122,0.0044680428851054,0.000959931088597,1.815683439235636
257.64411027568923,0.6096014976465238,0.5734575235597911,-11.338153,-0.01099300000000003,0.03454399999999991,-0.038091,5.235987755982955e-05,-0.0031066860685498,1.816835391448537
258.6466165413533,0.6096018833642884,0.5734574692800513,-11.279902,-0.00017499999999998073,0.040814999999999824,-0.019524999999999994,-0.0042760566673861,-0.0008726646259971,1.8176556438370968
259.64912280701753,0.6096022776341665,0.5734574160475092,-11.226514,0.005764999999999965,0.01337900000000003,0.025746999999999992,-0.0083950337020927,0.0040666171571468,1.8181094468959085
260.6516290726817,0.6096026733003079,0.5734573640366973,-11.215274,0.009899000000000047,-0.023864999999999803,0.047851000000000005,-0.0046949356878647,0.0075398223686156,1.8186157145520336
261.65413533834584,0.609603060414336,0.5734573151674783,-11.244973,0.013261999999999996,-0.043686000000000114,0.028149,-0.0004537856055185,0.0058817595792208,1.8187727069182509
262.65664160401,0.6096034358346581,0.573457266821858,-11.282318,-0.002614000000000005,-0.030796999999999963,-0.010973000000000004,0.0119555053761611,-0.0002967059728389,1.8216349421717668
263.65914786967414,0.6096038079388546,0.5734572177781061,-11.291771,-0.019482,0.009131999999999918,-0.034228,0.0100356431989673,-0.0069813170079773,1.824846452715191
264.6616541353383,0.6096041833591768,0.5734571650691627,-11.268392,-0.023521000000000014,0.04009699999999983,-0.027326,0.0023911010752322,-0.0085346600422522,1.826068165738295
265.6641604010025,0.6096045704732049,0.5734571072987645,-11.22813,-0.01521699999999998,0.036594000000000015,-0.00485,-0.0035953782591083,-0.0047472955654244,1.8244972995983295
266.66666666666663,0.6096049647430829,0.5734570491793004,-11.196232,0.008922999999999959,0.0033640000000003667,0.018917,-0.0112922802604033,0.0002792526803192,1.8208845902197488
267.6691729323308,0.6096053570930988,0.5734569935032973,-11.194684,0.024653000000000036,-0.02721700000000027,0.035199999999999995,-0.0054803338512621,0.000925024503557,1.8167830664775624
268.671679197995,0.6096057415891329,0.5734569418415514,-11.227882,0.018316999999999972,-0.03069899999999981,0.028192000000000002,0.0040666171571467,-0.0022514747350725,1.8157184679937235
269.6741854636591,0.6096061196274489,0.5734568943685957,-11.271736,0.0015880000000000338,-0.01384300000000005,-0.006540000000000004,0.0051487212933832,-0.0056374134839416,1.8169925234410944
270.6766917293233,0.6096064955713698,0.5734568467211072,-11.297108,-0.00880700000000001,0.007673000000000041,-0.024640999999999996,0.0041538836197465,-0.0063006385996995,1.817935018690464
271.6791979949875,0.6096068750059492,0.5734567975028222,-11.294351,-0.013438000000000005,0.017886999999999986,-0.028013,0.000279252680319,-0.0041364303272264,1.8183712462837072
272.6817042606516,0.6096072582802529,0.5734567446193459,-11.268801,-0.006711999999999996,0.01476199999999972,-0.014244999999999999,-0.0034382986264288,1.74532925198978e-05,1.818126900188428
273.6842105263158,0.6096076462669456,0.5734566901650733,-11.239753,0.003243999999999969,0.007939000000000362,0.0033079999999999984,-0.001832595714594,0.0042236967898263,1.8179697681958715
274.68671679198,0.6096080340791055,0.573456637107064,-11.220254,0.009645000000000015,-0.003299000000000163,0.010984,-0.0012566370614359,0.0070162235930173,1.8170971908363365
275.6892230576441,0.609608419971403,0.5734565864925156,-11.211018,0.008340999999999987,-0.012413000000000007,0.009638,-0.007365289443416,0.0075572756611355,1.8160498885653849
276.69172932330827,0.6096088035947727,0.5734565367506319,-11.209103,0.00304500000000002,-0.01035599999999981,0.0044670000000000005,0.0019198621771937,0.0066322511575784,1.815229636176825
277.6942355889724,0.6096091837274837,0.5734564864851496,-11.209228,-2.9000000000001247e-05,-0.005663000000000196,0.0004270000000000001,0.0021642082724729,0.0056897733615015,1.8150201792132927
278.69674185463657,0.6096095640347278,0.5734564356960683,-11.204147,-0.0047860000000000125,-0.00012599999999984846,-0.010457,-0.0010821041362364,0.0056897733615015,1.8150377546788603
279.69924812030075,0.6096099452146364,0.5734563847324542,-11.182746,-0.003960999999999992,0.007749000000000006,-0.020317999999999996,0.0040317105721069,0.0057246799465413,1.816084917323472
280.7017543859649,0.6096103286634731,0.5734563332452411,-11.143488,0.0019990000000000285,0.014365999999999879,-0.009986000000000002,0.0002443460952792,0.0063704517697793,1.81669585237484
281.70426065162906,0.6096107145557706,0.5734562819325612,-11.103518,0.003027000000000002,0.011578000000000088,0.004572,-0.0021118483949131,0.0085346600422522,1.8174461868735647
282.70676691729324,0.6096111016697987,0.5734562313180128,-11.074245,0.0072329999999999894,-0.004509000000000096,0.014202,-0.0033161255787892,0.0109432144100045,1.8170797375438168
283.70927318295736,0.6096114865148988,0.5734561812270634,-11.061034,0.007697999999999983,-0.018059000000000047,0.017195000000000002,-0.0028448866807507,0.0107337748997651,1.8167830664775624
284.71177944862154,0.6096118678693404,0.5734561323578443,-11.060717,-0.0043139999999999845,-0.01792600000000011,0.005117,0.0011170107212763,0.0075049157835755,1.8178651008006288
285.7142857142857,0.6096122459076564,0.5734560834886253,-11.053177,-0.007794999999999996,0.00037799999999998946,-0.017016999999999997,0.0037699111843077,0.0023561944901924,1.8185458141154915
286.71679197994985,0.6096126244695711,0.5734560330486099,-11.024816,0.004612000000000005,0.02096100000000023,-0.018089,-0.0005235987755982,-0.0006108652381979,1.8185981390864665
287.719298245614,0.6096130073948091,0.5734559847029896,-10.986746,0.010093999999999992,0.026747999999999994,-0.002251999999999997,-0.0053058009260627,-5.23598775596934e-05,1.819348752837872
288.7218045112781,0.6096133939852384,0.5734559374045668,-10.954875,0.004595999999999989,0.008191999999999755,0.014273999999999998,-0.0081506876068135,0.0023911010752322,1.8211115004758007
289.72431077694233,0.6096137838917932,0.5734558904552101,-10.946296,-0.005985999999999991,-0.019667999999999797,0.027323,-0.0010122909661567,0.0039444441095073,1.8247590989861289
290.7268170426065,0.6096141680387616,0.5734558417605238,-10.961039,-0.010386000000000006,-0.03330199999999994,0.016225999999999997,0.0051661745859032,0.0022863813201126,1.8285988407938087
291.72932330827064,0.6096145459025446,0.573455792367706,-10.980782,-0.0016599999999999948,-0.019725000000000215,-0.0035910000000000004,0.0063879050622992,-0.0031939525311495,1.830134695628979
292.7318295739348,0.6096149194030046,0.5734557419276907,-10.988591,-0.0031039999999999957,0.010699000000000236,-0.018933,0.0031590459461097,-0.0099309234438476,1.830885291927092
293.734335839599,0.6096152979649193,0.5734556895678131,-10.971213,-0.0063690000000000135,0.03568299999999969,-0.026044,-0.0017802358370342,-0.0134739418253961,1.83151368027098
294.7368421052631,0.6096156876969413,0.5734556368588697,-10.939351,-0.00439299999999998,0.03683600000000009,-0.0005730000000000006,-0.0056723200689815,-0.0123918376891596,1.831583318908134
295.7393483709273,0.6096160833630827,0.5734555838008604,-10.923263,-0.0025700000000000167,0.006440000000000001,0.025607,-0.0045204027626653,-0.0077492618788548,1.8322116897987295
296.7418546365915,0.6096164764112303,0.5734555310919169,-10.940633,0.007767000000000024,-0.033659000000000106,0.037517999999999996,-0.0019896753472735,-0.0040491638646267,1.8324734717332365
297.7443609022556,0.6096168603836657,0.57345547995377,-10.993024,0.012629000000000001,-0.048201999999999856,0.030746999999999997,0.002129301687433,-0.0045378560551851,1.8316183302129287
298.7468671679198,0.6096172340586586,0.5734554286410899,-11.061411,-0.002961000000000047,-0.027712999999999877,0.000684000000000004,0.011362093430483,-0.0092851516206098,1.832299043527792
299.749373433584,0.6096176035448612,0.5734553788992062,-11.110683,-0.013253999999999988,0.015527999999999986,-0.03505,0.0112050137978035,-0.0140848070635941,1.832717957454856
300.7518796992481,0.6096179798378479,0.5734553267138616,-11.110679,-0.014938000000000007,0.04559000000000002,-0.056248000000000006,0.0001919862177193,-0.0143989663289532,1.8331367317555796
301.7543859649123,0.6096183702680017,0.5734552708633255,-11.059582,-0.00034000000000000696,0.04816799999999999,-0.037669999999999995,-0.0103847090493662,-0.0081681408993334,1.8326131504332728
302.7568922305764,0.6096187685521369,0.5734552165835858,-11.00347,0.00733900000000004,0.014263000000000137,0.024317,-0.0071907565182166,0.001204277183876,1.831583318908134
303.7593984962406,0.609619167359871,0.5734551631765107,-10.995893,0.007662999999999975,-0.0314230000000002,0.061295,-0.0082728606544531,0.0083077672394931,1.8310947488906235
304.7619047619048,0.6096195549974979,0.5734551113402319,-11.045268,0.0063590000000000035,-0.056481000000000225,0.042175,0.0021118483949131,0.0097912971036882,1.8303966171898256
305.7644110275689,0.6096199277998261,0.5734550593294202,-11.113457,-0.002913999999999972,-0.0413049999999997,-0.0039910000000000015,0.0110828407501639,0.003385938748869,1.830012714567557
306.76691729323306,0.6096202948425677,0.5734550074931414,-11.150889,-0.008647000000000016,0.007187999999999972,-0.049116999999999994,0.0099134701513277,-0.0042586033748661,1.8296286897722407
307.76942355889724,0.6096206679939618,0.5734549551332638,-11.127146,-0.005794000000000021,0.04900599999999988,-0.061532,0.0020769418098732,-0.0064751715248989,1.8291399975816824
308.77192982456137,0.6096210538862594,0.5734548998063266,-11.056922,-0.002695999999999976,0.049034000000000244,-0.024485,-0.0062831853071795,-0.0017627825445141,1.828145177361338
309.77443609022555,0.6096214514722631,0.5734548437812576,-10.993304,0.005608999999999975,0.01832199999999995,0.031073000000000003,-0.0093026049131297,0.0055152404363021,1.826225297730852
310.77694235588973,0.6096218502799972,0.5734547919449788,-10.980364,0.010140000000000038,-0.027086000000000165,0.058098,-0.0047996554429844,0.0097214839336083,1.8250907988104703
311.77944862155385,0.6096222365213606,0.5734547390615025,-11.019114,-0.001495000000000024,-0.05249499999999996,0.035098,0.0022165681500327,0.0078539816339744,1.8252303378841677
312.78195488721803,0.609622611069018,0.5734546877488225,-11.068606,-0.009112999999999982,-0.03232999999999997,-0.010539,0.0077841684638947,0.0031241393610699,1.8258587087747629
313.7844611528822,0.6096229814278854,0.5734546346908131,-11.088264,3.899999999995574e-05,0.0100579999999999,-0.038910999999999994,0.0091455252804502,0.0008901179185172,1.8244276609611751
314.78696741854634,0.6096233552774112,0.5734545807601392,-11.067363,0.008233000000000046,0.03260800000000019,-0.035411000000000005,-0.0024958208303518,0.0029146998508304,1.821966641996108
315.7894736842105,0.6096237380281161,0.5734545284002617,-11.01913,0.00536399999999998,0.030250999999999806,-0.018979999999999997,-0.0082205007768932,0.007435102613496,1.8206575577906496
316.79197994987464,0.6096241291564015,0.5734544769130488,-10.967658,-0.0022940000000000182,0.010990000000000055,0.009774999999999999,-0.0045727626402251,0.012042771838761,1.8202387834899263
317.7944862155388,0.6096245202846868,0.573454424902237,-10.936963,-0.009671999999999958,-0.008567999999999909,0.025927,-0.0026005405854715,0.0153414441250301,1.8203784621899632
318.796992481203,0.6096249089695113,0.5734543711460961,-10.932937,-0.0024390000000000245,-0.02343800000000007,0.021733000000000002,-0.0001396263401595,0.0172962128872637,1.8201166802554567
319.7994987468672,0.6096252894512882,0.5734543180880869,-10.94097,0.01346799999999998,-0.027846999999999955,0.0032189999999999996,-0.0013264502315156,0.0171391332545842,1.8178302116688816
320.8020050125313,0.6096256646970775,0.5734542667754069,-10.943022,0.014534000000000047,-0.01773400000000014,-0.012192999999999999,0.0042062434973063,0.0138230076757952,1.8158056820964457
321.8045112781955,0.6096260385466031,0.5734542179061879,-10.925636,0.0008359999999999479,0.011663000000000201,-0.021792,0.0050265482457436,0.0084299402871326,1.8161198064552195
322.8070175438596,0.6096264164103862,0.5734541693860346,-10.882948,-0.011214999999999975,0.03632999999999997,-0.026854999999999997,0.0027227136331111,0.0058643062867009,1.8183537929911875
323.8095238095238,0.6096268033498814,0.5734541185969534,-10.818784,-0.01080399999999998,0.035573999999999995,-0.012997000000000002,-0.0077841684638947,0.008970992355251,1.8195755234675832
324.812030075188,0.6096271974452265,0.5734540648408124,-10.758721,-0.008937000000000028,0.006402000000000019,0.017339,-0.0075572756611354,0.0144164196214733,1.8194183914750264
325.8145363408521,0.6096275904933741,0.5734540103865398,-10.728872,0.0014879999999999893,-0.027185999999999932,0.038710999999999995,-0.0045727626402251,0.017854718247902,1.8188250493425184
