Time [s],Longitude [rad],Latitude [rad],Altitude [m],V North [m/s],V East [m/s],V Down [m/s],Roll [rad],Pitch [rad],Yaw [rad]
2.0050125313283207,0.6097299551012011,0.5734835708535478,-6.999248,0.02339899999999999,0.056372999999999895,0.057002000000000004,-0.0500560429471973,-0.35473818792114,-2.5399078647105604
3.007518796992481,0.609729866613008,0.5734834317508064,-7.409154,0.029947000000000015,0.024938000000000085,0.051221,-0.0187273828738991,-0.3293087232662899,-2.3817461977080043
4.010025062656641,0.6097297578789956,0.573483313766549,-7.835239,-0.009014000000000105,-0.01652400000000019,-0.0465559999999999,-0.077859137931467,-0.2097013096271185,-2.306435188124572
5.012531328320802,0.6097296275029005,0.5734832071269317,-8.175602,-0.1007869999999999,0.0331310000000002,-0.1238230000000001,-0.1057320460858164,-0.0970752129959244,-2.368307075201185
6.015037593984962,0.60972949084362,0.5734831032798413,-8.368189,-0.062639,0.1408859999999998,0.03279499999999999,-0.0008901179185171,-0.0704414886104911,-2.513675461333331
7.017543859649122,0.6097293665761773,0.5734829907061045,-8.47162,-0.030396999999999896,0.069052,0.060082,0.0627096800241562,-0.0604232987040436,-2.6671947096052144
8.020050125313283,0.6097292711066673,0.5734828622498714,-8.538614,-0.028954000000000105,0.0317540000000001,0.042886,-0.015673056682909,-0.0430049127691403,-2.8147098681706053
9.022556390977442,0.6097292065294849,0.5734827170384778,-8.614151,-0.04457599999999991,-0.013981999999999994,0.035053,-0.0753109572235553,-0.0334056018831714,-2.925241447526359
10.025062656641603,0.609729159580128,0.5734825416328879,-8.711001,0.0071439999999999,-0.1007760000000001,-0.009018,0.0197745804250957,-0.050160762702317,-2.9078230441381625
11.027568922305765,0.6097291087910468,0.5734823540099933,-8.80182,0.10367500000000002,-0.1362609999999999,-0.034503,0.0872490093071965,-0.0664097780383841,-2.7672893596603823
12.030075187969924,0.6097290332182901,0.5734821594057817,-8.867803,0.006157000000000197,-0.1078899999999999,0.0219980000000001,0.0342782665091686,-0.086463611143799,-2.6193901762996754
13.032581453634084,0.6097289197718888,0.5734819599146482,-8.96297,-0.0253360000000001,0.0404499999999999,0.0425239999999998,0.0578925712886519,-0.0941430598525741,-2.5568202622420184
14.035087719298245,0.6097287710698365,0.5734817506496709,-9.103214,-0.0378820000000002,0.04445199999999999,0.003823000000000104,0.0341037335839692,-0.0892037780694301,-2.551968246921473
15.037593984962406,0.6097285977586419,0.5734815265493949,-9.275985,-0.017100999999999797,0.0295050000000001,-0.037619000000000104,0.0237190245346029,-0.0699527964199326,-2.5647263943140426
16.040100250626566,0.6097284096121484,0.5734812860430241,-9.431458,0.011198999999999792,0.017873999999999904,-0.0500129999999998,0.02768092193663,-0.0494451777089992,-2.571428511001578
17.042606516290725,0.6097282106446137,0.5734810315740191,-9.533189,0.02620000000000021,0.0204420000000001,-0.014167000000000096,0.02153736296961,-0.0370009801422797,-2.57116671161378
18.045112781954884,0.6097280059174924,0.5734807662839728,-9.594903,0.0042210000000000025,0.0293399999999999,0.037178,0.0212930168743308,-0.0338768407812097,-2.5707653731522826
19.047619047619047,0.6097277973506469,0.573480490696484,-9.655323,-0.00337400000000021,0.004956999999999899,0.034394,0.0094073246682494,-0.0345226126044477,-2.5715158647306406
20.050125313283207,0.6097275840714123,0.5734802044624866,-9.738612,0.005172000000000204,-0.0211799999999997,0.0031779999999998997,0.0154112572951099,-0.0315555528760573,-2.5730168129807707
21.052631578947366,0.6097273620655314,0.5734799095018429,-9.823184,0.014412000000000098,-0.011370000000000102,-0.0361939999999999,0.0117635191584417,-0.0237190245346028,-2.573173944973328
22.05513784461153,0.6097271287150104,0.573479608258014,-9.883005,0.011481999999999805,0.005546999999999899,-0.0117359999999999,0.0087440995524915,-0.0179943445880614,-2.571358732738084
23.05764411027569,0.6097268880341065,0.5734793017781975,-9.913194,0.009874999999999998,0.023610999999999903,0.0033469999999998987,0.0063879050622992,-0.0158301363155886,-2.5697006524953965
24.06015037593985,0.609726646655071,0.5734789912841235,-9.932266,-0.0027340000000000003,0.0341120000000002,0.032317,0.0060213859193804,-0.0187797427514588,-2.571672717470517
25.062656641604008,0.6097264073704305,0.5734786753795289,-9.974678,-0.009012000000000003,-0.0117240000000002,0.0231689999999999,0.0033510321638291,-0.0186226631187793,-2.57327861236857
26.065162907268167,0.6097261647696645,0.5734783537153477,-10.030821,0.006038000000000002,-0.0335209999999999,-0.0370289999999998,0.0095469510084089,-0.0109606677025242,-2.5742386656302143
27.06766917293233,0.609725916234779,0.5734780282114423,-10.059255,0.017255,0.004369000000000102,-0.0261530000000001,0.002757620218151,-0.0048520153205442,-2.573802176237583
28.07017543859649,0.6097256626384387,0.5734777000895428,-10.059829,-4.299999999980014e-05,0.023438000000000098,0.01286,0.0026354471705114,-0.0039793506945469,-2.573941732764572
29.07268170426065,0.6097254086930325,0.5734773690005838,-10.053238,-0.002085000000000097,0.0170729999999998,0.03139,-0.0001221730476396,-0.0047472955654244,-2.573575283434824
30.07518796992481,0.6097251550966922,0.5734770356426967,-10.071733,-0.002063999999999802,-0.0243470000000001,0.012385,0.0042236967898262,-0.0047822021504644,-2.573208554852395
31.07769423558897,0.609724899056891,0.5734766998413486,-10.096665,0.0095909999999994,-0.007465999999999699,-0.037778,0.003682644721708,0.0008552113334772,-2.5738197517031507
32.08020050125313,0.6097246393518982,0.5734763631673359,-10.094581,0.0050710000000005005,0.019519999999999697,-0.013512999999999999,-0.0001047197551196,0.0037873644768278,-2.5738892681672576
33.08270676691729,0.6097243805195701,0.5734760254461256,-10.072702,0.0023689999999999,0.0140470000000001,0.0261530000000001,-0.0021642082724729,0.002460914245312,-2.574430424955131
34.08521303258145,0.609724122036308,0.5734756872013165,-10.065295,-0.0031590000000002,-0.026963,0.0247549999999999,0.0017976891295541,-0.0002967059728389,-2.572929459251708
35.08771929824561,0.6097238605859859,0.5734753484329087,-10.060824,-0.0006839999999997005,-0.0004169999999998966,-0.047693,0.0051661745859032,0.0034557519189488,-2.572231449723958
36.09022556390977,0.6097235991356641,0.5734750065229084,-10.033229,-0.000408000000000199,0.0363069999999998,0.0163350000000001,-0.0050789081233034,0.0008726646259973,-2.5737497116402683
37.092731829573935,0.6097233394306714,0.5734746644383749,-10.024377,-0.0011529999999999006,-0.014942,0.045972999999999896,-0.0014835298641951,-0.0041364303272264,-2.5742035146990787
38.095238095238095,0.6097230786784811,0.5734743216557099,-10.038789,0.0024949999999996997,-0.0308399999999999,-0.0384889999999999,0.0004014257279586,-0.0002617993877991,-2.573557969768644
39.097744360902254,0.6097228158318957,0.5734739774767813,-10.031045,0.0091560000000003,0.028377,-0.0246280000000001,-0.0001570796326794,0.0029670597283903,-2.573662637163886
40.100250626566414,0.6097225531598434,0.5734736348686492,-10.015676,0.0066649999999999,0.0059910000000001,0.03404,0.0017627825445142,-0.000279252680319,-2.573331076965885
41.10275689223057,0.6097222887424617,0.5734732945294451,-10.013307,-0.0047600000000001,-0.0247550000000002,-0.0027690000000000995,-0.0048171087355043,-0.0026878070480711,-2.5716032010064103
42.10526315789473,0.6097220238014812,0.573472954015708,-9.99754,-0.0115679999999999,0.0134720000000001,-0.0327609999999999,0.0013962634015954,-0.0007504915783576,-2.5698228779029133
43.10776942355889,0.6097217616530276,0.5734726112330429,-9.966201,-0.0058449999999999,0.038535000000000104,0.041632,0.0014311699866353,-0.0054628805587422,-2.573522818837509
44.11027568922306,0.6097215036933642,0.5734722663559827,-9.98135,0.011053,-0.0438060000000001,0.043938000000000005,-0.0042760566673861,-0.0089709923552507,-2.573802176237584
45.11278195488722,0.6097212406722459,0.573471922700653,-10.016181,0.0095360000000001,-0.0357080000000001,-0.093228,0.0040840704496667,-0.0005410520681181,-2.570189344685955
46.11528822055138,0.6097209732878045,0.5734715806161195,-9.997239,0.004428999999999601,0.0585900000000001,-0.008948000000000005,-0.0012391837689159,0.0002443460952792,-2.568042554799417
47.11779448621554,0.6097207095685545,0.5734712395787838,-9.977131,-0.011135999999999601,0.0094149999999999,0.087863,-0.0033161255787892,-0.0075049157835755,-2.568164535860839
48.1203007518797,0.6097204458493045,0.5734708981923821,-10.001057,-0.0162580000000005,-0.0443459999999997,-0.0264,0.0042760566673861,-0.0042586033748661,-2.5686883789825323
49.122807017543856,0.609720180908324,0.5734705548861182,-10.005371,0.0146170000000003,0.011182999999999799,-0.059753,-0.0028099800957108,0.000628318530718,-2.568566136121723
50.125313283208015,0.6097199154437449,0.5734702131506506,-9.988756,0.013614,0.0199709999999998,0.0460699999999999,0.002146754979953,-0.0042236967898261,-2.566628698478961
51.127819548872175,0.6097196503282314,0.5734698729859794,-9.991993,-0.002881999999999699,-0.0199629999999996,0.025416000000000098,0.0003665191429188,-0.0068765972528574,-2.563661935456544
52.130325814536334,0.6097193841655205,0.5734695338685057,-10.003816,-0.015038000000000402,-0.004944000000000301,-0.04554,-0.00305432619099,-0.0022340214425526,-2.5620035759611763
53.1328320802005,0.6097191185264084,0.5734691947510321,-9.990672,0.0234810000000002,0.0432280000000002,-0.0016150000000000019,0.0102625360017266,-0.0003141592653588,-2.562684289276038
54.13533834586466,0.6097188701660559,0.5734688744831143,-9.978151,0.1603449999999998,0.1937759999999997,0.024081999999999902,-0.0118682389135614,-0.0008028514559172,-2.669638170558007
55.13784461152882,0.6097186823686283,0.5734685561350588,-9.996627,-0.2738040000000001,0.10905200000000032,0.044882000000000095,-0.0029146998508305,-0.0205250720034533,-2.8476268127698035
56.14035087719298,0.6097185333175102,0.5734682529713676,-10.031375,0.054707000000000304,-0.0003120000000001455,-0.060629999999999996,0.0056199601914217,-0.0283266937598678,-3.003955953870936
57.14285714285714,0.6097184706601899,0.5734679267693304,-10.066241,0.018144999999999998,0.014399999999999913,0.0238,-0.001221730476396,-0.0364424747816416,-3.137630668921304
58.1453634085213,0.609718466122334,0.5734675982983652,-10.121523,0.042496999999999896,-0.05669399999999991,0.009026999999999999,0.0006283185307179,-0.0394968009726315,3.04320828657524
59.14786967418546,0.6097185130716908,0.5734672719217951,-10.203298,0.0240239999999999,-0.08649399999999999,-0.0018670000000000977,-0.0057595865315812,-0.0411548637620262,2.9712834949933566
60.15037593984962,0.6097185921351059,0.5734669535737396,-10.29411,0.006194999999999902,-0.07057899999999998,-0.0258779999999998,0.0129852496348378,-0.0406487182789478,2.9251367801311163
61.15288220551378,0.6097186895244782,0.573466642207001,-10.374321,-0.0198569999999995,-0.049707000000000015,-0.008483000000000102,0.0056025068989017,-0.0383099770812753,2.9035995218812616
62.15538847117794,0.6097187961640955,0.5734663345054538,-10.441871,-0.0255690000000004,-0.040497,0.0004430000000001013,0.0062657320146596,-0.0340339204138893,2.9024301338291325
63.1578947368421,0.60971890681797,0.573466026105775,-10.493917,-0.0073959999999999,-0.036496,-0.004839000000000102,0.0031066860685499,-0.026755897433073,2.915834087951524
64.16040100250626,0.6097190174718448,0.5734657163098329,-10.535041,-0.0006909999999997998,-0.023440000000000003,0.0126140000000001,0.0080634211442138,-0.0196175007924161,2.9401642046171275
65.16290726817043,0.6097191235878632,0.573465405466693,-10.572384,0.00020699999999959987,-0.020125999999999897,-0.00313,0.010768681484805,-0.0120427718387607,2.9742329443495947
66.16541353383458,0.6097192188828403,0.5734650956707509,-10.60128,-0.0014149999999997,-0.023948000000000004,-0.0008440000000000999,0.0077667151713747,-0.0058992128717407,3.0154054184837733
67.16791979949875,0.6097192995170517,0.5734647834313477,-10.622087,-0.014076999999999899,-0.0293110000000001,0.00023199999999999957,0.0099832833214075,-0.0012566370614357,3.0603475943627494
68.1704260651629,0.6097193592073122,0.5734644671776872,-10.62983,-0.008346000000000402,-0.012613,-0.013291,0.016004669240788,0.0039618974020272,3.102793862144912
69.17293233082707,0.609719401618813,0.5734641469097694,-10.606639,0.0157130000000003,0.022431000000000006,-0.013348000000000002,0.0081332343142935,0.0096516707635287,3.1392711736984227
70.17543859649122,0.6097194304167457,0.57346382594372,-10.556034,0.0138059999999997,0.033991999999999994,0.020134000000000103,0.0105068820970058,0.0138230076757952,-3.112271244329337
71.17794486215539,0.6097194503134992,0.5734635056758023,-10.510887,-0.0014969999999996002,-0.0025349999999998984,0.0378819999999999,0.0145036860840728,0.0139626340159546,-3.08343826546005
72.18045112781954,0.60971945991281,0.5734631852333516,-10.497552,-0.0076580000000001005,-0.034811999999999996,0.006134999999999901,0.0149749249821113,0.011100294042684,-3.056560317152385
73.1829573934837,0.60971945275696,0.5734628651399668,-10.492826,0.0005720000000000005,0.005984999999999893,-0.0421109999999998,0.0150272848596711,0.0098960168588078,-3.03867053523981
74.18546365914787,0.6097194311148775,0.5734625439993843,-10.463043,0.0074129999999996,0.036764000000000005,-0.016171000000000102,0.0110304808726041,0.0090931654028905,-3.029856797050164
75.18796992481202,0.6097194042368069,0.5734622228588021,-10.40535,0.0006680000000005002,0.0377600000000001,0.007665999999999999,0.007365289443416,0.0070511301780571,-3.0274655563485915
76.19047619047619,0.6097193791040656,0.5734619018927526,-10.343021,-0.0050700000000002,0.025344999999999798,0.034903,0.0056723200689815,0.0031764992386298,-3.0283382733344664
77.19298245614034,0.6097193588582464,0.5734615800540386,-10.314893,-0.006502999999999901,-0.0104969999999999,0.034468,0.0041364303272265,-0.0016231562043547,-3.031165741629282
78.19548872180451,0.6097193391360258,0.5734612582153245,-10.332035,0.0043199999999998006,-0.036533,-0.014925999999999995,0.0094945911308491,-0.0051487212933831,-3.033818519919266
79.19799498746866,0.6097193152250151,0.5734609358530116,-10.360285,0.016963,0.0007489999999999997,-0.038831000000000004,0.0069638637154573,-0.0066147978650583,-3.041253535266299
80.20050125313283,0.6097192881724116,0.5734606145378964,-10.370508,-0.0016449999999999,0.041268,-0.018891999999999902,0.0070162235930172,-0.008237954069413,-3.054797569514456
81.203007518797,0.6097192658321973,0.5734602953171762,-10.361099,-0.018792999999999997,0.0283479999999999,0.0136829999999999,0.0022340214425527,-0.0104719755119659,-3.0700516250038388
82.20551378446115,0.6097192522186291,0.5734599722567316,-10.347446,-0.009577999999999802,-0.002259000000000004,0.012815,0.0008901179185171,-0.0098785635662879,-3.0824608985322257
83.20802005012531,0.6097192468081084,0.5734596465782933,-10.343059,0.0073040000000000015,-0.0126969999999999,0.011051,0.0001570796326794,-0.0079063415115343,-3.092688493042328
84.21052631578947,0.6097192489025035,0.5734593196781244,-10.355122,0.0135849999999994,-0.020886,0.001131,0.0015009831567151,-0.0060737457969402,-3.1005248468508566
85.21303258145363,0.6097192499497011,0.5734589945232847,-10.369821,0.010713000000000401,0.004541,-0.022598,0.0028797932657906,-0.004886921905584,-3.1079776994628454
86.21553884711778,0.6097192553602218,0.5734586723355047,-10.376056,4.700000000029854e-05,0.022832,0.007993,-0.0005759586531581,-0.0050090949532237,-3.1137895236989386
87.21804511278195,0.6097192658321973,0.5734583527657187,-10.393556,-0.014725000000000599,-0.026533,0.019695,0.0122173047639603,-0.0048171087355042,-3.1140513056334456
88.22055137844612,0.609719273511646,0.5734580335449986,-10.420544,-0.0048819999999994,-0.036393,-0.02251,0.0114493598930828,-0.0029321531433503,-3.111538083870451
89.22305764411027,0.6097192782240349,0.5734577113572186,-10.429992,-0.0011550000000002999,0.006744,-0.0275779999999999,0.0035255650890285,3.4906585040017646e-05,-3.1104035674967774
90.22556390977444,0.6097192811910946,0.573457388122241,-10.401209,0.0017960000000002002,0.036541000000000004,-0.0066080000000001,0.0015009831567151,0.0044331363000655,-3.110420881162957
91.2280701754386,0.6097192874742801,0.5734570647127307,-10.350019,0.0027429999999996997,0.0139299999999999,0.032555,-0.0021642082724729,0.0078714349264945,-3.108658412777708
92.23057644110276,0.6097193009133153,0.5734567407796215,-10.312311,0.0102290000000002,-0.0130069999999999,0.034277,0.002460914245312,0.0095120444233691,-3.10443462872142
93.23308270676692,0.6097193145268833,0.5734564182427758,-10.311448,0.0023679999999997,-0.046992,0.0063999999999999994,0.0032812189937493,0.00921533845053,-3.096126896388512
94.23558897243107,0.609719320111937,0.5734560969276605,-10.326758,-0.009057999999999601,-0.029706,-0.046508999999999995,0.0141022603561141,0.0101578162466071,-3.087626898585204
95.23809523809524,0.6097193150504822,0.5734557749144136,-10.307899,-0.0040310000000002,0.038413,-0.033844,0.0040317105721069,0.0125663706143592,-3.0852185885635466
96.2406015037594,0.6097193051021055,0.5734554548210287,-10.250449,-0.0014829999999998998,0.038984000000000005,0.020980000000000103,-0.0038746309394274,0.0142942465738336,-3.0859863763547914
97.24310776942356,0.6097193002151835,0.5734551335059134,-10.187023,0.0010119999999996998,0.002263999999999898,0.0323709999999999,0.0016755160819145,0.0142767932813137,-3.0861610838129163
98.24561403508773,0.6097193007387823,0.5734548104454689,-10.141159,-0.0007289999999996995,-0.01919,0.010911999999999901,0.0037699111843077,0.0130550628049177,-3.085864412746662
99.24812030075188,0.6097193026586444,0.5734544875595573,-10.112738,0.0048750000000001,-0.012592999999999901,-0.0081309999999999,0.0054454272662223,0.01232202451908,-3.085934191010157
100.25062656641605,0.6097193003897164,0.5734541651972445,-10.089897,0.0086529999999998,-0.002088999999999999,-0.010326,0.0060039326268604,0.0109083078249645,-3.08645775487917
101.2531328320802,0.6097192941065311,0.5734538444057279,-10.066199,-0.0020400000000001008,0.0038360000000000997,-0.0012859999999999,0.0022863813201125,0.0076270888312153,-3.08727800726773
102.25563909774436,0.6097192879978787,0.5734535246614089,-10.039699,-0.0144100000000001,0.0214539999999998,-0.004464,0.0045029494701453,0.0039444441095073,-3.090349699484777
103.25814536340852,0.6097192845072201,0.5734532021245631,-10.012118,-0.006665999999999599,0.011672000000000099,0.0069409999999998,-0.0006981317007977,0.0016057029118348,-3.0930549423720763
104.26065162907268,0.6097192853798848,0.5734528790641186,-9.987198,0.015027999999999899,-0.013267999999999999,0.0017090000000000998,0.0001745329251994,0.0013788101090754,-3.09485284094114
105.26315789473684,0.6097192899177409,0.573452555829141,-9.96843,0.015987999999999697,-0.005319000000000001,0.006295,0.0044680428851054,-3.49065850397956e-05,-3.0965804376479342
106.265664160401,0.6097192951537286,0.5734522331177625,-9.968588,-0.012577999999999999,-0.012215,0.013719,0.00614355896702,-0.0040840704496667,-3.096353806644564
107.26817042606515,0.6097192948046628,0.5734519133734435,-9.985184,-0.0177459999999997,-0.019523,-0.021956,0.0057421332390613,-0.0053058009260626,-3.0937705448186863
108.27067669172932,0.6097192911394713,0.5734515925819269,-9.983006,0.0082650000000002,0.026283000000000098,-0.0318269999999999,0.0005585053606381,-0.0039269908169872,-3.0944339270140766
109.27318295739347,0.6097192911394713,0.5734512702196141,-9.96039,0.011476999999999599,0.036125999999999894,0.0252439999999999,0.0001745329251994,-0.0039444441095071,-3.097941846824368
110.27568922305764,0.6097192935829323,0.5734509490790317,-9.948522,-0.0067780000000001225,-0.019338999999999995,0.023563,0.0001919862177193,-0.0052359877559828,-3.097383638169702
111.2781954887218,0.6097192995170517,0.5734506275893835,-9.952681,0.00046600000000022275,-0.020197999999999904,-0.010875999999999999,0.0013613568165555,-0.0056548667764615,-3.0944339270140766
112.28070175438596,0.609719305800237,0.5734503069724,-9.960752,0.0049220000000001,-0.0074860000000001,-0.0069830000000001,0.0003839724354387,-0.0061959188445797,-3.091274881067968
113.28320802005013,0.6097193092908956,0.5734499879262127,-9.974779,-0.0060880000000000005,-0.013685000000000001,0.007854,0.0056897733615015,-0.0072082098107364,-3.087504917523782
114.28571428571428,0.6097193049275725,0.5734496662620314,-9.987096,-0.006043,0.006321,-0.0190539999999998,0.0088662726001311,-0.0069464104229373,-3.085375720556104
115.28822055137844,0.6097192996915847,0.573449343201587,-9.985009,0.0066659999999995724,0.031861,-0.0056800000000001,-0.0005759586531581,-0.0065449846949787,-3.08645775487917
116.2907268170426,0.6097192963754592,0.5734490201411424,-9.975599,0.005706000000000428,0.012745,0.0183859999999999,-0.0004363323129985,-0.0081506876068133,-3.088011185179908
117.29323308270676,0.609719298993453,0.5734486983024283,-9.976941,-0.0069150000000002005,-0.019946,0.012036999999999999,-6.98131700797731e-05,-0.0103672557568461,-3.08719067099196
118.29573934837092,0.6097193030077103,0.5734483768127802,-9.996167,-0.0029129999999994993,-0.026703,0.002869000000000099,0.0031066860685499,-0.0121649448864005,-3.0854454988195985
119.29824561403508,0.6097192996915847,0.5734480544504673,-10.023881,0.0048049999999992,-0.008059,-0.017336000000000098,0.0057770398241012,-0.0121823981789204,-3.0845552063681563
120.30075187969923,0.6097192904413398,0.5734477315645556,-10.042578,0.0003240000000003999,0.022043,-0.0156519999999999,0.0057246799465414,-0.0112748269678832,-3.0863528256845405
121.3032581453634,0.609719282761891,0.5734474104239733,-10.043728,-0.0016609999999997998,0.036409,-0.0005070000000000022,0.0020594885173533,-0.0100705497840072,-3.090733741733386
122.30576441102755,0.609719280492963,0.573447088934325,-10.038431,0.0018129999999998,0.012208,0.021856,-0.0017278759594743,-0.0094771378383291,-3.0942941086877
123.30827067669172,0.6097192857289507,0.5734467669210781,-10.05313,0.0019139999999997,-0.040653,0.023365,0.0054279739737023,-0.009808750396208,-3.092863200500452
124.31077694235589,0.6097192899177409,0.5734464449078311,-10.093459,-0.0075159999999997,-0.04476,-0.0171150000000001,0.0068067840827778,-0.0095469510084089,-3.0902975141401425
125.31328320802004,0.6097192862525495,0.5734461225455183,-10.124107,0.0029600000000002996,0.017643000000000002,-0.0384789999999999,0.0031241393610698,-0.0069464104229373,-3.091536680455766
126.3157894736842,0.6097192759551069,0.573445801404936,-10.124248,0.0030759999999995,0.04091,-0.004187,0.0028623399732707,-0.003961897402027,-3.096092007256764
127.31829573934836,0.6097192681011252,0.5734454786935572,-10.101214,0.0010780000000001,0.025373,0.016812999999999998,-0.0024260076602721,-0.0018675022996339,-3.1014851793651816
128.32080200501252,0.6097192729880472,0.5734451568548431,-10.078903,-0.0040969999999997,-0.009449000000000096,0.029372,0.0005061454830783,-0.0021991148575128,-3.1036838927969663
129.32330827067668,0.6097192824128251,0.5734448343179973,-10.081592,-0.004644000000000301,-0.0400859999999998,0.012339000000000003,0.0013439035240356,-0.0038048177693474,-3.101066265438118
130.32581453634086,0.6097192900922739,0.5734445119556845,-10.104548,0.0065760000000003,-0.0153490000000001,-0.0205730000000001,0.0032463124087094,-0.0042062434973062,-3.0982387796900097
131.328320802005,0.6097192914885372,0.5734441904660363,-10.122749,0.006633999999999599,0.013815,-0.0218619999999999,-0.0005759586531581,-0.0034557519189486,-3.097767401165631
132.33082706766916,0.6097192881724116,0.5734438701981185,-10.119446,0.0019300000000002007,0.015396,-0.006634000000000001,0.008290313946973,-0.0026179938779913,-3.0983261334190715
133.33333333333331,0.6097192860780165,0.573443549581135,-10.103092,-0.0105850000000002,0.0034799999999999996,0.0188400000000001,0.0041538836197465,-0.0031939525311495,-3.0981863150926947
134.3358395989975,0.6097192878233457,0.5734432287896184,-10.093109,-0.0109649999999997,-0.0062210000000001,0.0116959999999998,0.0004712388980384,-0.0039269908169872,-3.0974358409676293
135.33834586466165,0.6097192888705434,0.573442905554641,-10.088233,0.006838000000000101,-0.0016309999999999,-0.0108479999999998,0.0025307274153917,-0.0026529004630313,-3.096528234850008
136.3408521303258,0.6097192920121359,0.5734425826687293,-10.082037,0.015324999999999799,0.001487,0.0051459999999998,0.00614355896702,-0.0023736477827123,-3.095900003585752
137.34335839598998,0.6097192937574653,0.5734422610045482,-10.089135,-0.0031010000000000993,-0.014774,0.0120810000000001,0.0033335788713091,-0.0033859387488688,-3.094678133483016
138.34586466165413,0.6097192918376031,0.5734419412602292,-10.102578,-0.007929999999999899,-0.006457000000000001,-0.021767,0.0045553093477052,-0.003665191429188,-3.093386781822758
139.34837092731829,0.6097192886960104,0.5734416202941799,-10.094458,-0.00204,0.0252489999999999,-0.024347,0.0021642082724729,-0.0025481807079117,-3.094556169874886
140.35087719298244,0.6097192859034837,0.5734412970592023,-10.063784,0.0015620000000003001,0.020483000000000102,0.021358,-8.726646259971646e-05,-0.0028099800957108,-3.096545810315575
141.35338345864662,0.6097192874742801,0.5734409724279615,-10.044497,-0.0039060000000006,-0.006956,0.032069,1.7453292519943296e-05,-0.0033161255787892,-3.095900003585752
142.35588972431077,0.6097192970735908,0.573440649192984,-10.051608,0.010713000000000299,-0.020156,0.005812000000000001,-0.0004712388980384,-0.0038746309394273,-3.094817951809393
143.35839598997492,0.6097193040549078,0.5734403266561383,-10.082684,0.005653000000000101,-0.034524,-0.015336,0.0035430183815484,-0.0054105206811823,-3.092182487185589
144.36090225563908,0.6097192982953212,0.5734400072608852,-10.107232,-0.0078290000000001,-0.0066879999999999995,-0.040616,0.0055676003138619,-0.0059864793343404,-3.0904021640820925
145.36340852130326,0.6097192869506812,0.5734396894364283,-10.088235,-0.0083969999999999,0.061993,-0.02078,0.0019024088846738,-0.0058293997016609,-3.0943990378823294
146.3659147869674,0.6097192843326873,0.5734393674231814,-10.043152,-0.0027710000000001006,0.048269,0.052351,-0.0050265482457436,-0.0065100781099387,-3.0985178927439883
147.36842105263156,0.6097192918376031,0.5734390448863356,-10.031799,-0.002635000000000099,-0.049467,0.043179999999999996,-0.0022689280275926,-0.0063529984772592,-3.09556816413507
148.37092731829574,0.6097193035313091,0.5734387204296276,-10.06009,0.0174679999999999,-0.063749,-0.023932,0.0048171087355043,-0.0042236967898261,-3.090018139286776
149.3734335839599,0.6097193054511713,0.5734383975437161,-10.088501,0.0088790000000003,-0.003699000000000001,-0.044133,0.0022340214425527,-0.0035604716740684,-3.087749403245401
150.37593984962405,0.6097192979462556,0.5734380767521995,-10.086694,-0.011778,0.045184999999999996,-0.015915000000000002,0.0026703537555513,-0.0043982297150255,-3.089895896425966
151.3784461152882,0.609719289743208,0.5734377568333475,-10.055343,-0.010812,0.041513,0.0213640000000001,0.0004188790204786,-0.0053930673886624,-3.093194760698453
152.38095238095238,0.6097192899177409,0.5734374355182323,-10.030598,-0.00068,-0.0027259999999999993,0.0399779999999999,-0.0016406094968746,-0.0059690260418205,-3.094084791350508
153.38345864661653,0.609719298993453,0.5734371122832548,-10.039459,0.0088469999999997,-0.041363,0.008626000000000002,0.0010995574287564,-0.0068940505453776,-3.0919555943828296
154.38596491228068,0.6097193044039737,0.5734367902700078,-10.070226,0.006289000000000201,-0.025393999999999996,-0.026727,0.0039095375244672,-0.0083601271170528,-3.090192584945513
155.3884711779449,0.6097193007387823,0.5734364668604974,-10.091641,-0.0074180000000002005,0.011159999999999996,-0.0318779999999999,0.004590215932745,-0.0084997534572122,-3.089895896425966
156.39097744360902,0.6097192956773274,0.5734361453708492,-10.082154,-0.0033189999999993997,0.040774000000000005,-0.0027810000000000994,-0.0014660765716752,-0.0065798912800185,-3.092182487185589
157.39348370927317,0.6097192951537286,0.5734358244047999,-10.062636,0.0056899999999994,0.0069630000000000004,0.041328,-0.0021991148575128,-0.005811946409141,-3.092828049569317
158.39598997493732,0.6097192984698542,0.5734355022170198,-10.071128,-0.0032909999999998,-0.037988,0.015614999999999902,0.0033161255787892,-0.0055501470213419,-3.0905068314773345
159.3984962406015,0.6097192998661176,0.5734351782839108,-10.090663,0.0010180000000001,-0.014612,-0.0429549999999998,0.0024783675378319,-0.0043807764225056,-3.088552080168393
160.40100250626566,0.6097192963754592,0.5734348562706637,-10.08219,0.0027849999999998002,0.0354099999999999,-0.017567000000000103,0.0009773843811168,-0.0029845130209102,-3.0898612865468995
161.4035087719298,0.6097192958518604,0.5734345332102192,-10.054955,-0.0073349999999998,0.015030000000000099,0.0306300000000001,-0.0027925268031909,-0.0020420352248333,-3.0909606345361453
162.406015037594,0.6097192981207883,0.5734342085789783,-10.043079,0.0019719999999999,-0.023705,0.0253299999999998,-0.0032637657012293,-0.0016231562043547,-3.0887265083738376
163.40852130325814,0.6097193009133153,0.5734338858675996,-10.053468,0.00184,-0.022927,-0.0107049999999999,0.0017278759594743,-0.0009948376736366,-3.085009271226355
164.4110275689223,0.6097193007387823,0.5734335636798197,-10.067178,0.0093290000000001,0.0011999999999999997,-0.018041,0.0061959188445798,6.981317007981325e-05,-3.084572781833724
165.41353383458645,0.6097192921866689,0.5734332427137703,-10.072213,-0.0022670000000003,0.006872000000000001,-0.009733999999999899,0.0027052603405912,8.726646259971105e-05,-3.0858468372810948
166.41604010025063,0.6097192820637592,0.5734329219222537,-10.059476,-0.0078969999999997,0.021249999999999998,-0.0080810000000001,-0.0019547687622336,0.0002792526803192,-3.088238077982667
167.41854636591478,0.6097192759551069,0.5734326016543361,-10.029769,-0.0068709999999999,0.022994,0.014166000000000002,-0.0030194196059501,0.0002967059728391,-3.0917111086612103
168.42105263157893,0.609719278049502,0.5734322789429573,-10.003957,-0.0028960000000002005,-0.007959,0.023611999999999998,-0.0005410520681182,0.0008901179185172,-3.0935438963620223
169.4235588972431,0.6097192852053519,0.5734319539626506,-9.99816,0.011285,-0.024822,0.0023,-0.0011170107212763,0.0019373154697137,-3.093282114427516
170.42606516290726,0.6097192899177409,0.5734316303786073,-10.004185,0.017033,-0.009202,-0.014911999999999998,-0.001221730476396,0.0024434609527921,-3.0937881202842537
171.42857142857142,0.6097192902668068,0.5734313099361567,-10.011599,-0.004602999999999901,-0.0022029999999998995,-0.003374,0.002740166925631,0.000959931088597,-3.0937705448186863
172.43107769423557,0.6097192866016153,0.573430991762634,-10.010479,-0.0177710000000001,-0.0033900000000000995,-0.013188,0.0059166661642607,0.0,-3.0922871545808315
173.43358395989975,0.6097192813656276,0.5734306716692491,-9.994672,-0.0078390000000002,0.01863,-0.0016509999999999997,-0.0011868238913561,0.0013613568165555,-3.092967867895694
174.4360902255639,0.6097192799693643,0.5734303486088046,-9.966496,0.007933000000000402,0.024308,0.0072140000000001,-0.0065624379874986,0.0038920842319474,-3.096318917512816
175.43859649122803,0.6097192838090886,0.5734300236284979,-9.940967,0.0090239999999996,-0.0025330000000000005,0.019148999999999798,-0.0028972465583105,0.0040840704496667,-3.0979769977555027
176.44110275689223,0.6097192907904055,0.5734296991717899,-9.927851,0.006888,-0.026113,-0.0010729999999998987,0.0017104226669544,0.0045727626402252,-3.0963013420472483
177.4436090225564,0.609719296549992,0.5734293780312075,-9.924717,-0.0067219999999999,-0.022066,-0.004875000000000001,0.0067369709126981,0.0033335788713091,-3.09335161343833
178.44611528822054,0.6097192956773274,0.5734290572396911,-9.915283,-0.0083669999999997,0.0034420000000000006,-0.023464,-0.0013089969389957,0.0020943951023932,-3.0912048410050845
179.4486215538847,0.6097192909649385,0.5734287360991087,-9.885963,0.0015539999999996997,0.033562999999999996,0.005242999999999999,-0.004904375198104,-0.0002617993877991,-3.0909606345361453
180.45112781954887,0.6097192888705434,0.5734284123405324,-9.86097,-0.0047149999999996,0.007484999999999999,0.031561,-0.0030368728984701,-0.00307177948351,-3.09033240327189
181.45363408521305,0.6097192907904055,0.5734280882328904,-9.860316,0.0056119999999997,-0.024544,0.006172,0.0043982297150257,-0.004276056667386,-3.088412523641404
182.4561403508772,0.6097192925357348,0.5734277656960446,-9.873843,0.0093650000000002,-0.024364999999999998,-0.024894000000000003,0.0032812189937493,-0.0046600291028247,-3.087260431802162
183.45864661654133,0.6097192883469446,0.5734274464753244,-9.876469,0.0030499999999994993,0.015847000000000097,-0.016769999999999997,0.000610865238198,-0.0059341194567805,-3.0884823019048984
184.4611528822055,0.6097192815401604,0.5734271263819396,-9.868823,-0.007395999999999899,0.025568999999999897,0.016465999999999998,0.0024085543677521,-0.008272860654453,-3.090855967140904
185.4636591478697,0.6097192757805739,0.5734268052413571,-9.872671,-0.0115879999999996,0.0005450000000000003,0.0187209999999999,0.0029321531433504,-0.0100007366139274,-3.0928980896322
186.46616541353384,0.609719275606041,0.5734264823554455,-9.891022,-0.0008060000000002995,-0.0111920000000001,-0.011089000000000002,-0.0021118483949131,-0.0103847090493662,-3.094939932870815
187.468671679198,0.6097192764787057,0.5734261568515401,-9.904852,0.0011430000000003,-0.0068909999999998,-0.0266059999999998,0.0004188790204786,-0.0090931654028902,-3.097034502506133
188.4711779448621,0.6097192775259032,0.5734258309985687,-9.891469,0.0167579999999997,0.0321379999999999,-0.0042590000000000995,0.0006632251157578,-0.0063529984772592,-3.1008044835036115
189.4736842105263,0.6097192824128251,0.5734255070654596,-9.878078,0.0038379999999999994,0.008018999999999998,0.048854,-0.0066846110351382,-0.0062308254296197,-3.1026543056179228
190.47619047619045,0.6097192916630702,0.5734251857503443,-9.905923,-0.0093990000000001,-0.049365,0.018805999999999996,0.002443460952792,-0.0066846110351381,-3.098867028407557
191.47869674185463,0.6097192975971897,0.5734248649588278,-9.959905,-0.0068389999999996995,-0.041528,-0.045315999999999995,0.0063704517697793,-0.0054803338512621,-3.0943814624167616
192.4812030075188,0.6097192914885372,0.5734245429455808,-9.980985,0.002828,0.026096,-0.054689,0.0029496064358704,-0.0025132741228717,-3.0953937359296257
193.4837092731829,0.6097192810165617,0.5734242204087351,-9.940641,-0.001652,0.069993,0.0035520000000000967,-0.0042411500823462,0.000959931088597,-3.100141083854928
194.48621553884712,0.609719280492963,0.5734238985700209,-9.883037,-0.0039769999999999,0.028973999999999896,0.0701039999999998,-0.0061610122595399,0.0030543261909901,-3.102322745419921
195.48872180451127,0.6097192949791956,0.5734235758586422,-9.86709,0.0062939999999996,-0.05995699999999989,0.0317690000000001,-0.0001047197551196,0.0042236967898263,-3.0977847148318105
196.49122807017545,0.6097193133051528,0.5734232514019343,-9.890291,0.012392000000000099,-0.062173,-0.03074,0.0068242373752978,0.0041887902047863,-3.09123999193622
197.4937343358396,0.6097193152250151,0.5734229314830824,-9.906378,-0.0006119999999998002,-0.0021130000000000038,-0.046571,0.0047123889803846,0.0040491638646269,-3.0866497760034743
198.49624060150376,0.6097193044039737,0.5734226122623622,-9.8856,-0.0152619999999998,0.044673000000000004,-0.008844999999999999,0.0023038346126325,0.0038048177693477,-3.0863182158054734
199.4987468671679,0.6097192920121359,0.5734222914708458,-9.837019,-0.012578000000000401,0.043439000000000005,0.021929999999999998,-0.0016580627893946,0.0032288591161895,-3.089145422300901
200.5012531328321,0.6097192913140043,0.5734219692830659,-9.789369,0.006523000000000001,0.005697999999999995,0.0277239999999999,-0.003996803987067,0.0034906585039886,-3.090803781796269
201.50375939849624,0.6097192970735908,0.5734216434300944,-9.76952,0.022924000000000097,-0.036829999999999995,0.029527000000000095,0.0011170107212763,0.002495820830352,-3.089564336227965
202.5062656641604,0.6097192993425189,0.5734213198460512,-9.790442,-0.0007920000000000999,-0.05112,-0.016803000000000096,0.0066322511575784,0.0006806784082777,-3.086405290281855
203.5087719298245,0.6097192913140043,0.5734209971346724,-9.801888,-0.0121919999999997,0.018528999999999997,-0.0689819999999999,0.0018849555921538,0.000314159265359,-3.0877142348609734
204.5112781954887,0.6097192787476337,0.57342067599409,-9.760716,-0.0035080000000001,0.065225,-0.0018990000000000049,0.0022165681500327,0.0004363323129985,-3.0932296498302008
205.51378446115288,0.6097192724644485,0.5734203522355138,-9.706753,-0.0059590000000002,0.008155000000000003,0.065554,-0.0046600291028248,-0.0013089969389956,-3.096842219582441
206.51629072681703,0.6097192763041728,0.5734200277788059,-9.691169,0.0048070000000004,-0.035423,0.022612,0.0005585053606381,-0.0027925268031909,-3.098256093356189
207.5187969924812,0.6097192834600227,0.5734197010531699,-9.708613,0.0078069999999996,-0.021778,-0.027417,0.0024085543677521,-0.0037175513067477,-3.097924533158188
208.5213032581453,0.6097192869506812,0.5734193753747314,-9.723765,0.0031940000000000995,-0.0017049999999999982,-0.033038,-0.0013962634015954,-0.0038571776469074,-3.097732529487176
209.52380952380952,0.6097192841581545,0.573419052139754,-9.711467,-0.006715000000000099,0.015877,-0.016706000000000002,0.0042760566673861,-0.0036826447217079,-3.0979769977555027
210.52631578947367,0.609719285030819,0.5734187297774411,-9.673117,0.0089270000000002,0.038710999999999995,0.034283,-0.0034732052114687,-0.0037873644768275,-3.0998793019204216
211.52882205513785,0.6097192923612018,0.5734184096840562,-9.671327,-0.0085530000000003,-0.037113,0.057581,5.2359877559829855e-05,-0.00614355896702,-3.0969295733115034
212.531328320802,0.6097192948046628,0.5734180887180069,-9.713744,-0.010378999999999501,-0.049746,-0.044922000000000004,0.0080634211442138,-0.0066671577426182,-3.0924442865733885
213.53383458646616,0.6097192916630702,0.5734177646103648,-9.726108,0.009349999999999501,0.034137,-0.073727,-2.7105474421148534e-20,-0.0055676003138618,-3.092566250181517
214.5363408521303,0.6097192853798848,0.5734174408517886,-9.685012,0.0051170000000001995,0.061694,0.029696000000000097,-0.0062482787221396,-0.0057770398241012,-3.095725296127628
215.5388471177945,0.6097192876488128,0.5734171197112061,-9.649155,-0.0005180000000001,-0.00836,0.07129999999999989,-0.0005410520681182,-0.0065100781099387,-3.0946435236039487
216.54135338345864,0.609719296724525,0.5734167969998274,-9.6696,-0.0091359999999997,-0.069821,0.014181,0.0016057029118347,-0.0073129295658562,-3.088325431711729
217.5438596491228,0.6097193019605127,0.5734164735903171,-9.715529,0.0076409999999999,-0.017971,-0.061327,0.003682644721708,-0.0057595865315811,-3.083752529445164
218.5463659147869,0.6097192963754592,0.5734161498317408,-9.73397,0.005288999999999501,0.041057,-0.033700999999999995,0.0007853981633974,-0.0055501470213419,-3.084747471838556
219.5488721804512,0.6097192883469446,0.5734158281675598,-9.720283,-0.0011859999999993005,0.029519999999999998,0.028859999999999997,-0.0020594885173533,-0.0071733032256966,-3.087225821923095
220.55137844611528,0.6097192853798848,0.5734155077251091,-9.709489,-0.0159540000000006,-0.014381999999999999,0.020698999999999898,0.0007679448708775,-0.0081157810217735,-3.0882729671144142
221.55388471177943,0.6097192874742801,0.5734151841410657,-9.701564,0.0030900000000003,0.0013369999999999996,-0.0153889999999999,-0.0006981317007977,-0.0072082098107364,-3.089442372619836
222.5563909774436,0.6097192914885372,0.5734148605570223,-9.690997,0.0122840000000001,0.013156,0.015215,-0.0048869219055841,-0.0072431163957764,-3.0892500896961432
223.55889724310777,0.6097192963754592,0.5734145362748474,-9.705231,-0.003374,-0.0316129999999999,0.026532999999999897,0.0026703537555513,-0.0105941485596054,-3.085969080141904
224.56140350877192,0.6097192979462556,0.573414210421876,-9.749002,-0.007183999999999999,-0.0315800000000001,-0.0210919999999999,0.0039444441095071,-0.0126885436619987,-3.082338655671416
225.56390977443607,0.6097192928848006,0.5734138852670364,-9.781837,0.0031309999999997997,0.0266400000000001,-0.045555,0.0001047197551196,-0.0117984257434815,-3.0834206899944823
226.56641604010025,0.6097192839836215,0.573413564126454,-9.7793,0.0099010000000001,0.042077999999999796,0.0026370000000000005,-0.0004363323129985,-0.0103148958792864,-3.087731810326541
227.5689223057644,0.609719282761891,0.573413242113207,-9.76483,-0.0028800000000003,0.007698000000000097,0.0350429999999999,-0.0016755160819145,-0.0099832833214075,-3.090471942345587
228.57142857142856,0.6097192862525495,0.5734129190527625,-9.771331,-0.0057069999999995,-0.031104999999999997,0.0241830000000001,0.0027227136331111,-0.0107861347773248,-3.0890061450265924
229.5739348370927,0.6097192913140043,0.5734125966904496,-9.809861,-0.0059149999999999,-0.03521200000000001,-0.0066320000000001,0.0052883476335428,-0.0105766952670856,-3.085026584892535
230.5764411027569,0.6097192890450762,0.5734122739790709,-9.850614,1.1999999999400511e-05,-0.0007419999999999996,-0.0449129999999998,-0.0015533430342749,-0.0076096355386952,-3.08425851784861
231.57894736842104,0.6097192818892263,0.5734119502204946,-9.852224,0.0101720000000007,0.041583,-0.0291950000000001,-0.0054454272662223,-0.0029496064358702,-3.088011185179908
232.5814536340852,0.6097192801438971,0.5734116276836488,-9.813808,0.0012709999999994995,0.038977,0.032299999999999995,-0.003665191429188,-0.0008726646259971,-3.092042668859212
233.58395989974937,0.6097192876488128,0.5734113051468032,-9.783139,-0.006016000000000099,-0.016911999999999996,0.046698,0.0005235987755982,-0.0018849555921538,-3.091536680455766
234.58646616541355,0.6097193007387823,0.5734109815627598,-9.794235,0.0022960000000002,-0.051803,0.013081000000000002,0.0019024088846738,-0.0018675022996339,-3.086824221662212
235.58897243107768,0.6097193071965005,0.5734106585023153,-9.834804,0.0030089999999999995,-0.0393,-0.0302520000000001,0.0054628805587422,-0.001169370598836,-3.081465938685541
236.59147869674183,0.6097192962009262,0.5734103345692061,-9.85733,-0.008823999999999999,0.019737000000000005,-0.05854899999999989,0.0044680428851054,0.0010471975511967,-3.0814313113531817
237.593984962406,0.6097192817146934,0.5734100118578274,-9.818173,0.0003420000000001998,0.07525599999999999,-0.008931000000000001,-0.0010297442586766,0.0035081117965085,-3.0867022406007893
238.59649122807016,0.609719275606041,0.5734096856557902,-9.752332,-0.0026140000000003,0.032394,0.061881,-0.0071907565182166,0.0049392817831439,-3.090646649803712
239.59899749373432,0.6097192841581545,0.5734093606754835,-9.717699,0.0105380000000003,-0.049725,0.0368559999999999,-0.0019722220547535,0.0058643062867009,-3.089145422300901
240.6015037593985,0.6097193010878481,0.5734090355206439,-9.72451,0.0089359999999994,-0.050096999999999996,-0.012954999999999904,0.00614355896702,0.0051836278784231,-3.08497412029522
241.60401002506265,0.6097193068474347,0.5734087133328639,-9.745448,-0.0060659999999997,-0.012431000000000005,-0.03292,0.004921828490624,0.0035604716740684,-3.0812566038950573
242.6065162907268,0.6097192996915847,0.5734083946357424,-9.748046,-0.0113349999999998,0.028814,-0.02129,0.0026529004630313,0.0030543261909901,-3.0803663114436146
243.60902255639093,0.6097192885214775,0.5734080729715614,-9.723602,-0.010777999999999701,0.022411,-0.002168,-0.0024260076602721,0.0039793506945471,-3.081553292414604
244.6115288220552,0.6097192825873581,0.5734077474676559,-9.677378,0.0101239999999993,0.012948,0.010359,-0.0023212879051524,0.0065973445725386,-3.083752529445164
245.6140350877193,0.6097192818892263,0.5734074210910858,-9.6275,0.0133290000000005,0.010963,0.025280999999999998,-0.0053058009260627,0.0073129295658562,-3.0862308620764107
246.61654135338344,0.6097192881724116,0.5734070966343777,-9.603905,0.006710999999999701,-0.0114380000000001,0.031452,-0.0037175513067479,0.0040491638646269,-3.0863182158054734
247.6190476190476,0.6097192949791956,0.5734067761919271,-9.622904,-0.0114700000000001,-0.049696999999999894,-0.007665999999999999,0.0066497044500983,-0.0007679448708775,-3.0821817854782467
248.62155388471177,0.6097192970735908,0.5734064555749435,-9.650039,-0.014221999999999601,-0.018664000000000004,-0.0499819999999999,0.0078016217564146,-0.0031939525311495,-3.078516489329304
249.62406015037595,0.6097192883469446,0.5734061314673015,-9.638996,0.001349999999999501,0.044168,-0.027504000000000098,-0.0036128315516282,-0.0026354471705114,-3.0801745695719904
250.62656641604008,0.6097192782240349,0.5734058056143302,-9.598837,0.0085140000000004,0.04378,0.0340060000000001,-0.0053756140961425,-0.0017104226669544,-3.0853930342222835
251.62907268170423,0.6097192782240349,0.5734054781905624,-9.56547,0.0120870000000001,0.011725,0.0371629999999998,-0.0075223690760955,-0.0014660765716751,-3.0886743055759105
252.6315789473684,0.6097192890450762,0.5734051554791838,-9.580306,-0.0017820000000003996,-0.054106999999999905,0.030238000000000098,0.0076619954162551,-0.0035953782591082,-3.0853056804932213
253.63408521303256,0.6097192972481238,0.5734048348622001,-9.63657,-0.013529999999999799,-0.0626110000000001,-0.041551,0.0096691240560485,-0.0049043751981039,-3.080139680440243
254.63659147869672,0.6097192892196092,0.5734045118017557,-9.667927,-0.004027999999999901,0.017924000000000002,-0.075114,0.0035779249665883,-0.0028274333882307,-3.0799652347815063
255.6390977443609,0.609719273686179,0.573404186472383,-9.62851,0.0066130000000002,0.087488,-0.002239999999999999,-0.0045204027626653,0.0008203047484374,-3.08740025012854
256.64160401002505,0.6097192679265924,0.5734038613175434,-9.566933,0.0012779999999997,0.037763,0.083687,-0.0065275314024587,0.0009424777960769,-3.0932296498302008
257.64411027568923,0.6097192768277716,0.5734035375589671,-9.557104,0.0048749999999996,-0.0564520000000001,0.04276,0.0030019663134302,0.0001396263401596,-3.0910828773969548
258.6466165413533,0.6097192921866689,0.5734032139749239,-9.605469,0.005458000000000399,-0.0786159999999999,-0.026213,0.0058992128717408,-0.0017278759594743,-3.085969080141904
259.64912280701753,0.6097192948046628,0.573402891612611,-9.650527,-0.008546999999999999,-0.010320999999999997,-0.08435999999999999,0.0028623399732707,-0.0026878070480711,-3.084136292441092
260.6516290726817,0.6097192818892263,0.573402569424831,-9.622273,-0.0051489999999998004,0.09557999999999989,-0.030198999999999997,-0.0003665191429188,-0.0020071286397933,-3.09043705321384
261.65413533834584,0.6097192761296398,0.5734022458407878,-9.55206,-0.0036840000000002,0.05868700000000009,0.0824929999999999,-0.009843656981248,-0.0016580627893945,-3.0946608372701285
262.65664160401,0.6097192867761483,0.5734019215586127,-9.5372,0.002591999999999901,-0.079514,0.07656400000000009,0.0029146998508305,-0.0013788101090754,-3.089704154554342
263.65914786967414,0.6097192970735908,0.5734015962292401,-9.587153,0.0088730000000002,-0.09157599999999999,-0.056132999999999995,0.0047123889803846,-0.000279252680319,-3.081710406953868
264.6616541353383,0.6097192932338665,0.5734012738669273,-9.617331,0.0080019999999999,0.048046,-0.083077,0.0015009831567151,0.0005061454830783,-3.0834731545917973
265.6641604010025,0.6097192783985679,0.5734009577877998,-9.580603,0.10197599999999979,0.10094,-0.005663999999999898,0.0105941485596055,0.000959931088597,3.109216603979081
266.66666666666663,0.6097193051021055,0.5734006661432818,-9.521915,0.06856900000000041,0.3317619999999999,0.0816879999999998,0.060021872976085,-0.0048520153205442,2.8405409330863387
267.6691729323308,0.609719378405934,0.5734004184810609,-9.505716,0.06766199999999958,0.007426000000000099,0.03401799999999999,-0.0035604716740684,0.0005585053606382,2.5568375759081983
268.671679197995,0.6097195225701303,0.5734002151502031,-9.531956,0.011600000000000138,-0.10682500000000011,-0.013785999999999896,0.0117111592808819,-0.0006632251157578,2.3117932093018543
269.6741854636591,0.6097197396890892,0.5734000517873851,-9.565472,0.022844000000000197,-0.0681799999999998,-0.073549,0.022759093446006,-0.0016755160819144,2.0960531826358824
270.6766917293233,0.6097200110877878,0.5733999318832655,-9.566458,0.007565999999999851,-0.01673000000000019,0.009050000000000002,-0.0459021593274508,-0.0165108147238663,1.9065453150010456
271.6791979949875,0.6097203177421374,0.5733998524707845,-9.550941,-0.010762999999999967,-0.012028999999999818,0.0185560000000001,0.026145032194875,-0.0214675497995302,1.737614879247222
272.6817042606516,0.6097206666334548,0.573399818611397,-9.522923,-0.002049000000000023,-0.022668000000000105,-0.0020340000000001,0.0014311699866353,-0.0181339709282211,1.5798196441211223
273.6842105263158,0.6097210460680342,0.5733998264653787,-9.518025,0.009415000000000007,-0.07057199999999988,0.047778,0.0070336768855371,-0.0150098315671511,1.4316237896941613
274.68671679198,0.6097214403379123,0.5733998756836636,-9.560806,-0.0034270000000000134,-0.0839030000000005,0.007509000000000002,0.0194604211597367,-0.01228711793404,1.2938998758725813
275.6892230576441,0.6097218309425989,0.5733999690587785,-9.633663,-0.021677000000000002,-0.06905899999999951,-0.029507,0.0120602251312808,-0.0139800873084745,1.1707843329836087
276.69172932330827,0.6097222009524004,0.5734000990858078,-9.701832,-0.05242400000000008,-0.06462399999999999,-0.0411689999999999,-0.0004363323129985,-0.0180467044656214,1.0716670673095583
277.6942355889724,0.6097225479238556,0.5734002607032965,-9.740252,-0.039451999999999904,0.0317749999999999,-0.015379000000000101,0.0059864793343405,-0.0192160750644574,0.9954310855824458
278.69674185463657,0.6097228774420184,0.5734004490243229,-9.73452,-0.056613999999999984,0.03300100000000009,-0.0010319999999999982,-0.000296705972839,-0.0155508836352693,0.9366483440153992
279.69924812030075,0.6097231987571337,0.5734006535769112,-9.706664,-0.040737000000000204,-0.0020649999999999974,0.0411869999999999,-0.0036477381366681,-0.0105592419745657,0.8887565791538451
280.7017543859649,0.6097235137890636,0.5734008649362835,-9.704261,-0.0210799999999998,-0.022342000000000105,0.0379290000000001,-0.0010471975511965,-0.0063006385996995,0.8509177886107305
281.70426065162906,0.609723813985695,0.5734010801353804,-9.74237,-0.012254000000000001,-0.01533499999999989,-0.006790999999999998,-0.0013264502315156,-0.0048694686130641,0.8239350332814831
282.70676691729324,0.6097240944601058,0.5734013010940636,-9.795782,-0.0037649999999999975,0.01772299999999999,-0.037113999999999904,0.0066322511575784,-0.005497787143782,0.8072322148866049
283.70927318295736,0.6097243614954814,0.5734015285104651,-9.829033,-0.007150000000000201,0.041517000000000005,-0.0239540000000001,0.0112399203828434,-0.0066322511575784,0.7986801539117101
284.71177944862154,0.6097246262619289,0.5734017583703277,-9.832086,-0.005841999999999702,0.0274819999999997,0.0044919999999999995,0.0095120444233691,-0.0057246799465413,0.7951196298777641
285.7142857142857,0.6097248950426336,0.5734019939897768,-9.814459,-0.0007270000000003003,0.0017250000000002001,0.00807,0.0014660765716752,-0.0015533430342749,0.7938979168546608
286.71679197994985,0.6097251666158653,0.5734022318781538,-9.787566,-0.014750999999999799,-0.0041169999999999,0.013953000000000099,0.0017278759594743,0.0025830872929517,0.794281871836807
287.719298245614,0.6097254395853603,0.5734024697665308,-9.768775,-0.0211989999999999,0.0056889999999998,0.0169709999999999,0.0048520153205442,0.0043982297150257,0.7965508173176921
288.7218045112781,0.6097257137765858,0.5734027025934529,-9.764446,-0.009345000000000101,-0.0040059999999999,-0.0034180000000000998,0.0059166661642607,0.0044331363000655,0.798435738003261
289.72431077694233,0.609725983953554,0.5734029324533155,-9.77004,0.014194000000000002,-0.0132789999999998,-0.0038389999999999,0.0063529984772593,0.0023736477827123,0.7993083851759654
290.7268170426065,0.6097262527342587,0.5734031612659805,-9.78183,0.023719,-0.002181000000000202,-0.003143,0.0078888882190143,-0.0002268928027591,0.799936756066561
291.72932330827064,0.6097265175007064,0.5734033953146331,-9.790318,0.0037400000000000003,0.013395,-0.017155,0.00307177948351,-0.0006632251157578,0.8024151585109782
292.7318295739348,0.6097267834888843,0.5734036326794114,-9.779853,-0.01978300000000001,0.0090919999999998,-0.008008,-0.0004188790204786,0.0004712388980385,0.8058883288158617
293.734335839599,0.6097270517459903,0.5734038710913871,-9.754228,-0.013756999999999991,0.0075870000000002,0.0169410000000001,0.0077318085863348,0.0004712388980385,0.8099025686421562
294.7368421052631,0.6097273245409525,0.5734041046164412,-9.736957,0.002059000000000099,0.005571000000000001,0.0201629999999999,0.0078365283414545,0.0004014257279587,0.8131140093724107
295.7393483709273,0.609727601001106,0.5734043343017706,-9.737189,0.006140999999999901,-0.014905000000000102,-0.002114999999999999,0.0013788101090755,0.0016929693744345,0.8144579128964462
296.7418546365915,0.6097278758904631,0.5734045643361662,-9.74277,0.0035620000000001,-0.024452999999999798,-0.016242,0.0030194196059501,0.0028448866807508,0.8136899156656915
297.7443609022556,0.6097281460674313,0.573404793148831,-9.743676,0.0030469999999998996,0.004665999999999899,-0.002278,0.003368485456349,-0.0003141592653588,0.813079067880786
298.7468671679198,0.6097284139754715,0.5734050226596277,-9.743406,0.005215,0.0224339999999999,0.0040260000000001,0.0047822021504644,-0.0041538836197463,0.8138645009507682
299.749373433584,0.6097286846760386,0.573405255312017,-9.741655,-0.0016330000000003,0.006140000000000099,-0.0030680000000001,0.0030019663134302,-0.0033335788713091,0.8150862139738718
300.7518796992481,0.60972895921633,0.5734054876153404,-9.735178,-0.009609999999999501,-0.007184000000000099,-0.0002439999999999001,0.0015533430342749,-0.000890117918517,0.8159763144390965
301.7543859649123,0.6097292362000822,0.5734057181733346,-9.728546,-0.0033210000000001997,-0.0073519999999999,0.0067899999999998,0.0065798912800186,-0.0001047197551196,0.8161508124577108
302.7568922305764,0.6097295116130381,0.5734059475095983,-9.728216,0.004054,-0.0048999999999999,0.0064120000000001,0.0053756140961425,-0.0010122909661567,0.8156970792120696
303.7593984962406,0.6097297852806648,0.5734061761477304,-9.737511,0.011245999999999999,-0.0011599999999998998,-0.0020070000000001,0.0012915436464758,-0.0022863813201126,0.8140913937535276
304.7619047619048,0.6097300570284294,0.573406408101988,-9.745206,0.0054289999999999,0.0017369999999996997,-0.019463999999999898,0.0032463124087094,-0.0014486232791552,0.8125030917743351
305.7644110275689,0.6097303294743256,0.5734066414525089,-9.734454,-0.012725,0.008973,-0.0073370000000000015,0.0011344640137963,6.981317007981325e-05,0.8116129913091106
306.76691729323306,0.6097306031419524,0.573406874628497,-9.71294,-0.0117939999999998,0.0075640000000001,0.017375000000000102,0.0060737457969402,0.0021991148575128,0.8110370850158299
307.76942355889724,0.6097308794275729,0.5734071062336887,-9.701368,0.002626,-0.010081,0.0220389999999999,0.0057944931166211,0.0034906585039886,0.8100073058505683
308.77192982456137,0.6097311551895946,0.573407334173689,-9.709927,0.016678999999999798,-0.015402,-0.005038000000000001,0.0012566370614359,0.0031241393610699,0.8073893468791618
309.77443609022555,0.6097314271118922,0.5734075656043479,-9.722863,0.0100910000000001,-0.0017939999999998998,-0.024153,0.0018675022996339,0.0025481807079117,0.8043000791965468
310.77694235588973,0.6097316944963337,0.5734077991294018,-9.71521,-0.0040500000000001,0.0109699999999997,-0.019289,0.0058643062867009,0.0028623399732707,0.8025547150379676
311.77944862155385,0.6097319632770384,0.5734080333525873,-9.682912,-0.0171459999999998,0.0201130000000002,0.013849999999999998,0.0063879050622992,0.0039793506945471,0.8034623211555896
312.78195488721803,0.6097322369446652,0.573408267575773,-9.650465,-0.006781000000000001,0.0006269999999999002,0.029447,0.0024958208303518,0.005567600313862,0.8041604703096797
313.7844611528822,0.6097325104377589,0.5734085000536293,-9.640984,0.006308000000000001,-0.0199019999999997,0.008076,0.0016406094968746,0.0072954762733363,0.8025198259062201
314.78696741854634,0.6097327835817868,0.5734087311352223,-9.646063,0.0025729999999999998,-0.0186120000000003,-0.0211690000000001,0.0019024088846738,0.0072780229808164,0.8006000160889037
315.7894736842105,0.6097330493954319,0.5734089608205519,-9.645678,0.0040789999999998,0.0055160000000002984,-0.012994999999999899,0.003368485456349,0.0043458698374658,0.7984008488715135
316.79197994987464,0.6097333141618795,0.5734091932984083,-9.631539,0.008219999999999901,0.027841999999999603,-0.0026059999999999,0.0068242373752978,0.0014660765716751,0.7963064712224129
317.7944862155388,0.609733581546321,0.5734094262998634,-9.601107,-0.0124709999999996,-0.0145969999999997,-0.002765,0.0151145513222708,0.0050963614158234,0.7455697847735229
318.796992481203,0.6097338456146366,0.5734096704714258,-9.562817,0.1285749999999996,-0.051207,0.0233469999999998,0.0065100781099388,0.0081157810217737,0.665110036443414
319.7994987468672,0.6097341109046829,0.5734099090579344,-9.542797,-0.0811909999999998,-0.0381880000000001,0.0164270000000001,-0.0124965574442794,0.0085870199198121,0.6161710565773707
320.8020050125313,0.6097343519346528,0.5734101741734479,-9.540717,-0.014658000000000098,0.013306000000000096,-0.0179090000000001,-0.0037873644768276,0.0068940505453776,0.5899387928264808
321.8045112781955,0.6097345692281446,0.5734104433032186,-9.532579,-0.0180069999999999,0.0397769999999999,-0.021959999999999896,-0.0019024088846738,0.0054105206811825,0.5861339226972556
322.8070175438596,0.6097347776204572,0.5734107124329891,-9.508348,-0.0158889999999999,0.0397639999999999,0.007021000000000098,0.0005585053606381,0.0047647488579445,0.5981243346584568
323.8095238095238,0.6097349889798297,0.5734109794683647,-9.48051,-0.0024000000000002,0.0209530000000001,0.0132349999999999,0.0076445421237351,0.0030543261909901,0.6196616627214818
324.812030075188,0.6097352064478545,0.573411247027339,-9.458777,-0.0039519999999997,0.0085419999999999,0.0015749999999998998,0.003368485456349,0.0012566370614359,0.6441661377793597
325.8145363408521,0.6097354303735975,0.57341151319005,-9.445378,-0.0034310000000001995,-0.006408999999999901,0.0048800000000001,0.0051661745859032,0.000593411945678,0.664708628168748
326.8170426065163,0.6097356611061245,0.5734117756875695,-9.440138,0.0024759999999998984,-0.014901000000000102,-0.0063460000000001,0.0015533430342749,0.0013439035240356,0.6761405173160182
327.8195488721804,0.609735893583981,0.5734120355670951,-9.431823,-0.005060999999999699,-0.0025939999999999,-0.0126669999999999,0.0072780229808163,0.0014486232791552,0.6735924064212766
328.8220551378446,0.6097361274581008,0.5734122923050281,-9.414172,0.0052579999999997,-0.0046990000000001,0.0036110000000001002,0.0082030474843733,-0.0013439035240354,0.649000699807384
329.8245614035088,0.6097363608086217,0.5734125485193623,-9.401386,0.0364570000000001,-0.0247789999999997,0.0194619999999998,0.0080983277292536,-0.0051138147083433,0.5980021092509396
330.8270676691729,0.6097365890976879,0.5734128089224867,-9.40559,0.05151800000000001,-0.05419200000000031,0.0043670000000001,0.0100007366139275,-0.0077841684638946,0.5208411728334402
331.8295739348371,0.6097367999334615,0.5734130836373109,-9.418904,0.023794999999999997,-0.05374299999999979,-0.0210109999999999,0.0091106186954104,-0.008237954069413,0.4231899837310651
332.83208020050125,0.6097369845892964,0.5734133761544936,-9.415821,-0.022517000000000106,-0.0216370000000001,-0.0236990000000001,0.0046600291028248,-0.0074525559060156,0.3097086932196863
333.8345864661654,0.6097371374801388,0.5734136789691189,-9.393967,-0.0339079999999999,-0.002370000000000011,0.0234510000000001,0.0106465084371654,-0.0083252205320127,0.1846383815684801
334.8370927318296,0.6097372596531866,0.5734139877178634,-9.389673,0.003547999999999704,-0.035878999999999994,0.0389309999999999,0.0108559479474047,-0.0115191730631625,0.0497244303893184
335.83959899749374,0.6097373383675357,0.5734143034479251,-9.418168,0.012823000000000494,-0.076347,-0.018104000000000002,0.0081506876068135,-0.0120253185462408,-0.0943350286170006
