Time [s],Longitude [rad],Latitude [rad],Altitude [m],V North [m/s],V East [m/s],V Down [m/s],Roll [rad],Pitch [rad],Yaw [rad]
1.0025062656641603,0.609022397575245,0.5733255147091518,-14.960248,0.016743000000000008,-0.01031800000000005,0.022567999999999998,0.0259530459771556,-0.0045902159327451,-1.7674255042970133
2.0050125313283207,0.6090221158791038,0.5733254998738532,-14.970488,0.018130999999999994,-0.004940999999999862,0.004383,0.0226543736908864,-0.0034033920413889,-1.7576687472592216
3.007518796992481,0.6090218338338966,0.5733254887037459,-14.97616,0.011629,0.009651999999999994,-0.009443,0.0247313155007596,-0.0014311699866353,-1.7493783285924942
4.010025062656641,0.6090215526613542,0.573325479278968,-14.976945,0.014022,0.0067150000000000265,0.002347,0.0279601746169491,-0.0019896753472734,-1.7404247720764705
5.012531328320802,0.6090212735832068,0.5733254721231181,-14.987248,0.017391000000000004,-0.007730000000000015,0.011840999999999999,0.029845130209103,-0.0030543261909901,-1.7314712330137392
6.015037593984962,0.6090209915379996,0.5733254675852621,-15.00188,0.015769,-0.011659000000000086,-0.005763999999999998,0.0246964089157197,-0.0013089969389956,-1.7240010667355712
7.017543859649122,0.6090207079219961,0.5733254654908669,-14.999354,0.009611,0.003899000000000097,-0.023947000000000003,0.0218166156499291,0.0015882496193149,-1.7174214547082332
8.020050125313283,0.609020425702256,0.5733254649672681,-14.977769,0.005437999999999999,0.015865000000000018,-0.00574,0.0282394272972682,-3.49065850397956e-05,-1.7108066917497586
9.022556390977442,0.609020145925977,0.5733254647927352,-14.968408,0.010158,-0.002419000000000171,0.025844,0.0286932129027867,-0.0044854961776252,-1.7030398544053371
10.025062656641603,0.609019865800632,0.5733254668871304,-14.982142,0.020186,-0.016559999999999908,0.009993,0.0246615023306798,-0.0037524578917877,-1.6946801810738903
11.027568922305765,0.6090195821846286,0.5733254721231181,-14.990502,0.01742,0.0017160000000000508,-0.016805,0.0217817090648892,-8.726646259971105e-05,-1.6880297435855047
12.030075187969924,0.6090192997903557,0.5733254796280339,-14.985023,0.006194999999999999,0.015528999999999904,-0.004049,0.0217293491873294,-0.0007853981633973,-1.6827066115399707
13.032581453634084,0.6090190187923461,0.5733254885292132,-14.988314,0.0039900000000000005,-0.0002249999999999197,0.017525,0.0235095850243636,-0.0032114058236694,-1.6770692329626142
14.035087719298245,0.6090187386670012,0.573325498128524,-15.003877,0.01423,-0.012078999999999951,0.002768999999999999,0.0218166156499291,-0.0017627825445141,-1.669599607736513
15.037593984962406,0.609018456447261,0.5733255098222299,-15.009744,0.015947000000000003,-0.00050400000000006,-0.020819999999999998,0.022130774915288,0.0020420352248333,-1.6628974910489778
16.040100250626566,0.6090181745765868,0.5733255239593968,-14.992584,0.009204999999999991,0.01689099999999999,-0.018147,0.0247487687932795,0.0023212879051526,-1.6573996689986104
17.042606516290725,0.6090178974183016,0.5733255387946955,-14.974202,0.0021760000000000113,0.008912000000000031,0.015532,0.0260228591472354,-0.0023212879051524,-1.652093588819867
18.045112781954884,0.6090176202600164,0.5733255545026589,-14.98043,0.006891999999999995,-0.011479999999999935,0.026615,0.0243822496503607,-0.0051312680008632,-1.6457930723932157
19.047619047619047,0.6090173406582703,0.5733255721304843,-15.005327,0.019125000000000003,-0.015230000000000077,0.006925999999999998,0.0226718269834063,-0.002426007660272,-1.638480038107604
20.050125313283207,0.609017056518668,0.5733255925508365,-15.023818,0.014861999999999986,-0.0007770000000000277,-0.017891999999999998,0.0192858882345373,0.0027052603405912,-1.6325635464762682
21.052631578947366,0.6090167732517304,0.5733256148910508,-15.017469,0.004468,0.016078000000000037,-0.025062,0.0212930168743308,0.004642575810305,-1.6273277856130877
22.05513784461153,0.6090164938245173,0.5733256389765946,-14.996727,0.003173000000000009,0.014154999999999918,-0.0006659999999999999,0.0258657795145559,0.0012566370614359,-1.6217601678459337
23.05764411027569,0.6090162182370283,0.5733256621894737,-14.988646,0.004809000000000008,-0.004645999999999928,0.01944,0.0249407550109989,-0.0028099800957108,-1.6151102539563251
24.06015037593985,0.6090159417768748,0.5733256855768856,-14.995121,0.010575000000000001,-0.009964000000000084,0.006272,0.0221656815003279,-0.0021816615649927,-1.6075010722032357
25.062656641604008,0.6090156621751287,0.5733257112332256,-14.998347,0.01529999999999998,0.0026159999999999517,-0.0076690000000000005,0.0227416401534861,0.0003316125578789,-1.5992452808688669
26.065162907268167,0.6090153825733825,0.5733257402056913,-14.999577,0.01622700000000002,0.0025760000000001337,0.005712,0.0241553568476015,1.74532925198978e-05,-1.5910070650000654
27.06766917293233,0.6090151031461692,0.5733257717961507,-15.007377,0.015179999999999999,-0.00859399999999999,0.0010740000000000003,0.0204901654184134,-0.000279252680319,-1.5834671204584023
28.07017543859649,0.6090148228462914,0.5733258054810052,-15.001662,0.010940000000000005,0.00715599999999994,-0.027113,0.0198967534727353,0.0020943951023932,-1.5762595389661966
29.07268170426065,0.6090145455134732,0.5733258407366562,-14.972239,0.007550999999999974,0.02313199999999993,-0.010311999999999998,0.026755897433073,-6.981317007981325e-05,-1.5691036192198498
30.07518796992481,0.609014270973182,0.5733258772140375,-14.954742,0.004528000000000004,0.002395000000000147,0.029349,0.0294262511886244,-0.0060213859193802,-1.5624537053302414
31.07769423558897,0.609013997480088,0.5733259136914188,-14.968463,0.01023300000000002,-0.015265000000000084,0.024034,0.0221831347928479,-0.0070162235930171,-1.554948388120937
32.08020050125313,0.6090137194491383,0.5733259527867941,-14.994272,0.022020999999999985,-0.010462999999999889,-6.400000000000156e-05,0.019390607989657,-0.0031241393610697,-1.5463964493190911
33.08270676691729,0.6090134391492604,0.5733259955473607,-15.007955,0.020619,0.0004899999999998794,-0.019407,0.02153736296961,0.0007330382858377,-1.5387350647680738
34.08521303258145,0.6090131595475141,0.5733260407513884,-14.993689,0.009275000000000033,0.016523000000000065,-0.031565,0.0191288086018578,0.0024783675378319,-1.5323818219447196
35.08771929824561,0.6090128855308217,0.5733260880498112,-14.958989,-0.0006080000000000529,0.024221999999999966,-0.0039040000000000012,0.0268431638956727,-0.0019896753472734,-1.5267966461652895
36.09022556390977,0.6090126153538534,0.5733261346501021,-14.943324,-2.9000000000001247e-05,-0.001438999999999968,0.036297,0.0307876080051799,-0.0090058989402905,-1.520216510539176
37.092731829573935,0.6090123439551548,0.5733261807267944,-14.964643,0.013496000000000008,-0.024275000000000047,0.026869999999999998,0.0223925743030872,-0.0091280719879303,-1.5124326213279613
38.095238095238095,0.6090120666223366,0.5733262297705464,-14.989747,0.023655000000000037,-0.009689999999999976,-0.017485999999999998,0.017540558982543,-0.0028448866807506,-1.503287322940314
39.097744360902254,0.6090117877187222,0.5733262830030886,-14.986523,0.018154999999999977,0.019217999999999957,-0.029306,0.020001473227855,0.0007155849933178,-1.4952062216107775
40.100250626566414,0.609011512480299,0.5733263392026905,-14.966877,0.005632999999999999,0.02040200000000003,-0.0006929999999999992,0.0274191225488309,-0.0025481807079117,-1.4886260859846634
41.10275689223057,0.6090112430014626,0.5733263961004241,-14.958023,0.005309999999999981,5.900000000003125e-05,0.016923999999999998,0.0273318560862311,-0.0066846110351381,-1.481592688351807
42.10526315789473,0.6090109742207578,0.5733264531726906,-14.962423,0.010443000000000036,-0.008239000000000107,0.006217,0.0231779724664846,-0.0076619954162551,-1.474018116477784
43.10776942355889,0.6090107026475262,0.5733265123393524,-14.965701,0.016220999999999985,-0.001930999999999905,-0.006698,0.0216420827247296,-0.0064053583548191,-1.4659194396826791
44.11027568922306,0.6090104302016299,0.5733265730768102,-14.960368,0.015216000000000007,0.006564999999999932,-0.008033,0.0232303323440445,-0.0064402649398589,-1.4584498144565798
45.11278195488722,0.6090101591519971,0.5733266367813279,-14.951184,0.011371999999999993,0.010992000000000113,0.00032200000000000024,0.0242426233102012,-0.0080634211442136,-1.4516427685744135
46.11528822055138,0.6090098901967594,0.5733267024057078,-14.949724,0.010491000000000028,0.00645999999999991,0.016338,0.0259006860995958,-0.0111526539202437,-1.445254915871992
47.11779448621554,0.6090096212415216,0.5733267694263511,-14.967608,0.00948199999999999,-0.009304999999999897,0.016260999999999998,0.0219911485751285,-0.0117809724509616,-1.4392856978439534
48.1203007518797,0.6090093514136192,0.5733268378432578,-14.985818,0.003589000000000009,-0.006641000000000119,-0.017847,0.018762289458939,-0.0075223690760954,-1.4328802696759646
49.122807017543856,0.6090090814111839,0.5733269071328291,-14.977863,0.009907999999999972,0.016137999999999986,-0.025454,0.0216071761396898,-0.004886921905584,-1.42506175313239
50.125313283208015,0.6090088143758083,0.5733269778186638,-14.960362,0.019427000000000028,0.01619000000000015,0.007455,0.0281172542496286,-0.008237954069413,-1.4176086387210136
51.127819548872175,0.6090085497838938,0.5733270521696899,-14.962897,0.014760999999999969,-0.0011600000000000499,0.025338,0.0251676478137582,-0.0114319066005628,-1.4116745890774036
52.130325814536334,0.6090082846683805,0.573327128964177,-14.9838,0.0012270000000000336,-0.005498000000000003,0.008608,0.0185877565337396,-0.0100356431989674,-1.406420694243296
53.1328320802005,0.6090080183311367,0.5733272055841312,-15.002748,-0.0020540000000000003,0.0006789999999998741,-0.010095,0.021223203704251,-0.0066322511575784,-1.3999114015315195
54.13533834586466,0.6090077518193597,0.5733272809823549,-15.008589,0.01138399999999995,0.005508000000000068,-0.011748999999999999,0.0238586508747624,-0.0044854961776252,-1.3910100478134233
55.13784461152882,0.6090074872274452,0.5733273591731054,-15.005397,0.02171099999999998,0.0050920000000000964,-0.004957,0.027087509990952,-0.0043458698374658,-1.3819867304871978
56.14035087719298,0.6090072233336623,0.5733274401563826,-15.000713,0.016515000000000057,0.0018039999999999168,0.0005739999999999999,0.0220958683302482,-0.0048171087355042,-1.3740973710292856
57.14285714285714,0.6090069592653464,0.5733275249793843,-14.995294,0.007886999999999977,0.005943000000000032,-0.002226,0.0196524073774561,-0.0049916416607036,-1.367360644462682
58.1453634085213,0.6090066971168928,0.573327609627853,-14.990149,0.00143099999999996,0.010354999999999892,0.003803,0.0219736952826086,-0.0059515727493006,-1.3610249945581885
59.14786967418546,0.609006437586433,0.5733276942763218,-14.993022,0.0028450000000000975,0.004841000000000095,0.010638,0.0229161730786855,-0.0072780229808162,-1.3534855736153004
60.15037593984962,0.6090061759615782,0.573327779971988,-15.008114,0.014847999999999972,-0.004223000000000088,0.009424000000000002,0.0227416401534861,-0.0068416906678177,-1.3444271053579393
61.15288220551378,0.6090059141621903,0.5733278668893848,-15.024658,0.020842999999999945,-0.0035199999999999676,-0.006782000000000002,0.021851522234969,-0.0034732052114687,-1.3354559733763482
62.15538847117794,0.6090056525373355,0.5733279586937035,-15.027269,0.015948000000000073,0.005811000000000011,-0.017244,0.020298179200694,-0.0002094395102392,-1.3270435911014913
63.1578947368421,0.6090053933559416,0.573328053116016,-15.013707,0.005430999999999964,0.013954000000000022,-0.011508000000000001,0.0219213354050487,0.0003316125578789,-1.3195739484220987
64.16040100250626,0.6090051371416074,0.5733281480619272,-14.995337,0.003947000000000034,0.015133000000000063,0.0028100000000000017,0.0230383461263251,-0.0023561944901921,-1.3118246865432437
65.16290726817043,0.6090048830216682,0.5733282435314373,-14.988559,0.011763999999999997,0.00437299999999996,0.017222,0.0264068315826742,-0.0060213859193802,-1.3036738069502116
66.16541353383458,0.6090046290762622,0.5733283403972108,-14.99946,0.01488899999999993,-0.0064670000000000005,0.014227,0.0226892802759262,-0.0068067840827779,-1.2957674130788002
67.16791979949875,0.6090043733855267,0.5733284395319124,-15.016152,0.011680000000000024,-0.005162000000000111,-0.003462,0.0168075206967053,-0.0041189770347065,-1.2876511782714215
68.1704260651629,0.6090041169966596,0.5733285416336736,-15.021748,0.011566999999999994,0.005767000000000078,-0.017137,0.0208741378538521,-0.0008726646259971,-1.279064612137215
69.17293233082707,0.6090038616549901,0.5733286446080995,-15.008056,0.011584000000000039,0.017894000000000077,-0.015824,0.022444934180647,-5.23598775596934e-05,-1.2706868397414246
70.17543859649122,0.6090036108511765,0.5733287502005191,-14.989245,0.010093999999999936,0.016898999999999997,0.007935000000000001,0.0270351501133921,-0.0034906585039886,-1.2635309199950773
71.17794486215539,0.6090033628398899,0.5733288570146694,-14.992225,0.005622000000000016,-0.0027520000000000877,0.028555999999999998,0.0234921317318436,-0.0067544242052179,-1.25728314741842
72.18045112781954,0.6090031141304715,0.5733289641778855,-15.014181,0.0034650000000000514,-0.011908999999999947,0.003330000000000003,0.0153414441250301,-0.0046251225177849,-1.2503541379281258
73.1829573934837,0.6090028628030592,0.5733290718647004,-15.022315,0.011190999999999951,0.005303000000000058,-0.027608,0.0178547182479019,-0.000279252680319,-1.2412956522174716
74.18546365914787,0.6090026128719103,0.5733291828676408,-15.005548,0.02213300000000007,0.022861999999999938,-0.013357,0.0272096830385916,-0.0005061454830783,-1.2316092144952435
75.18796992481202,0.6090023664314198,0.5733292963140422,-14.992408,0.014619999999999966,0.011938000000000004,0.020253,0.0275936554740303,-0.0043807764225056,-1.2246450366205208
76.19047619047619,0.6090021233070552,0.5733294113312398,-15.004228,0.00023899999999998922,-0.005803000000000003,0.021734,0.0192509816494974,-0.0048694686130641,-1.2190950117722263
77.19298245614034,0.609001878437361,0.5733295268720363,-15.027149,0.0006730000000000347,-0.0070509999999999184,-0.0014340000000000012,0.0188495559215387,-0.0013962634015953,-1.2118171284177504
78.19548872180451,0.609001631298739,0.5733296434600303,-15.036668,0.011249999999999982,0.005220000000000002,-0.022619999999999998,0.020612338466053,0.0028972465583105,-1.2025317499043375
79.19799498746866,0.6090013857309132,0.573329760746156,-15.021081,0.015550999999999982,0.01863899999999985,-0.022111000000000002,0.0241902634326414,0.0038397243543875,-1.1934913807113203
80.20050125313283,0.6090011450500092,0.5733298806502757,-14.995352,0.014947000000000044,0.02044200000000007,0.003661000000000001,0.0260403124397553,0.0004712388980385,-1.185218013911384
81.203007518797,0.6090009087324286,0.573330003695988,-14.988338,0.01021799999999995,0.0023809999999999665,0.028266,0.0257436064669163,-0.0037350045992678,-1.1790400021449297
82.20551378446115,0.6090006715421832,0.5733301283124965,-15.007852,0.002639000000000058,-0.011986000000000052,0.018953,0.0186226631187794,-0.0037524578917877,-1.1727911649174292
83.20802005012531,0.6090004315594111,0.5733302527544722,-15.03336,0.002034999999999898,-0.007363999999999926,-0.006489000000000002,0.0148178453494318,0.0006981317007976,-1.1647281801055294
84.21052631578947,0.6090001886095792,0.5733303766728491,-15.040309,0.008032000000000039,0.007606999999999919,-0.026633999999999998,0.0201236462754946,0.0051836278784231,-1.1550763522623673
85.21303258145363,0.6089999482777413,0.5733305016384236,-15.018667,0.014722000000000013,0.024602000000000013,-0.024303,0.0253770873239975,0.0057246799465413,-1.144848740298973
86.21553884711778,0.6089997145781544,0.5733306299201235,-14.985775,0.01569699999999996,0.023222000000000076,0.004677000000000001,0.0290073721681457,0.0007504915783576,-1.1360874841599335
87.21804511278195,0.6089994854164237,0.5733307615179492,-14.974047,0.01494300000000004,0.003465999999999969,0.031676,0.0265813645078736,-0.0050265482457436,-1.1287568569554625
88.22055137844612,0.6089992567782916,0.5733308959083017,-14.992826,0.01020500000000002,-0.013708999999999971,0.021495,0.0183608637309803,-0.0050614548307834,-1.1222464995928434
89.22305764411027,0.6089990237768365,0.5733310311713187,-15.016016,-0.00176300000000007,-0.01091299999999995,-0.012613999999999998,0.0108210413623648,-0.0002443460952792,-1.1151433062431997
90.22556390977444,0.6089987888555191,0.5733311652126052,-15.013802,-0.0028729999999999034,0.012162000000000006,-0.031077,0.0184655834861,0.0028448866807508,-1.1056134594614602
91.2280701754386,0.6089985563776628,0.5733312989048259,-14.987372,0.012187999999999977,0.027502999999999833,-0.012093,0.0281870674197084,0.0007679448708775,-1.0944436315013768
92.23057644110276,0.6089983296593929,0.5733314348659746,-14.965195,0.024382999999999933,0.017353000000000174,0.018164,0.0307003415425802,-0.0047996554429843,-1.085315367527229
93.23308270676692,0.6089981067808474,0.5733315750159136,-14.968769,0.017257000000000078,-0.0011620000000001074,0.026278999999999997,0.0226020138133265,-0.0075398223686153,-1.0787533484187508
94.23558897243107,0.6089978832041704,0.5733317174347805,-14.990874,0.0044279999999999875,-0.008359999999999923,0.008201,0.0133517687777566,-0.0054279739737022,-1.0721380618615015
95.23809523809524,0.608997657358565,0.5733318610753779,-15.009263,-0.0025770000000000515,0.0011660000000000004,-0.013184,0.0164235482612666,-0.0010122909661567,-1.0642146161232982
96.2406015037594,0.6089974320365587,0.573332003494245,-15.009269,0.002307000000000059,0.01419999999999999,-0.018555,0.0231779724664846,0.0007504915783576,-1.05449355106871
97.24310776942356,0.6089972093325461,0.5733321459131119,-14.995311,0.013054999999999928,0.01607399999999992,-0.008480999999999999,0.0276460153515901,-0.0004886921905582,-1.0442829909721072
98.24561403508773,0.6089969916899883,0.5733322909499727,-14.978266,0.02024999999999999,0.014264000000000054,0.0019199999999999998,0.0268082573106329,-0.0030892327760299,-1.0345965357965865
99.24812030075188,0.6089967761418257,0.5733324400010908,-14.972033,0.01794400000000007,0.008359000000000005,0.018283,0.0245567825755602,-0.0054279739737022,-1.027231298713048
100.25062656641605,0.608996560942729,0.5733325918447357,-14.989002,0.005518000000000023,-0.004423000000000066,0.024062,0.0165282680163862,-0.005532693728822,-1.0212796736038696
101.2531328320802,0.6089963457436322,0.5733327447355782,-15.019783,-0.00390299999999999,-0.006475999999999926,-0.000338999999999999,0.0112050137978035,-0.0016929693744345,-1.0141583811898829
102.25563909774436,0.6089961287992062,0.5733328967537561,-15.033672,-0.000152000000000041,0.00934999999999997,-0.029972,0.0203505390782538,0.0028623399732707,-1.0048032244129754
103.25814536340852,0.6089959134255765,0.5733330487719339,-15.014942,0.01414700000000002,0.02445900000000001,-0.027540000000000002,0.0290771853382255,0.0031764992386298,-0.9946459317651436
104.26065162907268,0.6089957031134016,0.5733332032335727,-14.985749,0.018052999999999986,0.018119999999999914,0.007366000000000001,0.0304385421547811,-0.0013089969389956,-0.98640769844305
105.26315789473684,0.6089954966409511,0.5733333604877383,-14.977015,0.013073999999999919,0.0013840000000000519,0.029131999999999998,0.0232826922216043,-0.005497787143782,-0.980456073333872
106.265664160401,0.6089952899939677,0.573333519661766,-14.993938,0.00654100000000013,-0.005768999999999913,0.017140999999999997,0.0168424272817452,-0.005166174585903,-0.9742253351707152
107.26817042606515,0.6089950826488525,0.5733336802320573,-15.016809,-0.0006300000000001305,-0.0013190000000000701,-0.005082,0.0151669111998307,-0.0019373154697135,-0.9673661039439144
108.27067669172932,0.6089948735584082,0.5733338399296839,-15.025616,-8.60000000000305e-05,0.007894000000000068,-0.019562999999999997,0.0202283660306142,0.0012217304763961,-0.9589537042157652
109.27318295739347,0.6089946660387601,0.5733339992782446,-15.015772,0.008993000000000029,0.014869999999999939,-0.013961,0.0249756615960388,0.0019024088846739,-0.949389230101666
110.27568922305764,0.6089944613116388,0.5733341605466675,-14.999328,0.016615999999999964,0.017560999999999938,0.0010369999999999997,0.0264766447527539,0.0004188790204786,-0.9400340733247576
111.2781954887218,0.6089942605987749,0.5733343244330842,-14.991514,0.013116000000000128,0.011892000000000014,0.01412,0.0245916891606001,-0.0022689280275924,-0.9324770943695952
112.28070175438596,0.6089940612821743,0.5733344904138962,-14.999507,0.005058000000000007,0.0010820000000000274,0.014046999999999999,0.0202632726156541,-0.0031764992386296,-0.925897482342258
113.28320802005013,0.6089938621401065,0.5733346570928396,-15.015801,0.00029400000000001647,-0.00390299999999999,0.001379,0.015690509975429,-0.0011519173063161,-0.918566872591078
114.28571428571428,0.6089936624744402,0.5733348223755198,-15.025059,0.0026409999999998934,0.004417000000000115,-0.01328,0.0188146493364988,0.0020071286397935,-0.909177088481812
115.28822055137844,0.6089934640305043,0.5733349890544633,-15.02156,0.011751000000000067,0.01390899999999995,-0.00986,0.0238062909972026,0.0032463124087094,-0.8989665458385014
116.2907268170426,0.6089932673318975,0.5733351581768679,-15.013735,0.017914999999999903,0.010858999999999952,0.0008799999999999997,0.0267384441405531,0.0024783675378319,-0.8892278878650537
117.29323308270676,0.6089930727276859,0.5733353302663321,-15.008805,0.013314000000000048,0.005967000000000056,0.002929,0.0269653369433123,0.0014311699866353,-0.8803265341469574
118.29573934837092,0.6089928791706718,0.5733355049737903,-15.004763,0.008846000000000132,0.0045239999999999725,-5.600000000000006e-05,0.0246615023306798,0.0008203047484374,-0.8718619490741722
119.29824561403508,0.6089926863117896,0.5733356821247094,-15.002924,0.013641999999999932,0.0024480000000000057,0.005053,0.0278380015693095,0.0001570796326795,-0.8630303736195714
120.30075187969923,0.6089924941510388,0.5733358611954906,-15.008067,0.014953999999999912,-0.003842000000000123,0.008206,0.0265115513377938,-0.0002268928027591,-0.8541817637514699
121.3032581453634,0.6089922995468273,0.5733360413134694,-15.018292,0.010687000000000113,-0.008065999999999907,0.0003630000000000005,0.0210661240715715,0.0012915436464757,-0.8449315361691918
122.30576441102755,0.608992104069951,0.5733362231767776,-15.02147,0.011554999999999982,-0.0005049999999999777,-0.014447,0.0222878545479675,0.0034208453339088,-0.8339880774130928
123.30827067669172,0.6089919098148053,0.5733364074835465,-15.007544,0.02109899999999998,0.01963399999999993,-0.015441999999999999,0.0300894763043822,0.0039618974020272,-0.8215441765523457
124.31077694235589,0.6089917202720485,0.573336594931908,-14.987328,0.025177000000000005,0.026118000000000086,0.006417999999999998,0.032602750427254,0.0010297442586766,-0.8106880715253084
125.31328320802004,0.6089915347435491,0.5733367860454612,-14.986347,0.011293999999999915,0.0027969999999999384,0.024416,0.0272096830385916,-0.0019024088846737,-0.8036717083059515
126.3157894736842,0.6089913495641155,0.5733369792534094,-15.00583,-0.0002789999999999182,-0.017998999999999876,0.010118,0.0214326432144903,-0.0005061454830783,-0.7960444100352259
127.31829573934836,0.6089911617666879,0.5733371728104235,-15.021067,0.00994600000000001,-0.00928400000000007,-0.014280000000000001,0.0231779724664846,0.0028972465583105,-0.7852064215258239
128.32080200501252,0.6089909701295361,0.5733373677637009,-15.016652,0.027233000000000063,0.011936999999999864,-0.020991,0.0317649923862968,0.0049043751981041,-0.7722906185419226
129.32330827067668,0.6089907800631805,0.5733375658585711,-14.995864,0.02571599999999985,0.020514000000000143,-0.010838,0.0312239403181785,0.003996803987067,-0.7607021384541643
130.32581453634086,0.6089905966290761,0.573337768840363,-14.971777,0.013958000000000137,0.018342999999999998,0.004137000000000002,0.028291787174828,0.000593411945678,-0.7511376643400651
131.328320802005,0.608990417558295,0.5733379751382807,-14.961745,0.008639999999999981,0.008108000000000004,0.023042,0.0308574211752597,-0.0041015237421866,-0.7430736148773199
132.33082706766916,0.6089902384875137,0.57333818213433,-14.977688,0.00950899999999999,-0.010948000000000069,0.023937999999999997,0.0266686309704733,-0.0055152404363019,-0.7351847964714768
133.33333333333331,0.6089900564496726,0.5733383900030439,-15.004853,0.011851000000000056,-0.017567999999999917,-0.005814999999999997,0.0220784150377282,-0.0017278759594743,-0.7256032704905853
134.3358395989975,0.6089898705721073,0.573338599617087,-15.009158,0.015666999999999875,0.006616999999999984,-0.03345,0.0267384441405531,0.0025830872929517,-0.7132291653466256
135.33834586466165,0.6089896876616018,0.5733388127217887,-14.983886,0.021467000000000125,0.030768000000000018,-0.018089,0.0337197611485304,0.0016755160819146,-0.7005056452864171
136.3408521303258,0.6089895106852156,0.5733390286190172,-14.957371,0.0225559999999998,0.024700999999999973,0.014182,0.0353603706454051,-0.003996803987067,-0.6905922973081363
137.34335839598998,0.6089893387702842,0.5733392490541017,-14.955158,0.01542700000000008,0.0009540000000000104,0.027084,0.0278205482767896,-0.0078714349264943,-0.6832616701036651
138.34586466165413,0.6089891652845566,0.5733394712345153,-14.972089,0.005776000000000003,-0.014836000000000071,0.00706,0.0212930168743308,-0.0069289571304174,-0.6755299836903784
139.34837092731829,0.6089889883081704,0.573339694113061,-14.985026,0.007870999999999961,-0.004436999999999913,-0.012966000000000002,0.0240157305074419,-0.0041189770347065,-0.6642898538680246
140.35087719298244,0.6089888116808501,0.5733399176897381,-14.98081,0.018685000000000063,0.01658599999999999,-0.015306,0.032934362985133,-0.0035779249665883,-0.6512866971550616
141.35338345864662,0.6089886380205896,0.5733401447570737,-14.968219,0.02668399999999993,0.023482000000000003,0.0010619999999999987,0.0366693675844008,-0.0059515727493006,-0.6393488196043448
142.35588972431077,0.6089884692472509,0.5733403765367984,-14.964379,0.023483000000000143,0.010670999999999986,0.012296000000000001,0.031677725923697,-0.0083077672394928,-0.6301161674876358
143.35839598997492,0.6089883039645707,0.5733406112835828,-14.970553,0.011796999999999835,0.0009919999999999929,0.003409,0.0232128790515245,-0.0085870199198121,-0.6212153548216063
144.36090225563908,0.6089881381582917,0.5733408481247624,-14.97267,0.0073430000000000994,0.009429999999999938,-0.008485,0.0277856416917497,-0.0078016217564145,-0.6111272993852028
145.36340852130326,0.608987974271875,0.5733410858386064,-14.968985,0.01068200000000008,0.01389499999999999,0.000183,0.0348891317473666,-0.0091106186954104,-0.6015100814211084
146.3659147869674,0.60898781108359,0.5733413245996481,-14.970226,0.015641000000000016,0.003924000000000039,0.007915,0.0328820031075731,-0.0109257611174844,-0.592643896087439
147.36842105263156,0.608987647546239,0.5733415670258812,-14.978267,0.020445999999999964,-0.00019400000000002748,0.0030470000000000002,0.0312763001957383,-0.0106290551446455,-0.5834288194362963
148.37092731829574,0.6089874852306186,0.5733418134663716,-14.985414,0.023669999999999858,0.007881000000000027,-0.0040360000000000005,0.0299498499642226,-0.0089011791851709,-0.5732188003917627
149.3734335839599,0.6089873257075249,0.5733420630484546,-14.986984,0.018485000000000085,0.015927000000000024,-0.004118,0.0302116493520218,-0.0077318085863349,-0.5621357851086739
150.37593984962405,0.6089871688024252,0.5733423155975974,-14.986049,0.008227999999999902,0.014983999999999997,-0.000758,0.028623399732707,-0.0074700091985355,-0.5515763511478905
151.3784461152882,0.608987015387984,0.5733425677976742,-14.984792,0.0031000000000001027,0.0064429999999999765,-0.001215,0.0306654349575403,-0.0081506876068133,-0.5417327639798127
152.38095238095238,0.6089868630207402,0.5733428212194817,-14.982648,0.013809999999999878,0.0019599999999999618,-0.0017319999999999998,0.0343131730942085,-0.0095644043009288,-0.531784265070397
153.38345864661653,0.6089867106534966,0.5733430776083488,-14.979049,0.02594400000000019,0.011579000000000006,-0.0010209999999999998,0.0365297412442413,-0.0099134701513277,-0.5204573051177566
154.38596491228068,0.6089865614278455,0.5733433385350719,-14.977543,0.02610800000000002,0.0193040000000001,0.0067859999999999995,0.0371929663599991,-0.0104894288044858,-0.5091825479630441
155.3884711779449,0.608986415867386,0.5733436041741842,-14.986029,0.016588999999999965,0.010962999999999945,0.009697,0.0344004395568082,-0.011030480872604,-0.4994779937231792
156.39097744360902,0.6089862713541239,0.5733438713840927,-14.997758,0.008261999999999992,0.0007639999999999869,-0.005903,0.0309446876378594,-0.009808750396208,-0.4904200490645938
157.39348370927317,0.6089861280625923,0.5733441394666657,-14.993622,0.006124999999999936,0.00932299999999997,-0.019945,0.0320442450666159,-0.0091629785729701,-0.4795117412396294
158.39598997493732,0.6089859859927911,0.5733444087709693,-14.977961,0.012677999999999967,0.01811800000000008,0.0014440000000000008,0.0406487182789479,-0.0115715329407224,-0.4676958272970427
159.3984962406015,0.6089858460173851,0.5733446796460692,-14.975309,0.020567000000000002,0.008579999999999921,0.020413,0.0398633201155504,-0.0151145513222707,-0.4569798023957709
160.40100250626566,0.6089857081363742,0.5733449548844923,-14.989271,0.026078000000000046,0.006776000000000004,0.007928000000000001,0.0302116493520218,-0.0144164196214731,-0.4450413837929859
161.4035087719298,0.6089855735714889,0.5733452344862384,-14.999561,0.02268300000000001,0.02191399999999999,-0.011478,0.0349589449174464,-0.0113271868454432,-0.4324398447941997
162.406015037594,0.6089854414500645,0.5733455161823796,-15.000251,0.010532999999999904,0.02513500000000002,-0.005017,0.042167154728183,-0.0103672557568461,-0.4208508236543722
163.40852130325814,0.6089853136919633,0.5733457997983832,-15.00303,0.005023,0.011058000000000012,0.006979,0.0398633201155504,-0.011362093430483,-0.4099430568814759
164.4110275689223,0.6089851875046584,0.5733460830653208,-15.013268,0.012488000000000055,0.0030010000000000314,0.005736,0.0369311669722,-0.0117111592808818,-0.3986858751923299
165.41353383458645,0.6089850618409522,0.573346369299318,-15.023986,0.023133999999999988,0.00864100000000001,-0.005129,0.0354476371080048,-0.0095818575934487,-0.3862760780651666
166.41604010025063,0.6089849380971082,0.5733466598966385,-15.026208,0.022561000000000053,0.01712199999999997,-0.010831,0.038467056713955,-0.0079412480965741,-0.3729069956212305
167.41854636591478,0.6089848181929886,0.5733469539846175,-15.019008,0.014812000000000047,0.02332500000000004,-0.007358999999999999,0.0399680398706701,-0.007993607974134,-0.3599043799603356
168.42105263157893,0.6089847036993897,0.5733472494688598,-15.010243,0.01113199999999992,0.022758999999999974,0.004761,0.0403869188911487,-0.009529497715889,-0.3469891180285024
169.4235588972431,0.6089845923473834,0.5733475472220302,-15.01072,0.015066999999999942,0.017101000000000033,0.012566,0.0427431133813411,-0.011362093430483,-0.3348589575540954
170.42606516290726,0.6089844841369697,0.5733478474186616,-15.021752,0.017020000000000035,0.010791999999999913,0.0068130000000000005,0.0429874594766203,-0.0106116018521253,-0.3240726133372596
171.42857142857142,0.6089843781954842,0.5733481516295502,-15.034518,0.017913000000000068,0.011699000000000015,-0.001979,0.0386590429316743,-0.0084473935796525,-0.3118902500649245
172.43107769423557,0.6089842753955913,0.573348457934834,-15.041904,0.015881000000000034,0.014500000000000068,-0.008359,0.0385194165915148,-0.0075223690760954,-0.2993068101304808
173.43358395989975,0.608984173468363,0.5733487654618481,-15.037687,0.011811999999999934,0.019280999999999993,-0.013095,0.0425511271636217,-0.0072605696882963,-0.2863563972675129
174.4360902255639,0.6089840771261882,0.5733490747341916,-15.02426,0.01287499999999997,0.029382999999999937,-0.002321,0.0455705467695719,-0.0078539816339744,-0.2735279480126735
175.43859649122803,0.6089839858454684,0.5733493862754631,-15.018703,0.018199999999999994,0.02224200000000004,0.014986000000000001,0.0452912940892528,-0.0107337748997651,-0.2622878181903198
176.44110275689223,0.6089838985790057,0.5733497021800577,-15.03051,0.019822999999999924,0.006294000000000022,0.012742,0.0367740873395205,-0.0107861347773248,-0.2514322367620585
177.4436090225564,0.6089838123597408,0.5733500207026462,-15.042302,0.010022999999999893,0.00927,-0.01176,0.0360235957611629,-0.0074351026134957,-0.2391625197606608
178.44611528822054,0.6089837280603378,0.5733503395743005,-15.040102,0.0022490000000003896,0.02397499999999997,-0.010569,0.0396538806053111,-0.0062482787221396,-0.2256016954451001
179.4486215538847,0.6089836463789288,0.5733506591440866,-15.03291,0.005023,0.028781,0.0012500000000000002,0.0429001930140206,-0.0075049157835755,-0.2123370360503112
180.45112781954887,0.6089835709807052,0.5733509792374714,-15.029963,0.00835299999999961,0.023558000000000023,0.0034170000000000003,0.0425511271636217,-0.0079063415115343,-0.2010622788955969
181.45363408521305,0.6089835018656669,0.5733513002035208,-15.028853,0.006025000000000169,0.019937999999999956,0.00027399999999999994,0.0390953752446729,-0.0079412480965741,-0.1901534300185645
182.4561403508772,0.6089834369394186,0.5733516227403666,-15.028751,5.9000000000253294e-05,0.018771000000000038,0.003136,0.0375769387954379,-0.0080983277292536,-0.1784600207361759
183.45864661654133,0.6089833751547631,0.5733519449281465,-15.034723,0.001410999999999607,0.016218999999999983,0.007694000000000001,0.0377689250131573,-0.0087440995524914,-0.1664869748010311
184.4611528822055,0.6089833138937063,0.5733522671159264,-15.045089,0.0045480000000002185,0.014786000000000021,-0.0011630000000000008,0.0315555528760574,-0.0071383966406568,-0.1536239156671259
185.4636591478697,0.6089832566469068,0.5733525886055747,-15.046924,0.002044000000000157,0.02434599999999998,-0.013774999999999999,0.038763762686794,-0.0038571776469074,-0.1396439156251141
186.46616541353384,0.6089832037634306,0.5733529113169533,-15.039233,0.0017849999999999255,0.031745999999999996,-0.0015909999999999995,0.0390081087820732,-0.0038571776469074,-0.1259430111837887
187.468671679198,0.6089831559414091,0.5733532347264638,-15.037029,0.00425299999999984,0.022937000000000013,0.009437,0.0391302818297128,-0.0051836278784231,-0.1137606479114537
188.47117794486212,0.6089831130063094,0.5733535591831717,-15.044247,0.006324000000000218,0.016156000000000004,0.006914,0.0354650904005247,-0.004886921905584,-0.1018398047742368
189.4736842105263,0.6089830746090659,0.5733538841634783,-15.050387,0.003301999999999694,0.017210000000000003,-0.005674,0.0370707933123595,-0.0032114058236694,-0.0899892809525824
190.47619047619045,0.6089830388298163,0.573354209492851,-15.04987,-0.0006629999999998581,0.021418999999999994,-0.006387,0.0348716784548467,-0.0017453292519942,-0.0767246041045013
191.47869674185463,0.6089830072393568,0.5733545349967565,-15.045085,-0.0028529999999999944,0.024372000000000005,-0.004349,0.0395666141427114,-0.001169370598836,-0.06333796364829
192.4812030075188,0.6089829812339509,0.5733548587553327,-15.038873,-0.003366000000000202,0.030722,0.0016279999999999992,0.0412944901021858,-0.0013788101090754,-0.0495321300123337
193.4837092731829,0.608982959766401,0.5733551814667114,-15.035889,0.003171000000000035,0.028666999999999984,0.006698,0.041835542170304,-0.0021991148575128,-0.037367883257634
194.48621553884712,0.6089829423131086,0.5733555064470182,-15.040154,0.009708999999999968,0.015485000000000013,0.005163,0.0401774793809094,-0.002426007660272,-0.0264419999671024
195.48872180451127,0.6089829285250075,0.5733558324745224,-15.046177,0.008482000000000323,0.010552999999999993,-0.0025749999999999996,0.0338593874886899,-0.0008203047484371,-0.0157600613461215
196.49122807017545,0.6089829170058344,0.5733561611200205,-15.044589,-0.001899000000000317,0.017708,-0.012161,0.0342084533390888,0.0016057029118348,-0.0032288242096048
197.4937343358396,0.6089829091518528,0.5733564887183212,-15.032382,-0.011025999999999758,0.031649,-0.007320000000000002,0.0434586983746588,0.0016057029118348,0.0109257611174845
198.49624060150376,0.6089829077555894,0.5733568138731608,-15.019413,-0.008680000000000021,0.035309,0.007331000000000001,0.0438950306876573,-0.0008726646259971,0.0237888377046827
199.4987468671679,0.6089829136897088,0.5733571369336053,-15.017591,0.002597999999999878,0.024217000000000002,0.014264,0.0439124839801773,-0.0032986722862691,0.033545228223331
200.5012531328321,0.6089829229399539,0.5733574608667145,-15.028931,0.009330000000000283,0.011889999999999998,0.007559999999999999,0.041852995462824,-0.0021118483949131,0.0419402619254237
201.50375939849624,0.6089829344591269,0.573357786719686,-15.040485,0.005037999999999876,0.009781999999999999,-0.006928999999999999,0.0361108622237626,0.0013089969389958,0.0515221195188726
202.5062656641604,0.6089829468509647,0.573358113096256,-15.040061,-0.004591000000000012,0.016027000000000007,-0.013330999999999999,0.038763762686794,0.0032288591161895,0.0629365728269155
203.50877192982452,0.608982962384395,0.5733584387746944,-15.02864,-0.007597000000000076,0.022768999999999998,-0.007121999999999999,0.0440346570278169,0.0025132741228719,0.0755378500263145
204.5112781954887,0.6089829835028789,0.5733587637550012,-15.013121,-0.003981000000000012,0.02892,-0.0021540000000000014,0.0476125819944053,0.0005061454830783,0.0882263936883133
205.51378446115288,0.6089830103809495,0.5733590864663798,-14.999191,-0.0023369999999998115,0.033246999999999985,0.004007,0.0446804288510548,-0.0016929693744345,0.0990823416357181
206.51629072681703,0.608983044065804,0.5733594097013573,-14.994641,0.0009049999999999336,0.027062000000000003,0.014961,0.0424289541159821,-0.0034732052114685,0.1075820950929304
207.5187969924812,0.6089830822885146,0.5733597336344665,-15.006341,0.0032809999999998674,0.011864000000000013,0.016105,0.0393222680474322,-0.0034208453339088,0.1151742773391058
208.5213032581453,0.6089831219074886,0.5733600582657074,-15.030168,0.0007570000000001187,-0.003831000000000001,0.005083000000000001,0.0368962603871601,3.4906585040017646e-05,0.1235693110411985
209.52380952380952,0.6089831597811334,0.5733603823733494,-15.043366,-0.0048319999999999474,0.0004979999999999984,-0.024895,0.036006142468643,0.003996803987067,0.135123390689401
210.52631578947367,0.6089831981783769,0.5733607045611293,-15.026085,-0.008313999999999933,0.03176899999999999,-0.031694,0.044924774946334,0.0040491638646269,0.1488067720250365
211.52882205513785,0.6089832433824045,0.5733610258762446,-14.987557,-0.004478000000000204,0.05251799999999998,-0.006028000000000006,0.0494102711239594,8.726646259971105e-05,0.1611811564216763
212.531328320802,0.6089832992329406,0.5733613473658928,-14.963166,0.0015760000000000218,0.036289000000000016,0.03209,0.0415213829049451,-0.0046774823953448,0.1698903319358354
213.53383458646616,0.6089833615411948,0.5733616690300739,-14.977274,0.0023919999999999497,-4.300000000001525e-05,0.034814,0.0306654349575403,-0.0058293997016609,0.1772381855400241
214.5363408521303,0.6089834233258504,0.5733619915669197,-15.012767,-0.003338999999999981,-0.011641999999999986,0.0029190000000000015,0.0267384441405531,-0.0019547687622336,0.1868724030110328
215.5388471177945,0.6089834812707815,0.5733623134056338,-15.031739,-0.008789000000000158,0.006883000000000028,-0.030665,0.0375594855029179,0.0030019663134304,0.2001543586187096
216.54135338345864,0.6089835407865091,0.5733626333244857,-15.013106,-0.008537999999999712,0.03489999999999999,-0.033525000000000006,0.04616395871525,0.003665191429188,0.2149896572606615
217.5438596491228,0.6089836069344878,0.5733629514980084,-14.976164,-0.0027129999999999654,0.043823999999999974,0.0007370000000000015,0.048607419668042,-0.0007679448708775,0.2288301182289766
218.54636591478692,0.608983683379909,0.5733632700205968,-14.956882,0.0024199999999998667,0.030437000000000047,0.027722000000000004,0.0431619924018197,-0.0050963614158234,0.2403667271313665
219.54887218045116,0.6089837654103838,0.5733635895903829,-14.966518,0.0002990000000000492,0.012298999999999949,0.023447000000000003,0.0321489648217355,-0.0062133721370998,0.2519208242328615
220.55137844611528,0.6089838505824513,0.5733639077639056,-14.987537,-0.007986999999999966,0.010674000000000017,-0.0023859999999999992,0.034452799434368,-0.0031590459461097,0.2650980600854187
221.55388471177943,0.6089839352309201,0.5733642247156977,-14.99635,-0.012510999999999939,0.018128000000000033,-0.018064,0.0417133691226644,-0.0009075712110369,0.2781880120220837
222.5563909774436,0.6089840228464485,0.5733645395730947,-14.986382,-0.010197000000000234,0.028384999999999994,-0.015892,0.0438601241026174,-0.0013089969389956,0.2914001544596808
223.55889724310777,0.6089841167451622,0.5733648530342285,-14.969103,-0.00336599999999998,0.031748,0.003534999999999998,0.0441219234904166,-0.0044680428851053,0.3037745737629056
224.56140350877192,0.60898421745066,0.5733651664953621,-14.96214,0.0008080000000001419,0.022657999999999956,0.014588,0.0416086493675448,-0.0069987703004972,0.3147526773046574
225.56390977443607,0.6089843219958824,0.5733654813527591,-14.968239,-0.000180000000000069,0.012488000000000055,0.008451,0.036302848441482,-0.0074874624910556,0.325922784517421
226.56641604010025,0.6089844279373678,0.5733657953374915,-14.97747,-0.006205999999999934,0.01363700000000001,-0.0018600000000000005,0.0345226126044478,-0.0062308254296197,0.3375466773357033
227.5689223057644,0.6089845361477816,0.5733661075768948,-14.981995,-0.012241000000000168,0.01929499999999995,-0.005156,0.038152897448596,-0.0053232542185825,0.3501479545351023
228.57142857142856,0.6089846476743207,0.5733664178964357,-14.982062,-0.013137999999999872,0.025644,-0.002142,0.0398807734080704,-0.0055850536063817,0.3637266161156183
229.5739348370927,0.608984763738716,0.5733667262961145,-14.981018,-0.00766,0.02707000000000004,-0.001347,0.0431270858167798,-0.0062308254296197,0.3770609316008548
230.5764411027569,0.6089848852136319,0.5733670334740629,-14.979051,-7.299999999998974e-05,0.021809999999999996,-0.0021089999999999998,0.0422718744833026,-0.0068416906678177,0.3884230075780456
231.57894736842104,0.6089850119245356,0.5733673397793466,-14.976177,0.0013399999999998968,0.017525000000000013,0.001156,0.039374627924992,-0.0075572756611352,0.3990520801759836
232.5814536340852,0.6089851428242296,0.5733676474808939,-14.975706,-0.003311000000000064,0.014865999999999935,0.003527,0.0371231531899193,-0.0079237948040542,0.4105538173999187
233.58395989974937,0.6089852752947198,0.5733679539607104,-14.981574,-0.011292999999999997,0.017356000000000038,0.006445,0.0373500459926786,-0.0078714349264943,0.4235041255431314
234.58646616541355,0.6089854091614734,0.5733682581715991,-14.992401,-0.014708999999999861,0.016716999999999982,0.003293,0.0378038315981971,-0.0074176493209758,0.4371526352003123
235.58897243107768,0.6089855479151489,0.5733685604626254,-14.999515,-0.012599000000000027,0.01832200000000006,-0.00852,0.0419402619254237,-0.0063355451847393,0.4506091237331885
236.59147869674183,0.6089856889377525,0.5733688606592569,-14.996829,-0.007465000000000055,0.023247999999999935,-0.009609,0.0428827397215006,-0.0062308254296197,0.463402352243722
237.593984962406,0.6089858357199426,0.5733691612049541,-14.989085,-0.002794999999999881,0.029847999999999986,-0.0019900000000000004,0.045553093477052,-0.0063879050622992,0.4766144946813189
238.59649122807016,0.6089859882617192,0.5733694601798549,-14.982029,-0.003681999999999963,0.028644000000000003,0.00431,0.0398633201155504,-0.0068940505453776,0.4887096263976396
239.59899749373432,0.6089861460394836,0.573369758631157,-14.980223,-0.009505000000000097,0.019048000000000065,0.006257,0.038467056713955,-0.0077318085863347,0.5008222637663579
240.6015037593985,0.608986308006038,0.573370054813531,-14.987545,-0.013398000000000021,0.013058000000000014,0.009403,0.0410152374218667,-0.0081506876068133,0.5129697379069458
241.60401002506265,0.6089864708452574,0.5733703497741747,-15.003397,-0.009848000000000079,0.007748999999999895,0.006029999999999999,0.0394095345100319,-0.0071907565182165,0.5255012019362651
242.6065162907268,0.6089866336844765,0.5733706422913573,-15.018291,-0.0066549999999998555,0.009109000000000034,-0.007306999999999999,0.0415737427825049,-0.0051487212933831,0.5387307976663821
243.60902255639093,0.6089867989671567,0.5733709346340069,-15.018814,-0.010506000000000126,0.021633000000000013,-0.018415,0.0466351976132884,-0.0035430183815483,0.5530424800794431
244.61152882205516,0.6089869693112917,0.5733712245331958,-15.001377,-0.01454500000000003,0.03788500000000006,-0.012967,0.0477871149196047,-0.0045902159327451,0.5671796121140122
245.6140350877193,0.6089871482075401,0.5733715121634565,-14.979529,-0.010916999999999843,0.04036899999999999,0.0046,0.0461290521302101,-0.0078365283414545,0.5798681732293034
246.61654135338344,0.6089873354813687,0.5733717989210526,-14.97132,-0.006808000000000147,0.02482099999999987,0.019237999999999998,0.0424987672860619,-0.0096691240560484,0.5903925260721218
247.6190476190476,0.6089875253731913,0.5733720846314511,-14.984848,-0.005596999999999852,0.002363000000000115,0.019764,0.0406836248639878,-0.0091280719879303,0.5998871521095559
248.62155388471177,0.6089877145668823,0.5733723689455862,-15.012383,-0.009073000000000109,-0.009014000000000078,0.006926999999999999,0.0393571746324721,-0.0067195176201781,0.6105684973185914
249.62406015037595,0.6089879016661781,0.5733726518634581,-15.034804,-0.012267999999999946,0.004218000000000055,-0.014766999999999999,0.0428827397215006,-0.0040491638646267,0.6239726434272002
250.62656641604008,0.6089880889400068,0.5733729328614675,-15.034924,-0.01509399999999994,0.03126899999999999,-0.027493999999999998,0.0503003890424765,-0.0018849555921538,0.63866836808887
251.62907268170423,0.6089882838932843,0.5733732115905491,-15.010725,-0.016641000000000128,0.045508000000000104,-0.015252,0.0511032404983939,-0.0026354471705114,0.6521073509693489
252.6315789473684,0.6089884896676031,0.573373487003505,-14.983134,-0.012713999999999892,0.033082999999999974,0.00887,0.0480663675999238,-0.0058992128717407,0.6631378318419531
253.63408521303256,0.6089887013760414,0.5733737606711318,-14.974721,-0.003394000000000119,0.009703000000000017,0.022813,0.0413119433947057,-0.0094073246682493,0.6723532401056531
254.63659147869672,0.6089889132590125,0.5733740345132914,-14.986776,-0.0023439999999999017,0.0009119999999998019,0.013004,0.0334056018831714,-0.0089186324776908,0.6824063365971406
255.6390977443609,0.6089891242693192,0.5733743071337206,-15.001361,-0.009977000000000125,0.00819800000000015,-0.006200000000000001,0.0359712358836031,-0.006457718232379,0.6940999378657472
256.64160401002505,0.6089893358032245,0.5733745787069522,-15.007211,-0.01841299999999979,0.01749999999999985,-0.009895999999999999,0.0437204977624579,-0.0047298422729045,0.7060555305083711
257.64411027568923,0.6089895508277884,0.5733748473131242,-15.006863,-0.021804000000000157,0.02395500000000017,-0.0004800000000000002,0.0478394747971645,-0.0051487212933831,0.7189709320665442
258.6466165413533,0.6089897724846033,0.5733751119050386,-15.008063,-0.015177999999999914,0.023895999999999917,0.0042179999999999995,0.0480838208924437,-0.0062308254296197,0.7308042993016506
259.64912280701753,0.6089899985047414,0.5733753744025581,-15.010272,-0.008623999999999965,0.018518000000000034,-0.002868,0.0463210383479294,-0.00609119908946,0.7424281921199329
260.6516290726817,0.608990228190071,0.5733756360274131,-15.008078,-0.005745000000000111,0.015860999999999903,-0.006511,0.0459196126199707,-0.0053930673886624,0.7534062782083922
261.65413533834584,0.6089904606679274,0.5733758966050704,-15.000045,-0.007419000000000064,0.01642100000000002,-0.004382,0.0435808714222984,-0.0056199601914217,0.7639131777586907
262.65664160401,0.608990697334574,0.5733761554373985,-14.989863,-0.017297999999999814,0.02086699999999997,0.0013290000000000003,0.0448549617762542,-0.0063879050622992,0.7746992427228455
263.65914786967414,0.6089909369682802,0.5733764107790681,-14.985373,-0.023580000000000156,0.021078000000000152,0.010595,0.0466526509058084,-0.0078016217564145,0.7859217447197542
264.6616541353383,0.6089911800926451,0.5733766635027437,-14.993467,-0.017126999999999892,0.014585999999999988,0.012091999999999999,0.0441044701978967,-0.0081855941918533,0.7953639759730432
265.6641604010025,0.6089914253114049,0.5733769144810902,-15.009849,-0.007381000000000082,0.006496999999999975,0.002858000000000001,0.0436506845923781,-0.0068242373752978,0.8043175324890669
266.66666666666663,0.6089916712282966,0.5733771621433109,-15.02198,-0.00661199999999984,0.009948999999999986,-0.010368,0.0447851486061745,-0.0045378560551851,0.813829611819021
267.6691729323308,0.6089919209849126,0.5733774105036636,-15.020985,-0.013582000000000205,0.020728999999999997,-0.013883,0.0464955712731289,-0.003351032163829,0.8245807876514285
268.671679197995,0.6089921749303187,0.5733776564205553,-15.009396,-0.016341999999999857,0.02384199999999992,-0.005675000000000001,0.0456927198172115,-0.0040142572795869,0.8345989950111686
269.6741854636591,0.6089924316682517,0.5733778998939858,-14.997947,-0.014410999999999952,0.017194000000000154,0.004797000000000001,0.0451167611640534,-0.005532693728822,0.8439714654542555
270.6766917293233,0.6089926913732444,0.5733781407494226,-14.995,-0.008308000000000204,0.009633000000000003,0.010131,0.0436157780073383,-0.0072605696882963,0.8528726097328415
271.6791979949875,0.608992953696231,0.5733783803831289,-15.001166,-0.007437999999999834,0.008610999999999924,0.006418,0.0404392787687086,-0.0068416906678177,0.8617563181722002
272.6817042606516,0.6089932168918821,0.5733786182715059,-15.00993,-0.01427400000000012,0.012226999999999988,-3.800000000000071e-05,0.0383448836663154,-0.004921828490624,0.8720362551065693
273.6842105263158,0.6089934814837967,0.5733788542400208,-15.016831,-0.018767999999999896,0.014496000000000064,-0.0023,0.0415213829049451,-0.0029321531433503,0.8835031555586347
274.68671679198,0.6089937493918369,0.5733790879396077,-15.020163,-0.018644000000000105,0.01577099999999998,-0.005105,0.0469668101711674,-0.0022689280275924,0.8953189996880511
275.6892230576441,0.6089940206160027,0.5733793172758714,-15.019273,-0.014475999999999933,0.015317000000000025,-0.002458,0.0473158760215662,-0.0029670597283903,0.9063844395055728
276.69172932330827,0.6089942942836294,0.5733795441686741,-15.015765,-0.013405000000000111,0.016416999999999904,-0.001892,0.0458672527424109,-0.0036826447217079,0.9175544769051664
277.6942355889724,0.6089945723145793,0.5733797698397465,-15.013253,-0.013532999999999795,0.017549999999999955,0.002647,0.0460243323750904,-0.0034208453339088,0.9290910858075564
278.69674185463657,0.6089948538361876,0.5733799937654894,-15.01213,-0.014237000000000055,0.016929000000000194,-0.00083,0.0447502420211346,-0.0028274333882307,0.9408372214866484
279.69924812030075,0.6089951388484545,0.5733802152477715,-15.007957,-0.016800000000000148,0.014195999999999875,-0.006008,0.048310713695203,-0.002460914245312,0.9525832349926928
280.7017543859649,0.6089954252569848,0.573380433762994,-14.996533,-0.021973999999999938,0.016296000000000088,-0.004935,0.0493404579538796,-0.0032812189937492,0.963910456744721
281.70426065162906,0.6089957149816405,0.5733806479148932,-14.983796,-0.022226999999999997,0.01613500000000001,0.003548000000000001,0.0458672527424109,-0.0058992128717407,0.9737540962726764
282.70676691729324,0.608996007847889,0.5733808585761337,-14.983299,-0.019584000000000046,0.014740999999999893,0.018762,0.0424987672860619,-0.008569566627292,0.9830916077708458
283.70927318295736,0.6089963028085326,0.5733810673175124,-14.99902,-0.011113999999999846,0.010175999999999963,0.010859,0.0438252175175776,-0.0080983277292536,0.9924814442399904
284.71177944862154,0.6089965995145055,0.5733812748371604,-15.017914,-0.003295000000000048,0.005635000000000057,-0.0051210000000000006,0.0418879020478639,-0.0060388392119004,1.001941181145677
285.7142857142857,0.6089968977912746,0.5733814809605451,-15.024836,-0.005954999999999933,0.008507000000000042,-0.016364999999999998,0.0398109602379906,-0.0029670597283903,1.0139839355311455
286.71679197994985,0.6089971972897742,0.573381686560331,-15.014324,-0.013600000000000056,0.01364999999999994,-0.014392,0.042760566673861,-0.0024783675378319,1.026742344723102
287.719298245614,0.6089974992317349,0.5733818904147876,-14.997148,-0.024749000000000132,0.01989799999999997,0.000791,0.0455181868920121,-0.0032986722862691,1.0397624660363944
288.7218045112781,0.6089978053624857,0.5733820897313882,-14.986468,-0.031398999999999955,0.02160200000000012,0.009762,0.0474904089467657,-0.005166174585903,1.05266050156851
289.72431077694233,0.6089981151584278,0.5733822831138693,-14.989323,-0.02728699999999984,0.016135999999999928,0.015936,0.0459545192050106,-0.0071383966406568,1.0639526945624511
290.7268170426065,0.6089984284450286,0.5733824724820931,-15.004601,-0.013417000000000012,0.008189000000000002,0.009415999999999999,0.0413643032722656,-0.0075921822461753,1.0739359604305658
291.72932330827064,0.6089987433024256,0.5733826594068561,-15.025842,-0.006529000000000007,0.008234999999999992,0.0006320000000000006,0.0380307244009564,-0.0051487212933831,1.084547649549154
292.7318295739348,0.608999059905152,0.5733828468552177,-15.0407,-0.008294000000000024,0.006822000000000106,-0.012197,0.0437554043474978,-0.0009424777960769,1.0965379393373074
293.734335839599,0.6089993763333453,0.5733830325582502,-15.041887,-0.014866000000000046,0.0060389999999999056,-0.011967,0.0435634181297784,0.0010995574287564,1.1093835626319857
294.7368421052631,0.6089996929360717,0.5733832161668874,-15.033253,-0.020944000000000074,0.008779000000000092,-0.006757000000000001,0.0466002910282486,0.0008901179185172,1.122578321590233
295.7393483709273,0.6090000116331932,0.5733833959358003,-15.020886,-0.024095999999999895,0.018382999999999816,-0.0018199999999999987,0.0493928178314395,-0.000890117918517,1.1359126370754695
296.7418546365915,0.6090003350427035,0.5733835706432585,-15.00931,-0.02488200000000007,0.025372000000000172,0.0019129999999999998,0.0477871149196047,-0.0026703537555512,1.14884561409921
297.7443609022556,0.609000665084465,0.5733837422091239,-15.000295,-0.021682999999999897,0.022538999999999865,0.0034969999999999992,0.0445058959258554,-0.0035081117965085,1.1608010845687864
298.7468671679198,0.6090009982678192,0.573383909935265,-14.995586,-0.018498000000000125,0.011376000000000053,0.004417000000000001,0.0453262006742927,-0.0037524578917877,1.171691939101231
299.749373433584,0.6090013318002393,0.5733840745198135,-15.000422,-0.015336000000000016,-0.0008719999999999839,0.014365000000000001,0.0454309204294124,-0.0035779249665883,1.1819718760355995
300.7518796992481,0.6090016658562581,0.5733842378826316,-15.020207,-0.012480999999999964,-0.0050040000000000084,0.015716,0.0456403599396517,-0.0030543261909901,1.193613222146402
301.7543859649123,0.6090019983414806,0.5733843988019885,-15.047295,-0.013736999999999888,0.001330999999999971,-0.0038709999999999994,0.0474904089467657,-6.981317007981325e-05,1.2061447210823062
302.7568922305764,0.6090023320484336,0.5733845583250822,-15.059829,-0.01787200000000011,0.011851000000000056,-0.022888,0.0476300352869252,0.0028448866807508,1.219025233508732
303.7593984962406,0.6090026687224463,0.5733847145320503,-15.045811,-0.024104999999999932,0.023552999999999935,-0.025104,0.0521504380495905,0.003717551306748,1.232499105520958
304.7619047619048,0.6090030108069797,0.5733848663756952,-15.014462,-0.025124000000000035,0.027044000000000068,-0.006513999999999999,0.0511556003759538,0.0014137166941154,1.2454495183839265
305.7644110275689,0.6090033572548362,0.5733850143796156,-14.986433,-0.02056900000000006,0.01883900000000005,0.008830999999999999,0.0470017167562073,-0.0014137166941152,1.25742242469273
306.76691729323306,0.6090037064952195,0.5733851590674107,-14.974804,-0.020696999999999965,0.005450999999999873,0.021382,0.0463733982254893,-0.0043109632524258,1.268086386422415
307.76942355889724,0.6090040562592016,0.5733852995664155,-14.981255,-0.02082600000000001,-0.005056999999999867,0.014509,0.0451167611640534,-0.0058293997016609,1.278680569888606
308.77192982456137,0.6090044044523875,0.5733854370983605,-14.999454,-0.019795999999999925,-0.0010930000000000106,0.007620000000000002,0.0483805268652828,-0.005532693728822,1.2887161607276956
309.77443609022555,0.6090047512493098,0.5733855732340423,-15.018517,-0.01328600000000002,0.006159999999999943,-0.006240000000000001,0.0479616478448041,-0.0031590459461097,1.2988042161641002
310.77694235588973,0.6090051001406274,0.5733857071007958,-15.026612,-0.013589000000000073,0.012438999999999867,-0.014723,0.0453960138443725,-0.0005061454830783,1.310026648347839
311.77944862155385,0.6090054518244715,0.5733858385240885,-15.018373,-0.014801999999999982,0.014276000000000177,-0.015404000000000001,0.0483456202802429,0.0006806784082777,1.3220694725464772
312.78195488721803,0.6090058075225732,0.573385967852986,-14.997981,-0.018926,0.014749999999999819,-0.005913,0.0434412450821388,-0.0006632251157578,1.3348104284459137
313.7844611528822,0.6090061639188064,0.5733860929930935,-14.978444,-0.025467000000000017,0.013876,0.005730000000000001,0.0469144502936075,-0.0026005405854714,1.3468182238864643
314.78696741854634,0.6090065218858359,0.5733862135953447,-14.967748,-0.02762599999999993,0.008656000000000219,0.010863000000000001,0.0494102711239594,-0.0047123889803846,1.3577265317114289
315.7894736842105,0.609006883518057,0.573386329834273,-14.970797,-0.027258000000000004,0.0018239999999998258,0.01465,0.0486946861306418,-0.0059341194567805,1.36809368274852
316.79197994987464,0.6090072460229426,0.5733864413608121,-14.987854,-0.022044000000000064,-0.0005249999999998867,0.012536000000000002,0.047088983218807,-0.0063006385996995,1.377867613826151
317.7944862155388,0.6090076076551637,0.5733865507929562,-15.011115,-0.012911999999999924,0.0028719999999999857,-0.0027410000000000004,0.0450120414089337,-0.0041364303272264,1.387938093796988
318.796992481203,0.6090079692873845,0.5733866591779028,-15.022879,-0.00665300000000002,0.00780599999999998,-0.017307,0.0454832803069722,-0.0016755160819144,1.3984450631604566
319.7994987468672,0.6090083321413361,0.5733867670392506,-15.013769,-0.012058000000000013,0.011857999999999924,-0.019277000000000002,0.0478918346747244,-0.000593411945678,1.410470294440235
320.8020050125313,0.6090086976132815,0.5733868721080716,-14.9911,-0.02673700000000001,0.013230000000000075,-0.006363999999999998,0.0498815100219979,-0.0019024088846737,1.4228797075949622
321.8045112781955,0.6090090669249512,0.5733869735117011,-14.970997,-0.032604999999999995,0.01060900000000009,0.009016,0.0500385896546774,-0.0048694686130641,1.4348351606112455
322.8070175438596,0.6090094381564831,0.5733870686321454,-14.965405,-0.031021999999999994,0.00872599999999979,0.016704999999999998,0.0476474885794451,-0.0080285145591738,1.4454119082382086
323.8095238095238,0.6090098093880151,0.573387157993003,-14.976158,-0.02122400000000002,0.0024320000000002118,0.012622,0.0442266432455363,-0.0090582588178504,1.4546970249522335
324.812030075188,0.6090101813176786,0.5733872445613339,-14.993905,-0.015585999999999989,-0.0008270000000001332,0.001979999999999999,0.0465479311506887,-0.0076445421237349,1.463982263839306
325.8145363408521,0.6090105528982764,0.5733873281626052,-15.009254,-0.014171000000000045,0.00012499999999993072,-0.005841999999999998,0.0508763476956347,-0.0047472955654244,1.474157393752093
326.8170426065163,0.6090109244788742,0.5733874112402775,-15.016119,-0.014864999999999906,0.00576500000000002,-0.009564,0.0498989633145178,-0.0029146998508304,1.4845770268397915
327.8195488721804,0.6090112983283998,0.5733874910018243,-15.011481,-0.021968000000000043,0.010284000000000182,-0.011525,0.0488866723483611,-0.002460914245312,1.4949443000499305
328.8220551378446,0.6090116754940513,0.5733875674472455,-14.998444,-0.026038000000000006,0.01260899999999987,-0.0037079999999999995,0.0510334273283141,-0.0033161255787892,1.5050323554863354
329.8245614035088,0.6090120537069001,0.5733876405765411,-14.98873,-0.02790100000000001,0.008351999999999915,0.009215999999999998,0.0506320016003555,-0.0045029494701454,1.514771275259171
