Time [s],Longitude [rad],Latitude [rad],Altitude [m],V North [m/s],V East [m/s],V Down [m/s],Roll [rad],Pitch [rad],Yaw [rad]
1.0025062656641603,0.6089845082225135,0.5733528716979793,-9.86128,-0.09470099999999992,0.14404499999999998,-0.021334,-0.0175929188601028,-0.0049916416607036,-2.806192818500506
2.0050125313283207,0.6089843637092515,0.5733525552697859,-9.853286,-0.08295200000000014,0.20451699999999995,-0.016273,-0.0110479341651241,-0.0084997534572124,-2.8946984474158457
3.007518796992481,0.6089842584658975,0.5733522280205512,-9.852535,-0.07342199999999988,0.19510300000000003,0.026806999999999997,-0.0086917396749317,-0.0127059969545186,-2.972260879374473
4.010025062656641,0.6089841923179189,0.5733518889030775,-9.874116,-0.05987000000000009,0.162568,0.017647000000000003,-0.0056723200689815,-0.0111875605052835,-3.0384612004493263
5.012531328320802,0.6089841586330643,0.5733515405353589,-9.911898,-0.05029299999999992,0.14034300000000002,0.012846999999999997,-0.0040840704496667,-0.0093724180832095,-3.095027286599877
6.015037593984962,0.6089841490337534,0.5733511832664608,-9.943602,-0.034028999999999865,0.12800599999999998,-0.025675999999999997,-0.0131248759749973,-0.0039269908169872,-3.1404408410032327
7.017543859649122,0.6089841612510583,0.5733508239031679,-9.953271,-0.019284999999999997,0.105187,-0.013049000000000002,-0.0179768912955415,-0.0045378560551851,3.109862689961584
8.020050125313283,0.608984191968853,0.5733504608746834,-9.948586,-0.024741000000000124,0.08918100000000001,-0.016931,-0.0125663706143591,-0.0053930673886624,3.0903324032718897
9.022556390977442,0.6089842359511501,0.5733500945300736,-9.941931,-0.02605499999999994,0.05574699999999999,0.012558,-0.0165282680163862,-0.0078190750489346,3.084223628716862
10.025062656641603,0.6089842897072911,0.5733497238221404,-9.952058,-0.025164999999999882,0.017534999999999995,0.019507,-0.0114144533080429,-0.0082903139469729,3.087784013124468
11.027568922305765,0.6089843429398334,0.5733493485763512,-9.982107,-0.029130000000000322,-0.018569000000000002,0.011917999999999998,-0.0111177473352038,-0.0071907565182165,3.10024575125017
12.030075187969924,0.6089843912854536,0.5733489700144365,-10.001052,-0.013095999999999997,-0.020169999999999993,-0.025282,-0.0051661745859032,-0.002094395102393,3.117297705308617
13.032581453634084,0.6089844326497569,0.5733485912779889,-10.003951,0.0018679999999999808,-0.033660999999999996,-0.00047100000000000006,-0.0009773843811168,-0.0026005405854714,3.139131896424113
14.035087719298245,0.608984464938348,0.5733482183011276,-10.013603,0.11868900000000027,-0.077894,0.034238000000000005,-0.099710660166436,-0.0118856922060812,-3.043138525765038
15.037593984962406,0.6089844525465102,0.573347886339504,-10.02367,0.333091,-0.400007,-0.082707,0.0408232512041473,0.0318871654339365,-2.7556654493888075
16.040100250626566,0.6089843747048257,0.5733476133700088,-9.967574,0.37721099999999996,-0.4204,0.00043400000000000383,0.1175828317068579,0.0023038346126325,-2.466289841954855
17.042606516290725,0.6089842633528194,0.5733474182421985,-9.929132,0.38209000000000004,-0.25492899999999996,0.0013889999999999944,0.1234820445785988,-0.0047996554429843,-2.22377625512378
18.045112781954884,0.6089840725883322,0.5733472824555828,-9.893981,0.35385299999999986,-0.1786890000000001,0.019410000000000004,0.0517315590291119,-0.0113446401379631,-2.0043184677115504
19.047619047619047,0.6089838458700623,0.5733471953636531,-9.89854,0.3085030000000001,-0.12517999999999985,0.049832,0.0602836723638841,-0.0065973445725384,-1.8162598865809847
20.050125313283207,0.6089835976842427,0.5733471492869608,-9.931339,0.283902,-0.13245200000000001,0.013738999999999998,0.0395666141427114,0.0013788101090754,-1.6465611219838483
21.052631578947366,0.6089833241911489,0.5733471431783085,-9.962246,0.274475,-0.10603700000000016,-0.025955,0.013229595730117,0.0127409035395587,-1.4938102025552773
22.05513784461153,0.6089830297541041,0.5733471754668995,-9.947344,0.252372,-0.05196500000000004,-0.052548,0.0548731516827017,0.0160221225333079,-1.3576044284769593
23.05764411027569,0.6089827292084069,0.5733472442328721,-9.899474,0.242189,0.0026090000000000835,8.69999999999968e-05,0.0435634181297784,0.0086742863824118,-1.2358329810982405
24.06015037593985,0.6089824295353743,0.573347349476226,-9.884092,0.22442600000000001,-0.004941000000000084,0.048127,0.0289724655831058,0.004031710572107,-1.1352672317713743
25.062656641604008,0.6089821300368747,0.5733474903242967,-9.901922,0.19722000000000006,-0.03311599999999992,0.004071999999999999,0.0385019632989949,0.0076969020012951,-1.0648777365193
26.065162907268167,0.6089818253023873,0.573347662239228,-9.909659,0.17874500000000004,-0.016450000000000076,-0.015864,0.0290073721681457,0.0109257611174846,-1.0198831134963016
27.06766917293233,0.6089815151573792,0.5733478589378346,-9.907125,0.11076699999999984,-0.031529999999999836,-0.006225,0.0191986217719376,0.0114668131856028,-1.010825168837716
28.07017543859649,0.6089811975074554,0.5733480687264108,-9.886089,0.048292,-0.06246200000000002,-0.031233000000000004,0.0187273828738991,0.0124267442741996,-1.0342295628680618
29.07268170426065,0.6089808711308853,0.5733482834019087,-9.837065,-0.003233999999999959,-0.06738299999999997,-0.010299999999999997,0.013212142437597,0.0065100781099389,-1.0845478589886643
30.07518796992481,0.6089805318388786,0.5733484912706226,-9.805105,-0.07607999999999993,-0.08110400000000006,0.044004,0.0042062434973063,-0.0027750735106708,-1.1594396753923528
31.07769423558897,0.6089801754426454,0.5733486797661819,-9.823531,-0.14582000000000006,-0.12262200000000001,0.039255,0.0016057029118347,-0.006457718232379,-1.2519419163085428
32.08020050125313,0.6089797977533953,0.5733488417327365,-9.84269,-0.16627000000000003,-0.1157410000000001,-0.037758,-0.0046425758103049,-0.0016057029118348,-1.3477959922400171
33.08270676691729,0.6089794026108526,0.5733489747268254,-9.823068,-0.17278799999999994,-0.05163399999999996,-0.015925,-0.016615534478986,-0.0069115038378975,-1.4412580420717556
34.08521303258145,0.6089789969963344,0.5733490729888623,-9.820381,-0.21913499999999997,-0.0364049999999998,0.032328,-0.0073478361508961,-0.0127409035395584,-1.5323466710135842
35.08771929824561,0.608978587367559,0.5733491365188471,-9.843727,-0.22001800000000005,-0.03331600000000012,0.018339,-0.0139277274309147,-0.0125140107367993,-1.6110089920135258
36.09022556390977,0.6089781735499934,0.5733491670621089,-9.879316,-0.170773,-0.0340060000000002,-0.004701000000000004,-0.0032637657012293,-0.0092851516206098,-1.6717109499859433
37.092731829573935,0.6089777522275119,0.5733491700291689,-9.89634,-0.116842,-0.0163909999999996,-0.022711,-0.0135437549954759,-0.0069813170079773,-1.7174390301738012
38.095238095238095,0.6089773261926416,0.5733491557174689,-9.909376,-0.105531,-0.0146200000000003,0.015983999999999998,-0.0056897733615015,-0.0088488193076112,-1.750722144850067
39.097744360902254,0.608976895619915,0.5733491269195362,-9.925971,-0.10377,-0.02638499999999988,-0.013876999999999999,-0.0164933614313464,-0.0055676003138618,-1.7700604278687488
40.100250626566414,0.6089764633018594,0.573349085729766,-9.927502,-0.046655,-0.01616699999999982,-0.006007,-0.006754424205218,-0.0063704517697793,-1.7722772403648774
41.10275689223057,0.6089760248751512,0.5733490394785408,-9.932653,0.0018799999999999928,-0.023030000000000328,0.007665,-0.0069638637154573,-0.0074874624910556,-1.7618227355987233
42.10526315789473,0.60897558208512,0.5733489939254472,-9.946418,0.009250000000000008,-0.024970999999999854,0.012513999999999999,-0.0068242373752978,-0.0086568330898917,-1.745992372390333
43.10776942355889,0.6089751349317656,0.5733489537828744,-9.970861,0.02865000000000001,-0.028661000000000048,0.0012770000000000004,-0.005218534463463,-0.006457718232379,-1.7243680396640957
44.11027568922306,0.6089746816697589,0.573348922192415,-9.979953,0.06287799999999999,-0.019311999999999774,-0.029679999999999998,0.0028274333882308,-0.0021991148575128,-1.6970013991658723
45.11278195488722,0.6089742284077522,0.5733489000267336,-9.973615,0.082242,0.05765399999999987,0.0002520000000000005,0.1205673447277683,0.0122871179340402,-1.7141223286363585
46.11528822055138,0.6089738100523304,0.5733488694834715,-9.939631,-0.26756399999999997,0.29299399999999975,-0.044474,-0.015062191444711,0.0232826922216045,-1.9688885806020384
47.11779448621554,0.608973461335546,0.573348786929398,-9.90766,-0.40365000000000006,0.41312300000000013,0.017953000000000004,-0.0088313660150913,0.0134041286553165,-2.279818759952026
48.1203007518797,0.6089732051212118,0.5733486987902707,-9.858485,-0.30154199999999987,0.4010100000000001,-0.033998999999999995,-0.0806691180271779,0.0086742863824118,-2.5409025627578568
49.122807017543856,0.6089730332062804,0.5733485406634404,-9.804797,-0.21314600000000006,0.390659,0.019673999999999997,-0.0084299402871326,-0.004886921905584,-2.7605699293066666
50.125313283208015,0.6089729255194655,0.5733483343655229,-9.774389,-0.14532000000000012,0.34582599999999997,0.040707999999999994,-0.0227940000310459,-0.0056723200689814,-2.9486290514893003
51.127819548872175,0.6089728764757135,0.5733481038075288,-9.789438,-0.10838999999999999,0.297739,0.050158,0.0166678943565458,-0.0059341194567805,-3.116111003590309
52.130325814536334,0.6089728712397258,0.5733478568434396,-9.833748,-0.07538099999999992,0.261217,-0.010811999999999995,0.0266511776779534,0.004031710572107,3.015003818222889
53.1328320802005,0.6089729120804303,0.5733475997564407,-9.843351,-0.027231000000000005,0.28101699999999996,-0.051048,0.0137881010907552,0.0080983277292536,2.8740861089497924
54.13533834586466,0.6089730007431563,0.5733473402259809,-9.813397,0.006856999999999891,0.296558,-0.016030000000000003,0.0049392817831439,0.0023212879051526,2.75018494100462
55.13784461152882,0.6089731428129573,0.5733470822663175,-9.788024,-0.0007809999999999206,0.261799,0.02151,0.0084473935796525,-0.0040142572795869,2.6560595089774908
56.14035087719298,0.6089733335774447,0.5733468248302528,-9.784616,0.002571000000000101,0.209414,0.025395,0.0094422312532893,-0.0072256631032565,2.5910461514203345
57.14285714285714,0.6089735623901096,0.5733465675687212,-9.812916,-0.0005740000000000745,0.1406130000000001,0.030365999999999997,0.0187971960439789,-0.0095993108859686,2.557116671508884
58.1453634085213,0.6089738093541986,0.5733463073401296,-9.855744,-0.029954000000000036,0.0741369999999999,-0.007961999999999997,0.0245044226980003,-0.0079237948040542,2.555685501522249
59.14786967418546,0.6089740650449342,0.573346042748215,-9.876442,-0.05506499999999992,0.02647200000000005,-0.025319,0.0134913951179161,-0.0067544242052179,2.5860543177734128
60.15037593984962,0.6089743182922086,0.5733457685569896,-9.87931,-0.07976500000000009,-0.025976,-0.008542000000000001,0.0170518667919846,-0.0069115038378975,2.6415210384814256
61.15288220551378,0.6089745617656392,0.5733454824975251,-9.883915,-0.08278699999999994,-0.08657300000000001,0.014471,0.014137166941154,-0.0079237948040542,2.7163779657533667
62.15538847117794,0.6089747832479214,0.5733451843952889,-9.908647,-0.08129999999999993,-0.15134000000000003,0.018220000000000004,0.0126361837844389,-0.0077143552938148,2.805162969522073
63.1578947368421,0.6089749680782891,0.5733448728540175,-9.939709,-0.08336600000000027,-0.19409999999999994,-0.012885000000000004,0.0176452787376626,-0.0066322511575784,2.900911871912822
64.16040100250626,0.6089751143368805,0.5733445504917046,-9.937659,-0.062211000000000016,-0.17258800000000007,-0.038917,0.015987215948268,-0.0063180918922194,2.990796223670776
65.16290726817043,0.608975227434216,0.5733442199263442,-9.920748,-0.041139999999999954,-0.16275299999999993,0.016022,0.0211010306566114,-0.0115715329407224,3.074257816141267
66.16541353383458,0.6089753054504335,0.5733438811579364,-9.930834,-0.04055900000000001,-0.19234800000000002,0.02167,0.0143989663289532,-0.011641346110802,-3.130684345764829
67.16791979949875,0.6089753494327307,0.5733435388988701,-9.963879,-0.017940999999999985,-0.192241,0.028829,0.0216420827247296,-0.0098436569812478,-3.0664387759989173
68.1704260651629,0.6089753553668502,0.5733431922764807,-10.016467,-0.017557000000000045,-0.17844300000000002,-0.005282999999999996,0.0171565865471042,-0.0038222710618676,-3.0190880457521887
69.17293233082707,0.6089753281397138,0.5733428440832948,-10.030932,-0.0022849999999996484,-0.115618,-0.047414000000000005,0.0197047672550159,8.726646259971105e-05,-2.991284898408042
70.17543859649122,0.6089752846810155,0.5733424948429116,-10.017528,-0.021155000000000257,-0.04349999999999998,-0.01248,0.0102276294166867,-0.001535889741755,-2.9768162236287643
71.17794486215539,0.608975234415533,0.5733421410646722,-9.995211,-0.02798799999999968,-0.020681000000000005,-0.0011649999999999994,0.0096865773485685,-0.003665191429188,-2.972697106967717
72.18045112781954,0.6089751855463139,0.5733417823995108,-9.99229,-0.035741000000000245,-0.011505000000000015,0.027324,0.0119205987911212,-0.006702064327658,-2.9763275314382054
73.1829573934837,0.6089751389460228,0.5733414164039669,-10.002394,-0.0315430000000001,-0.004816999999999988,-0.003912,-0.0008901179185171,-0.0046251225177849,-2.98653755048274
74.18546365914787,0.6089750907749356,0.5733410462196324,-10.012054,-0.022421000000000024,0.019433000000000006,0.009850999999999999,0.0064926248174189,-0.0061959188445797,-3.003746636533744
75.18796992481202,0.6089750480143689,0.5733406723701067,-10.031317,-0.006500999999999646,0.026296999999999987,0.011864000000000001,-0.0284314135149876,-0.0028448866807506,-3.032299978750276
76.19047619047619,0.6089750188673703,0.5733403138794783,-10.053671,0.1968639999999997,0.19775700000000002,-0.024181,-0.0429350995990605,0.0161093889959076,3.0524236250257704
77.19298245614034,0.6089750597080749,0.5733399958804886,-10.048008,0.288408,0.475734,-0.019636,0.037856191475757,0.0225671072282866,2.7490331284180582
78.19548872180451,0.60897513161564,0.5733397417605495,-9.9875,0.3117890000000001,0.413754,-0.068883,-0.0676140552222603,0.029216811678385,2.4808807595949425
79.19799498746866,0.6089752998653799,0.5733395443638111,-9.893466,0.329728,0.355545,-0.007141999999999996,0.0108908545324446,0.0151320046147909,2.243777658538465
80.20050125313283,0.6089755553815825,0.573339390425771,-9.805185,0.32716999999999996,0.269552,0.015197000000000002,-0.0774053523259485,0.0090058989402908,2.0313714027300205
81.203007518797,0.6089758602906028,0.57333928535695,-9.778541,0.31709600000000004,0.16807799999999995,0.099739,-0.0041189770347066,-0.0036477381366681,1.8369416018848048
82.20551378446115,0.6089761875398375,0.5733392207797678,-9.825328,0.301272,0.076322,0.038064,0.0035255650890285,0.0059341194567807,1.6528094356125724
83.20802005012531,0.6089765231666527,0.5733392033264753,-9.894334,0.300021,0.019684999999999953,-0.0016159999999999994,0.0146258591317124,0.0108734012399247,1.4793759980287262
84.21052631578947,0.6089768566990726,0.5733392282846836,-9.934702,0.293354,-0.0016769999999999285,-0.045869,0.0114842664781226,0.0150098315671511,1.3235705604229475
85.21303258145363,0.608977189533361,0.5733392987959854,-9.909891,0.275197,0.014005000000000045,-0.06032,0.0075921822461753,0.0128107167096385,1.1862479850628638
86.21553884711778,0.6089775283017689,0.5733394132895843,-9.836669,0.26057299999999994,0.03777699999999995,-0.03271400000000001,0.0145036860840728,0.0064228116473392,1.0656806228818028
87.21804511278195,0.6089778784148169,0.5733395698456182,-9.764071,0.24473500000000004,0.04148599999999991,0.026456000000000007,0.0166678943565458,-0.0004712388980383,0.9722182414375063
88.22055137844612,0.608978239697972,0.5733397611337042,-9.740367,0.1908829999999999,0.018100000000000005,0.06276899999999999,0.0134041286553164,-0.0060737457969402,0.9154252101243184
89.22305764411027,0.6089786032500552,0.5733399806961241,-9.78514,0.12741800000000003,-0.01386899999999991,0.06084899999999999,0.0235095850243636,-0.0073129295658562,0.8965581660036747
90.22556390977444,0.6089789601698873,0.5733402173627707,-9.867265,0.06210899999999997,-0.01681200000000005,0.010731000000000004,0.0282568805897882,-0.0029670597283903,0.919631401261747
91.2280701754386,0.6089793116791985,0.5733404589163391,-9.933517,-0.011581999999999981,0.026575000000000015,-0.03614,0.0240157305074419,0.0035779249665883,0.9826901296830098
92.23057644110276,0.6089796659810367,0.573340694884854,-9.949226,-0.08555899999999994,0.09164100000000008,-0.055931,0.0278554548618295,0.0057072266540214,1.0762572308824256
93.23308270676692,0.6089800382597662,0.573340911654747,-9.915212,-0.1619219999999999,0.1363939999999999,-0.03777,0.0180816110506612,0.00310668606855,1.1888309850893526
94.23558897243107,0.6089804384637637,0.5733410964851149,-9.860158,-0.21830800000000017,0.13787200000000022,0.0002109999999999959,0.034156093461529,-0.0032637657012293,1.3085780250686836
95.23809523809524,0.6089808657203646,0.5733412406493111,-9.821733,-0.24267499999999997,0.10667099999999996,0.031221000000000002,0.0341910000465689,-0.0116238928182821,1.426824099344592
96.2406015037594,0.6089813111283896,0.5733413441473357,-9.825701,-0.23749999999999993,0.054199999999999804,0.043879,0.0262672052425146,-0.0157428698529888,1.5357501852280206
97.24310776942356,0.6089817635177318,0.5733414080263863,-9.874657,-0.231553,0.00719800000000026,0.037468,0.0210312174865316,-0.0153763507100699,1.632039842980915
98.24561403508773,0.6089822139872118,0.5733414357771215,-9.943129,-0.212707,-0.01688299999999998,0.002830000000000006,0.0190240888467382,-0.011030480872604,1.7116618332700662
99.24812030075188,0.6089826600933685,0.5733414312392654,-9.999738,-0.177056,-0.012603000000000364,-0.021482000000000008,0.0191462618943778,-0.0053407075111024,1.771735961403956
100.25062656641605,0.6089831055013937,0.5733413986016085,-10.02934,-0.133103,0.013880000000000337,-0.029565999999999995,0.01844813019358,0.0004712388980385,1.812437179186804
101.2531328320802,0.6089835563199394,0.5733413471143954,-10.022569,-0.086673,0.03846999999999978,-0.037363,0.0238586508747624,0.0047472955654246,1.8335382098434152
102.25563909774436,0.6089840167377961,0.5733412842825424,-9.993622,-0.04947400000000002,0.043620000000000214,-0.003173000000000002,0.0148527519344717,0.0024783675378319,1.8374826190463371
103.25814536340852,0.6089844885002929,0.5733412163892345,-9.977384,-0.024336999999999998,0.03415299999999988,0.019055000000000002,0.0152541776624304,-0.0008552113334772,1.8268186573166525
104.26065162907268,0.6089849658478433,0.5733411476232619,-9.982837,0.02457799999999999,0.029367000000000143,0.018439999999999998,-0.0082379540694132,-0.0047123889803846,1.805054366637698
105.26315789473684,0.6089854316762207,0.5733410840932771,-10.008802,-0.04559099999999999,-0.20175600000000005,0.014367999999999999,-0.0578751179961319,0.0099134701513279,1.9500911925718416
106.265664160401,0.6089858353708767,0.5733409865293719,-9.992696,-0.326103,-0.4006740000000002,-0.07760500000000001,0.1268679833274678,0.0188146493364989,2.254267331689046
107.26817042606515,0.6089861636673091,0.5733408917579936,-9.945395,-0.26485800000000004,-0.43264599999999986,0.021839,0.1104618883587211,-0.007958701389094,2.532106138234391
108.27067669172932,0.6089863973668959,0.5733407639998924,-9.927596,-0.1448919999999999,-0.3902730000000001,0.025847000000000002,0.152053084433746,-0.0140848070635941,2.762873571933081
109.27318295739347,0.6089865495596065,0.5733405892924341,-9.936645,-0.09363699999999997,-0.36530399999999996,0.02062,0.1217367153266045,-0.0157952297305485,2.96941583561409
110.27568922305764,0.6089866406657937,0.5733403952118215,-9.950048,-0.06428500000000015,-0.33191200000000004,-0.0032390000000000006,0.0287106661953067,-0.009529497715889,-3.1311032596918924
111.2781954887218,0.6089866785394383,0.5733401903101673,-9.956655,-0.05137999999999998,-0.273003,-0.013715999999999999,0.0703891287329313,-0.0004712388980383,-2.9724353250332105
112.28070175438596,0.608986669812792,0.5733399735402741,-9.946594,-0.04013500000000003,-0.24778,-0.008565000000000001,0.0164584548463065,0.0041364303272266,-2.829405732458615
113.28320802005013,0.6089866235615669,0.5733397503126628,-9.944637,-0.0005340000000000344,-0.22641100000000003,0.022241,0.0418879020478639,0.0077492618788548,-2.7030437898944704
114.28571428571428,0.6089865336771104,0.5733395267359855,-9.969217,0.01860100000000009,-0.251619,0.013484,0.0276111087665502,0.0128805298797181,-2.5910110004892
115.28822055137844,0.6089864003339556,0.5733393061263682,-9.979989,0.02390200000000009,-0.23003600000000002,-0.041022,0.0456054533546118,0.0193557014046172,-2.5076191688289104
116.2907268170426,0.6089862273718266,0.5733390898800739,-9.952138,0.010669999999999957,-0.16973799999999994,-0.020626,0.0276634686441101,0.0165980811864661,-2.4520829316567907
117.29323308270676,0.6089860200267115,0.5733388738083125,-9.917198,-0.013254000000000099,-0.13188199999999994,0.0006950000000000012,0.0188146493364988,0.0139975406009946,-2.423127989179375
118.29573934837092,0.6089857926103099,0.5733386544204254,-9.893602,-0.030596999999999985,-0.10494500000000007,0.018135,0.0166504410640259,0.0117984257434817,-2.419881589504203
119.29824561403508,0.608985549835011,0.5733384273530898,-9.880207,-0.06241399999999997,-0.06848500000000013,-0.005153000000000001,0.007051130178057,0.0129154364647581,-2.444996790173939
120.30075187969923,0.6089853007765267,0.5733381896392458,-9.856633,-0.0906039999999999,0.0047920000000001295,-0.007486,0.0025307274153917,0.0097563905186484,-2.49477366770728
121.3032581453634,0.6089850583502937,0.5733379377882347,-9.838496,-0.09876499999999999,0.06580799999999987,0.021769,-0.0026529004630313,0.0034557519189488,-2.562876292947051
122.30576441102755,0.6089848304102934,0.5733376700547274,-9.849096,-0.10220099999999999,0.07858700000000018,0.020113,-0.0027227136331111,-6.981317007981325e-05,-2.642725315665302
123.30827067669172,0.6089846249850404,0.5733373864387239,-9.842171,-0.10603800000000008,0.1335639999999999,-0.049102,-0.0091280719879303,0.0006457718232379,-2.732662132020569
124.31077694235589,0.6089844560371688,0.5733370855439609,-9.796548,-0.11530700000000005,0.22815000000000007,-0.008350999999999997,-0.0236143047794832,-0.0079761546816139,-2.827188902509195
125.31328320802004,0.6089843288026664,0.5733367673704381,-9.783828,-0.08959399999999995,0.1958049999999999,0.068856,-0.0074351026134958,-0.01535889741755,-2.90934156785386
126.3157894736842,0.6089842378710124,0.5733364350597486,-9.837237,-0.07033800000000001,0.12436400000000003,0.045158000000000004,0.0016057029118347,-0.0136484747505956,-2.980341718904622
127.31829573934836,0.6089841741664946,0.5733360910553531,-9.893367,-0.04961800000000016,0.13067700000000004,-0.034702,-0.0110304808726041,-0.0058817595792208,-3.0476589634342885
128.32080200501252,0.6089841354201853,0.573335741291371,-9.906811,-0.03472300000000006,0.17707099999999998,-0.041042,-0.0202632726156541,-0.0046600291028247,-3.109164680433834
129.32330827067668,0.608984126693539,0.5733353871640657,-9.893902,-0.027368999999999755,0.17813299999999999,-0.005109000000000001,-0.0250280214735986,-0.007068583470577,3.128066194807204
130.32581453634086,0.6089841507790827,0.5733350288479703,-9.897214,-0.029151999999999845,0.115655,0.027346000000000002,-0.0090757121103705,-0.0097912971036882,3.100908871646173
131.328320802005,0.6089841958085774,0.5733346659940187,-9.919219,-0.032261000000000095,0.054451,0.0014589999999999985,-0.013823007675795,-0.0071733032256966,3.087923831450845
132.33082706766916,0.60898425026285,0.57333429912581,-9.937006,-0.026086000000000276,0.02315600000000001,-0.003332999999999999,-0.0130725160974375,-0.0068416906678177,3.085445498819598
133.33333333333331,0.6089843017500629,0.5733339266725477,-9.949805,-0.024143000000000026,0.003255999999999981,-0.007388,-0.0103672557568463,-0.006422811647339,3.0926360284450123
134.3358395989975,0.6089843523646112,0.5733335509031596,-9.961557,-0.017904999999999838,-0.005213999999999996,0.013707999999999998,-0.0120078652537209,-0.007347836150896,3.107837881136468
135.33834586466165,0.6089843966959743,0.5733331726903108,-9.99409,-0.016659999999999897,-0.03173899999999999,0.017423,-0.0054279739737023,-0.0047123889803846,3.1278568600167205
136.3408521303258,0.608984434569619,0.5733327948265278,-10.02879,0.02787000000000006,-0.037026,-0.0142,0.0006806784082777,0.0002617993877991,-3.1174375236349947
137.34335839598998,0.6089844485322531,0.5733324431426835,-10.035367,0.2971779999999997,-0.282046,-0.057458999999999996,-0.0072082098107365,0.0258832328070759,-2.87726273036147
138.34586466165413,0.6089843848277354,0.573332145564046,-9.968295,0.3556830000000002,-0.44874800000000004,-0.043386999999999995,0.110182635678402,0.0165980811864661,-2.5741862010328997
139.34837092731829,0.6089843092549787,0.5733319225109677,-9.911416,0.372903,-0.30889599999999995,0.045586999999999996,0.0596379005406462,-0.0036128315516281,-2.319647400375339
140.35087719298244,0.6089841504300169,0.5733317622897424,-9.888737,0.352978,-0.21746200000000004,0.010478999999999999,0.0593761011528471,-0.0011868238913561,-2.0958614407642586
141.35338345864662,0.6089839326129262,0.5733316514613348,-9.882004,0.32053199999999993,-0.16074600000000006,0.024195,0.0636696111127531,-0.0040491638646267,-1.9011348292264485
142.35588972431077,0.6089836879177651,0.5733315835680269,-9.898582,0.28188100000000005,-0.12876599999999994,0.024672,0.0334405084682113,-0.0006981317007976,-1.7289753074636327
143.35839598997492,0.6089834166935993,0.5733315558172918,-9.919277,0.269687,-0.12309100000000006,-0.017985,0.038467056713955,0.0067195176201781,-1.5729955638254574
144.36090225563908,0.6089831250490813,0.5733315664638001,-9.909671,0.262248,-0.07483200000000001,-0.034789,0.048624872960562,0.0099832833214075,-1.4319556116915502
145.36340852130326,0.6089828217108574,0.5733316148094205,-9.878524,0.261376,-0.015163999999999955,0.0014129999999999976,0.0376816585505575,0.0057421332390614,-1.3056807785103737
146.3659147869674,0.6089825157546395,0.573331702599482,-9.867342,0.231391,-0.009301999999999921,0.025403000000000002,0.0324107642095347,0.0028099800957108,-1.200123178083294
147.36842105263156,0.6089822115437509,0.5733318245979966,-9.863147,0.19656099999999999,-0.012384000000000173,-0.012085,0.0367915406320404,0.004310963252426,-1.1226129489225924
148.37092731829574,0.6089819066347304,0.5733319771397731,-9.861039,0.1808789999999999,-0.0010299999999998644,0.02649,0.0266860842629932,0.0012217304763961,-1.0712309793426542
149.3734335839599,0.6089815947443931,0.5733321556869556,-9.890321,0.12007500000000015,-0.06875199999999992,0.012210000000000002,0.0122347580564802,0.0044156830075456,-1.054196338950388
150.37593984962405,0.6089812713348828,0.5733323495930356,-9.888512,0.06570799999999988,-0.07759800000000006,-0.063163,0.0119205987911212,0.0116064395257624,-1.0651216986421437
151.3784461152882,0.6089809362316663,0.5733325525748276,-9.841555,0.022039000000000142,-0.04764999999999997,-0.007504999999999998,0.0129503430497979,0.0048694686130641,-1.1018791704471849
152.38095238095238,0.608980589260211,0.5733327513678295,-9.815995,-0.05442800000000014,-0.072797,0.033558000000000004,0.0020071286397934,-0.0024085543677521,-1.1660368454319665
153.38345864661653,0.6089802291987864,0.5733329361981973,-9.819124,-0.11803600000000003,-0.09590700000000019,0.023667,-0.0011170107212763,-0.0067893307902577,-1.248451571963819
154.38596491228068,0.6089798553492606,0.573333097815686,-9.84271,-0.15031399999999995,-0.10727699999999984,0.009212999999999999,0.002146754979953,-0.0066497044500983,-1.3382485699927094
155.3884711779449,0.6089794609048497,0.5733332320315053,-9.850034,-0.176149,-0.0781909999999999,-0.033768,-0.0157079632679489,-0.0043109632524258,-1.4286043002750417
156.39097744360902,0.6089790558139302,0.5733333346568654,-9.840961,-0.19526699999999997,-0.029108000000000356,0.016996,-0.0205076187109333,-0.0108908545324446,-1.5155043135450088
157.39348370927317,0.6089786442652927,0.5733334056917659,-9.868245,-0.195378,-0.04484699999999986,0.031479,-0.0024958208303518,-0.0125140107367993,-1.5919673975143906
158.39598997493732,0.6089782264334697,0.5733334440890095,-9.893028,-0.17318299999999998,-0.03744000000000014,-0.039420000000000004,-0.0126536370769588,-0.0056374134839416,-1.6551130782389871
159.3984962406015,0.6089778030165932,0.5733334542119192,-9.8841,-0.14497500000000002,0.00966800000000001,6.0999999999999965e-05,-0.0152367243699104,-0.0102101761241668,-1.7048555902393572
160.40100250626566,0.6089773776798545,0.5733334437399437,-9.91244,-0.10798,-0.024995999999999796,0.047409,-0.0043633231299858,-0.0114842664781227,-1.7366548085322857
161.4035087719298,0.608976947107128,0.5733334189562682,-9.954054,-0.069516,-0.04860700000000007,-0.025749,-0.0112748269678833,-0.0030019663134301,-1.75302632852855
162.406015037594,0.6089765093785515,0.5733333840496833,-9.95343,-0.047693999999999986,-0.015356999999999843,-0.042061,-0.0094771378383292,-0.0022689280275924,-1.7599025941688498
163.40852130325814,0.6089760653667898,0.5733333435580447,-9.930052,-0.03414400000000001,0.004013000000000044,0.0022070000000000006,-0.0091455252804502,-0.007993607974134,-1.7572149442004108
164.4110275689223,0.6089756246711537,0.5733332995757474,-9.935957,-0.011320999999999998,-0.005017000000000049,0.056086,-0.0157603231455087,-0.0129503430497979,-1.7439854182834635
165.41353383458645,0.6089751804848591,0.5733332578623783,-9.991031,0.038439,-0.05588199999999999,0.016479,0.0024958208303518,-0.0066147978650583,-1.7206502789178375
166.41604010025063,0.6089747265247207,0.5733332252247213,-10.017722,0.07112899999999998,-0.05004300000000006,-0.057693,0.0105592419745656,0.00307177948351,-1.695569688127168
167.41854636591478,0.6089742685503249,0.573333202709974,-9.987075,0.03703600000000001,0.07837300000000003,-0.041795,0.0530929158456675,0.0018325957145941,-1.6839460571082747
168.42105263157893,0.6089738378030655,0.5733331870020106,-9.951062,0.024152999999999994,0.19365500000000013,0.048025,-0.0618893752757189,-0.011955505376161,-1.6212014355924922
169.4235588972431,0.6089734485946423,0.5733331988702496,-9.97398,0.333112,0.21606499999999973,0.004135,-0.0015533430342749,0.0208217779762924,-1.3636780346475592
170.42606516290726,0.6089731237888686,0.5733332686834197,-9.961303,0.448867,0.29148799999999997,-0.036031999999999995,0.1181064304824563,0.0106988683147253,-1.061666505228556
171.42857142857142,0.6089728539609662,0.5733333779410309,-9.929188,0.432431,0.21721400000000002,0.002567,0.1185951226730147,-0.0077143552938148,-0.866835505548184
172.43107769423557,0.6089726068223441,0.5733335592807401,-9.899834,0.21516000000000002,0.08276300000000014,-0.006844000000000003,0.0876329817426353,-0.005811946409141,-0.817634132882396
173.43358395989975,0.6089723701556976,0.5733338039759013,-9.869044,0.12865899999999986,0.02067299999999994,0.009832,-0.0037873644768276,-0.0028274333882307,-0.814074010274178
174.4360902255639,0.6089721326163864,0.573334070487678,-9.863786,0.09273500000000001,-0.026642999999999972,0.037209,0.023387411976724,-0.000279252680319,-0.8187862072683452
175.43859649122803,0.6089718757039205,0.5733343373485207,-9.89564,0.051319000000000115,-0.06369000000000002,0.020603000000000003,0.0019896753472735,0.0069638637154574,-0.819187824982522
176.44110275689223,0.608971603781623,0.5733346024640341,-9.904672,0.0003849999999998577,-0.002745999999999915,-0.060033,-0.0083426738245328,0.0172438530097041,-0.8151387483843566
177.4436090225564,0.6089713320338584,0.5733348644379548,-9.84382,0.0020260000000000833,0.061011999999999844,-0.059015000000000005,0.0118333323285215,0.0155159770502295,-0.8107402743232363
178.44611528822054,0.6089710744232608,0.573335120477756,-9.769207,-0.006604000000000054,0.06522400000000017,0.03911100000000001,0.0079587013890941,0.0004188790204786,-0.8106358687273815
179.4486215538847,0.6089708300771656,0.5733353737250305,-9.765224,-0.013387999999999955,-0.005383000000000138,0.076383,-0.0020245819323134,-0.0089186324776908,-0.8164298556985197
180.45112781954887,0.6089705871273337,0.5733356236561795,-9.797234,-0.02099899999999999,-0.02119099999999996,-0.01182,-0.0080634211442138,-0.0053232542185825,-0.8217007849461277
181.45363408521305,0.6089703410359091,0.5733358714929332,-9.798654,-0.016553999999999958,0.028145000000000087,-0.028116,-0.0001221730476396,-0.0042411500823462,-0.8222595171995692
182.4561403508772,0.6089700952935504,0.5733361161880943,-9.796014,-0.015635000000000066,0.026123999999999814,0.018320999999999997,-0.0032463124087094,-0.0092676983280899,-0.8234467425166525
183.45864661654133,0.6089698542635807,0.5733363577416628,-9.811779,-0.014653999999999945,0.006280000000000063,0.010982,-0.0044680428851054,-0.0114319066005628,-0.8254361211579538
184.4611528822055,0.6089696172478684,0.5733365975499021,-9.826281,-0.020591000000000026,0.0069270000000001275,-0.012948,-0.0032114058236695,-0.0104021623418861,-0.8273205880579166
185.4636591478697,0.6089693809302876,0.5733368340420156,-9.825944,-0.02624800000000005,0.020715999999999957,-0.012137,-0.0027227136331111,-0.010105456369047,-0.8295725514851802
186.46616541353384,0.6089691482778984,0.573337066519872,-9.823631,-0.008441999999999839,0.029390000000000027,0.010419000000000001,0.0022689280275926,-0.0132470490226368,-0.8311262435853053
187.468671679198,0.6089689213850956,0.5733372982995967,-9.84315,-0.005611000000000033,0.017894999999999994,0.027278,-0.0014311699866353,-0.0152018177848705,-0.8329409147684814
188.47117794486212,0.6089686979829514,0.5733375281594592,-9.887387,-0.022567000000000004,-0.003742000000000134,0.017257,-0.0046949356878647,-0.0127409035395584,-0.8366581519159645
189.4736842105263,0.608968470392017,0.5733377538305314,-9.929387,-0.03182900000000011,-0.013978999999999964,-0.021957000000000004,-0.0074176493209759,-0.0066671577426182,-0.8400094807857662
190.47619047619045,0.6089682415793519,0.573337976709077,-9.936431,-0.015670000000000073,0.017611000000000043,-0.039474999999999996,-0.0006632251157578,-0.0012217304763959,-0.8390842992025764
191.47869674185463,0.6089680180026747,0.5733381967950957,-9.916476,0.0006430000000001712,0.04362599999999994,-0.006461,0.0025132741228718,-0.0031590459461097,-0.8361873144436534
192.4812030075188,0.6089678008837158,0.5733384163575155,-9.907012,-0.008305000000000007,0.0235510000000001,0.016693,-8.72664625997168e-05,-0.0065449846949787,-0.8376882626937833
193.4837092731829,0.6089675888262117,0.5733386340000732,-9.912085,-0.024402000000000035,0.002078999999999942,0.011791,-0.003996803987067,-0.0087790061375314,-0.8431163239339486
194.48621553884712,0.6089673767687076,0.5733388488501042,-9.93199,-0.021824000000000066,-0.007764000000000104,0.01678,-0.0037873644768276,-0.0084648468721724,-0.8479158746571775
195.48872180451127,0.6089671620932096,0.5733390598604108,-9.962547,-0.013221999999999845,0.017431000000000196,2.3999999999999716e-05,-0.0026354471705114,-0.0031939525311495,-0.8566425209171497
196.49122807017545,0.6089669563188909,0.5733392626676699,-9.981338,-0.0929270000000002,0.03364199999999995,-0.015316,0.0510159740357942,0.002460914245312,-0.9786760120297632
197.4937343358396,0.6089667400725964,0.5733394434837803,-9.984433,-0.19941799999999987,-0.09369200000000011,-0.009826,0.1091005315421655,0.0065798912800187,-1.1899307345043264
198.49624060150376,0.6089665400578641,0.5733396007379459,-9.967673,-0.291652,-0.09382000000000001,-0.041005,0.0361457688088025,0.0173311194723038,-1.4204363862685112
199.4987468671679,0.6089663182265161,0.5733397085992937,-9.926287,-0.317661,-0.06609500000000001,0.00033400000000000096,-0.0019547687622336,0.0104021623418861,-1.6393354414272994
200.5012531328321,0.6089660730077563,0.5733397585157103,-9.894576,-0.30824799999999997,-0.045882999999999896,0.01874,0.0294960643587041,0.0004014257279587,-1.8213385329049
201.50375939849624,0.6089658174915539,0.5733397543269202,-9.885842,-0.28779299999999997,-0.015805999999999987,0.022938,-0.0010646508437165,-0.0054803338512621,-1.973251624479344
202.5062656641604,0.608965553597771,0.5733397016179768,-9.908371,-0.251672,0.001234999999999875,0.026552,0.0312239403181785,-0.0065798912800185,-2.104552936093095
203.50877192982452,0.6089652888313234,0.5733396098136581,-9.936911,-0.23605600000000004,0.03188400000000002,-0.010813999999999997,0.0562345084992572,-0.0024783675378319,-2.2217519873507325
204.5112781954887,0.6089650313952587,0.5733394836263531,-9.943145,-0.22325899999999999,0.05766400000000016,-0.020816,0.0501782159948369,-0.0008552113334772,-2.3200138497050875
205.51378446115288,0.6089647839075708,0.5733393248013912,-9.935205,-0.19825000000000004,0.05912699999999993,-0.000562,0.0473333293140862,-0.0041364303272264,-2.3965115610068293
206.51629072681703,0.608964550382517,0.573339136131299,-9.934784,-0.143162,0.07552999999999988,0.007686,0.0434936049596986,-0.0074176493209758,-2.452257377315528
207.5187969924812,0.6089643336126239,0.5733389319277765,-9.945158,-0.06446299999999994,0.07895500000000011,0.015688,0.0272794962086713,-0.0106116018521253,-2.4755051804053845
208.5213032581453,0.6089641271401732,0.57333872091747,-9.976041,-0.017239000000000004,0.015042,0.013742000000000004,0.0299673032567426,-0.0101229096615671,-2.460826891582942
209.52380952380952,0.6089639231111836,0.5733385130487562,-10.004107,0.02451200000000009,-0.03949800000000003,-0.017348000000000002,0.0370882466048795,-0.0061086523819799,-2.4155182663742174
210.52631578947367,0.6089637117518113,0.5733383125104251,-10.017166,0.047896999999999856,-0.055320000000000036,-0.0051220000000000016,0.0508938009881546,-0.0066497044500983,-2.349283056167618
211.52882205513785,0.6089634839863439,0.5733381227931353,-10.028971,0.067936,-0.08670399999999989,-0.0006329999999999999,0.0435459648372585,-0.0063006385996995,-2.262906886019344
212.531328320802,0.6089632392911829,0.5733379468639467,-10.037938,0.1064360000000002,-0.09574600000000011,-0.005332999999999999,0.0463908515180092,-0.0053581608036226,-2.1618694789154187
213.53383458646616,0.6089629745247352,0.5733377906569788,-10.046421,0.14798999999999984,-0.10590199999999994,0.004276,0.0598473400508855,-0.0068242373752978,-2.050081175231767
214.5363408521303,0.6089626886398039,0.5733376613280811,-10.057507,0.18909300000000007,-0.10417999999999994,1.0999999999998858e-05,0.0626573201465964,-0.0077318085863349,-1.9315907374072876
215.5388471177945,0.6089623842543822,0.5733375651604393,-10.068992,0.21236099999999997,-0.07734400000000008,0.004346000000000001,0.0693244778892147,-0.0073303828583761,-1.812210286384045
216.54135338345864,0.6089620659063267,0.573337505295646,-10.08877,0.22613900000000003,-0.050688000000000066,0.010263,0.0642455697659112,-0.0058643062867009,-1.693370451096608
217.5438596491228,0.6089617390061578,0.5733374827808986,-10.110408,0.22444899999999998,-0.019331999999999905,-0.007528,0.0549604181453014,-0.0003839724354386,-1.5790340190649224
218.54636591478692,0.6089614122805219,0.5733374949982034,-10.120812,0.19805,0.014645999999999937,-0.012206999999999999,0.0505447351377557,0.0035779249665883,-1.4720803995823426
219.54887218045116,0.6089610913144724,0.5733375368861054,-10.117903,0.173735,0.04431099999999999,-0.017476,0.0491135651511204,0.0070511301780571,-1.3700136845520534
220.55137844611528,0.6089607832638594,0.5733376060011438,-10.098799,0.17268100000000003,0.07378000000000018,-0.008933000000000002,0.0536688744988256,0.0068765972528577,-1.2728860767719845
221.55388471177943,0.6089604907466768,0.5733377012961209,-10.08625,0.17969999999999997,0.08125799999999983,0.023491,0.0489739388109608,0.0043982297150257,-1.1852707403080862
222.5563909774436,0.6089602135883915,0.5733378218983723,-10.104746,0.13102000000000003,0.06697799999999998,0.026591,0.0363552083190418,0.007103490055617,-1.1113562908322223
223.55889724310777,0.608959948821944,0.5733379608265807,-10.129442,0.08081399999999994,0.06169900000000017,-0.01755,0.0282219740047483,0.0146782190092724,-1.0460982032073514
224.56140350877192,0.6089596957492025,0.573338111797561,-10.11951,0.06809300000000007,0.08058699999999996,-0.043769,0.0275762021815104,0.0200189265203749,-0.9860236736477348
225.56390977443607,0.6089594597806876,0.5733382711461217,-10.071441,0.07375299999999996,0.10626899999999995,-0.024452,0.0375071256253581,0.0183783170235003,-0.9321628478377744
226.56641604010025,0.6089592440579921,0.5733384390467958,-10.022096,0.06147100000000005,0.09526600000000007,0.020907000000000002,0.0415213829049451,0.010751228192285,-0.8913743984989122
227.5689223057644,0.6089590442177928,0.5733386161977149,-10.007273,0.037447999999999926,0.05629799999999996,0.038547,0.0288502925354662,0.0065624379874986,-0.8623667121714995
228.57142857142856,0.6089588550241019,0.5733387991082205,-10.023149,0.016043999999999947,0.02612599999999987,0.015775,0.0131597825600372,0.0091280719879303,-0.8383684349565778
229.5739348370927,0.608958668099339,0.5733389835895224,-10.033036,0.003858000000000139,0.0279640000000001,-0.025534,0.0106988683147252,0.0152192710773906,-0.8173379854149171
230.5764411027569,0.6089584853633662,0.5733391675472256,-10.011278,0.017642999999999853,0.05496100000000004,-0.026850999999999996,0.0267035375555132,0.0167900674041854,-0.7991688286489764
231.57894736842104,0.6089583111795069,0.573339353250258,-9.974639,0.025696000000000163,0.046114999999999906,-0.0024380000000000027,0.0317126325087369,0.0131074226824774,-0.7879286988266226
232.5814536340852,0.6089581453732279,0.5733395434911465,-9.939023,0.005244999999999944,0.020954000000000028,0.0011960000000000026,0.0252549142763579,0.0087091929674518,-0.783303855561517
233.58395989974937,0.6089579861992003,0.5733397356518971,-9.908354,-0.001964000000000077,0.014546999999999977,0.011439999999999995,0.0285012266850674,0.0033510321638292,-0.7801442860166328
234.58646616541355,0.608957825628909,0.5733399265909173,-9.898735,-4.099999999995774e-05,0.0012170000000000236,0.025973000000000003,0.0308225145902198,-0.0018325957145939,-0.7795690429484677
235.58897243107768,0.6089576627896898,0.5733401171808715,-9.909027,0.011557999999999957,-0.0028960000000000097,0.010538,0.0240157305074419,-0.0029321531433503,-0.7790971233720214
236.59147869674183,0.6089574997759376,0.573340309690688,-9.921316,0.011287000000000047,0.002879000000000076,-0.0050230000000000006,0.0223751210105673,-0.0014660765716751,-0.7786262858997105
237.593984962406,0.6089573364131197,0.573340503771301,-9.925118,-0.00463900000000006,0.0020479999999999388,-0.010954,0.0172787595947438,-3.49065850397956e-05,-0.7787482495078396
238.59649122807016,0.6089571749701639,0.5733406980264466,-9.91398,-0.005927999999999933,0.005755999999999983,-0.015948,0.0216944426022895,-0.0005235987755982,-0.7780499607274091
239.59899749373432,0.6089570149234714,0.5733408908853289,-9.892481,-0.0026330000000001075,0.012840999999999991,-4.9999999999980616e-06,0.0291993583858651,-0.0042586033748661,-0.7768632590091012
240.6015037593985,0.6089568578438387,0.5733410821734151,-9.88628,0.0014850000000001806,0.007189000000000001,0.026541,0.027995081201989,-0.0099483767363677,-0.7757468591530624
241.60401002506265,0.6089567002406073,0.573341273461501,-9.907193,0.005865000000000009,-0.015341999999999967,0.018778,0.0257436064669163,-0.0110479341651239,-0.7743854674299213
242.6065162907268,0.6089565393212503,0.573341467367581,-9.92808,0.013369999999999882,-0.011793999999999971,-0.018137999999999998,0.0190240888467381,-0.0069813170079773,-0.7694287847141351
243.60902255639093,0.6089563761329653,0.57334166301899,-9.92052,0.006259999999999932,0.015718999999999927,-0.032171,0.0189542756766584,-0.0042236967898261,-0.7624124214947782
244.61152882205516,0.608956218006135,0.5733418586703993,-9.892879,-0.002694999999999892,0.03361800000000004,0.001910000000000002,0.0275412955964705,-0.0080459678516937,-0.7558674367997995
245.6140350877193,0.6089560649407595,0.5733420537982096,-9.897343,-0.006377000000000077,-0.0005830000000000002,0.055033,0.030159289474462,-0.0140324471860342,-0.7515387410021737
246.61654135338344,0.6089559099555221,0.5733422480533553,-9.94961,0.000476000000000143,-0.03439199999999998,0.022447999999999996,0.0190939020168179,-0.0109083078249645,-0.7436147716651942
247.6190476190476,0.608955751479626,0.5733424442283633,-9.979006,0.016928999999999972,0.0047359999999999625,-0.063871,0.0169296937443449,-0.0010471975511965,-0.7292161194955062
248.62155388471177,0.6089555950981249,0.5733426421487005,-9.936547,0.014664999999999928,0.06819700000000006,-0.054287,0.0353254640603652,-8.726646259971105e-05,-0.7133159780236203
249.62406015037595,0.6089554507593957,0.5733428423379656,-9.892236,0.009535000000000071,0.04595799999999994,0.052013000000000004,0.0462337718853297,-0.0117286125734017,-0.7036646912325273
250.62656641604008,0.6089553135765167,0.5733430440980273,-9.922265,0.00938299999999992,-0.03466199999999997,0.066181,0.0229161730786855,-0.0145560459616327,-0.697346599340307
251.62907268170423,0.6089551708085837,0.5733432477779509,-9.970987,0.0025919999999999277,-0.03458799999999995,-0.02986,0.0043982297150257,-0.0047647488579445,-0.6848324140705826
252.6315789473684,0.608955020884801,0.5733434519814734,-9.969174,0.003846000000000016,0.028322999999999987,-0.052948999999999996,0.0226020138133265,0.000628318530718,-0.6658254294505135
253.63408521303256,0.6089548735790121,0.57334365583593,-9.937008,0.0119680000000002,0.05267199999999994,-0.001080000000000001,0.0364948346592014,-0.0036477381366681,-0.6478837065393998
254.63659147869672,0.6089547390141268,0.5733438609121172,-9.923076,0.01164199999999993,0.02861900000000006,0.029606,0.0300545697193423,-0.0093026049131297,-0.6332576379681777
255.6390977443609,0.6089546130013548,0.5733440696534956,-9.933963,0.00854699999999986,0.012373999999999996,0.013221,0.0231605191739647,-0.0104719755119659,-0.6186491274092296
256.64160401002505,0.6089544896065767,0.5733442796166046,-9.946497,0.009747000000000172,0.014343999999999912,-0.006387,0.0232652389290844,-0.0100880030765271,-0.6035697793779716
257.64411027568923,0.6089543658627328,0.5733444916741088,-9.953335,0.02004499999999987,0.013322000000000056,-0.0009110000000000004,0.0265290046303138,-0.0097040306410884,-0.5892057545406434
258.6466165413533,0.6089542442132839,0.5733447065241397,-9.963117,0.01171000000000011,0.006390000000000007,0.004288999999999999,0.0197571271325758,-0.0075223690760954,-0.5748763395823827
259.64912280701753,0.6089541236110326,0.5733449222468353,-9.96943,-0.0070550000000000335,0.01123799999999997,-0.012787999999999999,0.0147829387643919,-0.0055676003138618,-0.5578246647766153
260.6516290726817,0.6089540066739727,0.5733451370968662,-9.956613,0.000496000000000052,0.03204700000000005,-0.020429,0.0289899188756258,-0.0068940505453776,-0.5394115633411228
261.65413533834584,0.6089538965436969,0.5733453517723641,-9.937539,0.01721499999999998,0.041463999999999945,0.010275,0.0371056998973994,-0.0109606677025242,-0.5236163510638667
262.65664160401,0.6089537940928698,0.5733455683677244,-9.940577,0.019237999999999866,0.02428700000000006,0.027645,0.0296705972839036,-0.0134739418253961,-0.5106835136664661
263.65914786967414,0.6089536961798988,0.5733457900245393,-9.962687,0.009685000000000166,0.0067469999999999475,0.006402999999999999,0.0199142067652553,-0.0118158790360014,-0.4988851751894477
264.6616541353383,0.6089535993141252,0.5733460132521507,-9.981027,0.002810999999999897,0.005952999999999986,-0.010258,0.0171565865471042,-0.0089186324776908,-0.4857424794027863
265.6641604010025,0.6089535024483518,0.5733462359561632,-9.987372,-7.2000000000072e-05,0.012164999999999981,-0.012568,0.0227416401534861,-0.0064926248174188,-0.4711169169770477
266.66666666666663,0.6089534062807099,0.5733464579620441,-9.978541,-0.005971999999999866,0.016596000000000055,-0.014939000000000001,0.0294611577736642,-0.0056199601914217,-0.4561068236105082
267.6691729323308,0.6089533143018585,0.5733466792697932,-9.961258,0.0024809999999999555,0.024822999999999984,0.001498000000000001,0.0304909020323409,-0.0094073246682493,-0.4409049534657605
268.671679197995,0.6089532282571263,0.5733469024974045,-9.955997,0.02421999999999991,0.03309699999999999,0.019844,0.0321315115292156,-0.0132994089001967,-0.4264887432837974
269.6741854636591,0.6089531488446454,0.5733471293902074,-9.972617,0.017889000000000044,0.021340000000000026,0.020198,0.0219387886975687,-0.0128805298797181,-0.4148123684149072
270.6766917293233,0.6089530720501583,0.5733473585519381,-10.001024,-0.0039559999999998485,-0.007415000000000005,-0.0012670000000000008,0.0120253185462409,-0.0084299402871326,-0.4035722385925543
271.6791979949875,0.6089529945575395,0.573347587539136,-10.012512,-0.01221400000000017,0.002697999999999978,-0.030043,0.0186750229963393,-0.0041538836197463,-0.3882313704261764
272.6817042606516,0.6089529181121183,0.5733478144319387,-9.994122,0.0011780000000001234,0.04136000000000001,-0.020862,0.0357617963733638,-0.0051487212933831,-0.3705330511325463
273.6842105263158,0.6089528482989481,0.5733480402775439,-9.974223,0.018021999999999982,0.03967700000000002,0.018638000000000002,0.0344702527268879,-0.0100530964914873,-0.3576353646662807
274.68671679198,0.6089527858161609,0.5733482706610052,-9.983271,0.01889699999999994,0.010226000000000013,0.029551,0.0189891822616983,-0.0104545222194458,-0.3474775484196739
275.6892230576441,0.6089527264749663,0.5733485036624604,-10.010254,-0.002677999999999958,-0.003931999999999991,0.0035540000000000016,0.0133168621927167,-0.0057944931166211,-0.3353473704919729
276.69172932330827,0.6089526657375084,0.5733487356167178,-10.026404,-0.012888999999999928,0.004480999999999957,-0.022505,0.0195476876223364,-0.0025307274153916,-0.3204949327167664
277.6942355889724,0.6089526043019187,0.5733489651275145,-10.013577,0.0037169999999999703,0.02528400000000003,-0.030643,0.0296880505764235,-0.0023911010752322,-0.3046997204395104
278.69674185463657,0.6089525491495144,0.57334919516191,-9.980046,0.014807000000000015,0.046958,-0.004616000000000002,0.0331088959103324,-0.0046600291028247,-0.2897423360163815
279.69924812030075,0.6089525042945526,0.5733494276397664,-9.967027,0.005241999999999969,0.034278,0.043219,0.0285884931476671,-0.0082903139469729,-0.2787813017947134
280.7017543859649,0.6089524639774468,0.5733496611648203,-10.001888,-0.002242999999999995,-0.012218000000000007,0.038279,0.016283921921107,-0.007958701389094,-0.2697755599340559
281.70426065162906,0.6089524222640778,0.573349895213473,-10.043613,-0.0008760000000000989,-0.012944000000000011,-0.026816999999999997,0.0131423292675173,-0.0016057029118348,-0.2568778734677901
282.70676691729324,0.6089523777581818,0.5733501287385269,-10.038213,0.004209000000000129,0.026573000000000013,-0.051261,0.0249756615960388,0.0019722220547535,-0.2409953074614723
283.70927318295736,0.6089523367429444,0.5733503622635808,-9.995973,0.005892999999999926,0.04164499999999999,-0.017453,0.0320267917740959,-0.0002443460952792,-0.2264389997004514
284.71177944862154,0.6089523053270178,0.5733505959631676,-9.95575,-0.0010490000000000776,0.035303,0.019570999999999998,0.0272794962086713,-0.0058992128717407,-0.2142566364281164
285.7142857142857,0.6089522826377376,0.5733508308844849,-9.953016,-0.0012389999999999901,0.01520400000000001,0.049514,0.0221656815003279,-0.0111352006277236,-0.2043608639154047
286.71679197994985,0.6089522599484573,0.5733510656312694,-9.99968,0.005473000000000061,-0.016022999999999996,0.03819,0.0160744824108677,-0.0097563905186481,-0.1945348696661864
287.719298245614,0.6089522321977222,0.5733513015997842,-10.053186,0.006013000000000046,-0.020161000000000012,-0.027226,0.0134390352403563,-0.0010471975511965,-0.181042758963277
288.7218045112781,0.6089522004327298,0.5733515382664307,-10.050722,-0.0010209999999999386,0.028349000000000013,-0.069924,0.0222878545479675,0.0052883476335428,-0.1626994357912796
289.72431077694233,0.6089521768707848,0.5733517742349457,-9.991906,-0.004041000000000183,0.069043,-0.030018999999999997,0.0349414916249264,0.0016929693744345,-0.1447406784666649
290.7268170426065,0.608952167271474,0.5733520091562629,-9.93961,-0.005158999999999914,0.050352,0.03933299999999999,0.0348542251623267,-0.0081332343142934,-0.1327846843983134
291.72932330827064,0.6089521670969411,0.5733522439030474,-9.9466,0.0030410000000000714,-0.0049429999999999995,0.065195,0.0219562419900886,-0.0142593399887935,-0.124721158534345
292.7318295739348,0.6089521651770788,0.573352480569694,-10.002299,0.012643999999999878,-0.030035,0.022631,0.0115540796482024,-0.0103672557568461,-0.1146858294946426
293.734335839599,0.608952155577768,0.573352718458071,-10.048512,0.006817999999999991,-0.005381999999999998,-0.038062,0.014748032179352,-0.0013962634015953,-0.0991521548057978
294.7368421052631,0.6089521442331278,0.5733529570445798,-10.042383,-0.007269999999999888,0.034263,-0.053158,0.0247836753783194,0.0035255650890286,-0.0806863269736031
295.7393483709273,0.608952141615134,0.5733531942348251,-10.001075,-0.012129999999999974,0.057021,-0.010245,0.032934362985133,0.0011519173063163,-0.0625874895232245
296.7418546365915,0.6089521517380436,0.5733534282834777,-9.973703,-0.009208000000000105,0.043543000000000005,0.033642,0.0336324946859307,-0.0051312680008632,-0.0486074894812127
297.7443609022556,0.6089521698894679,0.5733536619830647,-9.987585,0.006485999999999992,0.002340999999999996,0.036545,0.0235270383168835,-0.0088662726001311,-0.0395665792361266
298.7468671679198,0.6089521845502336,0.5733538977770465,-10.019217,0.016139000000000125,-0.019905999999999993,-0.002031999999999999,0.0154287105876298,-0.0053232542185825,-0.0289379080639167
299.749373433584,0.6089521964184724,0.5733541354908908,-10.033646,0.0037199999999999456,-0.0007010000000000072,-0.027021,0.0144164196214731,0.0005235987755982,-0.0127586709913443
300.7518796992481,0.6089522074140468,0.573354372681136,-10.022141,-0.013516000000000084,0.03627,-0.020128,0.024905848425959,0.0017976891295541,0.0068765972528576
301.7543859649123,0.6089522266126686,0.5733546072533875,-10.001268,-0.008550000000000058,0.047312999999999994,0.0028269999999999997,0.0310319541004591,-0.0020594885173532,0.0233525053916841
302.7568922305764,0.6089522557596672,0.5733548407784415,-9.992898,0.0025170000000001025,0.02841100000000002,0.019426,0.0240855436775217,-0.0044854961776252,0.0355872634481643
303.7593984962406,0.6089522913643838,0.5733550746525612,-10.005486,-0.0023610000000000575,-0.001800999999999997,0.018785,0.0178721715404219,-0.0040666171571466,0.047996554429844
304.7619047619048,0.6089523250492385,0.5733553093993455,-10.025272,-0.0010129999999999306,-0.009919000000000011,-0.008289,0.0166504410640259,-0.0025132741228717,0.0625875069765166
305.7644110275689,0.6089523566396979,0.573355543971597,-10.023544,0.0006990000000000052,0.028092000000000006,-0.028152999999999997,0.0260403124397553,-0.000593411945678,0.0792204947480226
306.76691729323306,0.6089523931170792,0.5733557781947827,-10.003484,-0.0047960000000000225,0.054068000000000005,-0.0013839999999999998,0.0299673032567426,-0.0017104226669544,0.0956614963018092
307.76942355889724,0.6089524400664361,0.5733560111962378,-9.997059,-0.004895000000000094,0.025066000000000005,0.022348,0.0231779724664846,-0.0044680428851053,0.1085769327665672
308.77192982456137,0.6089524929499125,0.57335624402316,-10.007746,0.0011250000000000426,-0.006474000000000035,0.00757,0.0178896248329418,-0.0041713369122664,0.1197993998568908
309.77443609022555,0.6089525444371253,0.5733564763264835,-10.016916,-0.0030719999999999636,0.0007010000000000072,-0.008318,0.0192858882345373,-0.0012915436464757,0.1334653279000064
310.77694235588973,0.608952594179009,0.573356708280741,-10.016984,-0.009409999999999918,0.019257999999999997,-0.010125,0.0247313155007596,-0.0006108652381979,0.148963851657716
311.77944862155385,0.608952648109683,0.5733569390132681,-10.00747,-0.0036890000000000533,0.03393099999999999,-0.006586999999999999,0.026145032194875,-0.0029321531433503,0.1639213233473074
312.78195488721803,0.6089527097198055,0.5733571692221966,-9.996462,0.0015359999999999818,0.03820000000000001,0.004761,0.0256388867117967,-0.0038746309394273,0.1773079812568113
313.7844611528822,0.6089527783112452,0.5733573987329931,-9.996144,-0.009883000000000086,0.015686000000000033,0.016156999999999998,0.0182386906833407,-0.0023911010752322,0.1888446250657865
314.78696741854634,0.6089528482989481,0.5733576266729934,-10.013505,-0.009881999999999946,-0.013661000000000034,0.015460000000000002,0.0163362817986669,-0.0027925268031909,0.2003986872606964
315.7894736842105,0.6089529158431901,0.5733578544384608,-10.033067,0.011109999999999953,-0.012449999999999961,-0.015147,0.0216071761396898,-0.0021467549799529,0.2143438854374235
316.79197994987464,0.6089529800713067,0.5733580846473892,-10.023815,0.012758000000000047,0.023336999999999997,-0.035388,0.0210661240715715,0.0007330382858377,0.2317273473339945
317.7944862155388,0.6089530507571413,0.5733583155544493,-9.987161,-0.014253000000000071,0.056983000000000006,-0.011682000000000001,0.0253421807389576,0.0009948376736368,0.249616989620229
318.796992481203,0.6089531324385504,0.5733585434944496,-9.959855,-0.03518999999999983,0.04636299999999999,0.026108,0.0248011286708394,-0.0037873644768275,0.2641206582510094
319.7994987468672,0.6089532249410007,0.5733587651512646,-9.968285,-0.01698299999999997,0.008089999999999986,0.037128,0.0256214334192767,-0.0089535390627308,0.2743133810826562
320.8020050125313,0.608953317617984,0.5733589854118162,-10.001802,0.014591999999999938,-0.01195400000000002,0.00929,0.0228289066160858,-0.0079063415115343,0.283493830401439
321.8045112781955,0.6089534054080454,0.5733592088139604,-10.030918,0.017673999999999968,-0.005626999999999993,-0.012347,0.0181688775132609,-0.0022514747350725,0.2956936993261718
322.8070175438596,0.6089534907546458,0.5733594364048948,-10.043745,0.002645999999999926,0.00916800000000001,-0.016833,0.0171042266695444,0.0024783675378319,0.3120474169640662
323.8095238095238,0.6089535785447071,0.5733596643448952,-10.034257,-0.012851999999999864,0.019344000000000028,-0.028523999999999997,0.0200538331054148,0.0045727626402252,0.3314554607929506
324.812030075188,0.6089536719198222,0.573359888445171,-9.99493,-0.025786000000000087,0.03231199999999995,-0.026496,0.0271398698685118,0.0027052603405912,0.3502177677051822
325.8145363408521,0.6089537722762541,0.5733601067858606,-9.945918,-0.02581699999999998,0.05115700000000001,0.008918999999999996,0.0338593874886899,-0.0042935099599059,0.365681384877852
326.8170426065163,0.6089538850245239,0.5733603214613585,-9.925878,-0.007833999999999897,0.04983700000000002,0.043304,0.0314857397059777,-0.0123569311041198,0.3755075711132875
327.8195488721804,0.6089540064994398,0.5733605354387249,-9.954654,0.00587699999999991,0.007854999999999945,0.046322999999999996,0.0152541776624304,-0.0137881010907552,0.3824016391119577
328.8220551378446,0.6089541264035594,0.5733607513359533,-10.018552,0.011512999999999884,-0.03887499999999999,0.019588000000000008,0.0052359877559829,-0.0070860367630969,0.3917042265717949
329.8245614035088,0.6089542361847694,0.5733609702002416,-10.075399,0.0015820000000001944,-0.04181799999999991,-0.031457000000000006,0.0139626340159546,0.002129301687433,0.4070980654809699
330.8270676691729,0.6089543367157342,0.5733611897626614,-10.078189,-0.006357000000000168,0.008756999999999904,-0.06676699999999999,0.0291469985083053,0.005532693728822,0.4274311338134113
331.8295739348371,0.6089544405628248,0.5733614072306862,-10.016757,-0.012480999999999964,0.07173200000000002,-0.050703,0.0361283155162826,0.0021118483949131,0.4479736591093846
332.83208020050125,0.6089545625613395,0.5733616213825854,-9.935807,-0.026580999999999966,0.08598499999999998,0.013222999999999999,0.0313635666583381,-0.004921828490624,0.4646066294275979
333.8345864661654,0.6089547048056735,0.5733618308220956,-9.902274,-0.03103900000000004,0.03973900000000008,0.069036,0.0227416401534861,-0.0120078652537209,0.4749564318919244
334.8370927318296,0.6089548540313245,0.5733620355492169,-9.943091,-0.013604999999999867,-0.019784000000000024,0.065965,0.0180990643431811,-0.0151843644923506,0.4815363406252355
335.83959899749374,0.6089549945303294,0.5733622388800748,-10.025831,0.019711999999999952,-0.047860000000000014,0.014882000000000006,0.0172438530097039,-0.0109955742875642,0.4900186407899279
