Time [s],Longitude [rad],Latitude [rad],Altitude [m],V North [m/s],V East [m/s],V Down [m/s],Roll [rad],Pitch [rad],Yaw [rad]
2.0050125313283207,0.6089531493682442,0.5733585508248324,-15.035624,0.0060509999999998,-0.0007829999999998984,-0.0171059999999999,0.0134215819478363,0.0002967059728391,0.3220655894172211
3.007518796992481,0.6089532301769885,0.5733587787648328,-15.035564,-0.0108049999999998,0.011402999999999998,-0.015020000000000101,0.0175056523975031,0.0032812189937494,0.3378433833085423
4.010025062656641,0.608953315174523,0.5733590063557672,-15.017096,-0.0170950000000001,0.012532999999999902,0.007423000000000001,0.0247662220857995,0.003385938748869,0.3540923986446095
5.012531328320802,0.608953406106177,0.5733592301069773,-14.996937,-0.0033559999999998973,0.00025400000000010137,0.022993,0.0270002435283522,0.0001047197551198,0.3678281224045123
6.015037593984962,0.6089535036700823,0.5733594505420617,-14.996621,0.014071999999999798,-0.0187570000000001,0.015719999999999998,0.0207519648062125,-0.003351032163829,0.3783175861155834
7.017543859649122,0.608953602281185,0.5733596701044816,-15.019352,0.014194,-0.0201809999999998,-0.011061,0.0156381500978691,-0.0025481807079117,0.3888593747976291
8.020050125313283,0.608953700368689,0.5733598917612966,-15.043638,0.00043300000000009997,-0.0005089999999999999,-0.02695,0.0157079632679489,0.0015009831567152,0.4027521781902115
9.022556390977442,0.6089537965363307,0.5733601141162434,-15.044641,-0.0132639999999998,0.0234149999999999,-0.016873,0.0213628300444105,0.004607669225265,0.4196469828028091
10.025062656641603,0.608953896194631,0.5733603362966571,-15.020213,-0.012982000000000299,0.023649,0.0121620000000001,0.0283441470523879,0.0038571776469076,0.4363323129985824
11.027568922305765,0.608954003706913,0.5733605539392148,-14.992844,0.0022890000000002006,-0.0019190000000001012,0.0275449999999999,0.0269653369433123,0.0,0.4501727914201899
12.030075187969924,0.6089541201203741,0.5733607689637787,-14.986319,0.0104839999999999,-0.0239379999999999,0.014319000000000002,0.0212930168743308,-0.0031241393610697,0.4612555972637689
13.032581453634084,0.6089542377555656,0.573360983115678,-15.002513,0.0050140000000001,-0.016615999999999898,-0.0092590000000001,0.0147131255943121,-0.0030892327760299,0.4733158223950497
14.035087719298245,0.6089543548671584,0.5733611970930442,-15.024362,-0.0018319999999999999,0.0040369999999999,-0.0194209999999998,0.0178896248329418,-0.0012217304763959,0.4872959271568168
15.037593984962406,0.6089544723278171,0.5733614117685423,-15.035086,-0.0041060000000002,0.0144419999999999,-0.0111750000000001,0.0221656815003279,0.0009773843811169,0.5026722604135944
16.040100250626566,0.6089545924064697,0.5733616255713756,-15.031325,-0.0011399999999996994,0.006692,0.003837,0.0248534885483992,0.0023561944901924,0.5176472028489983
17.042606516290725,0.6089547166739124,0.5733618378034127,-15.021228,0.0008019999999996997,-0.003832999999999899,0.009245,0.0202109127380943,0.0026703537555514,0.5320112625929114
18.045112781954884,0.60895484600281,0.573362049337318,-15.011775,-0.0028049999999999005,-0.0028910000000000984,0.0038349999999999,0.0204028989558137,0.0020769418098733,0.5460262215798409
19.047619047619047,0.608954978996899,0.5733622582532294,-15.003953,-0.0028149999999998003,0.0022610000000000997,-0.001169,0.0233175988066442,0.0007504915783576,0.5603728978444045
20.050125313283207,0.6089551149580477,0.5733624654238116,-14.997978,0.0006899999999999008,0.002182,0.0013910000000001,0.0231081592964049,-0.0003665191429187,0.5743528978864163
21.052631578947366,0.6089552538862563,0.5733626704999988,-14.996851,0.0042329999999999,-0.0058980000000000005,0.004404999999999999,0.0210486707790516,-0.0013089969389956,0.5874603729287713
22.05513784461153,0.6089553956069914,0.5733628748780543,-15.003871,0.003582,-0.007882,0.0016379999999999997,0.0206821516361328,-0.0016231562043547,0.6005503423187288
23.05764411027569,0.6089555392475888,0.5733630782089121,-15.014973,0.0012770000000001999,-0.0011380000000000999,-0.009358999999999899,0.0189542756766584,-0.0004886921905582,0.6149492562878046
24.06015037593985,0.608955683760851,0.5733632818888358,-15.018338,-0.0030800000000001998,0.0060500000000001004,-0.012833,0.0207868713912524,0.0011693705988362,0.6306572544623386
25.062656641604008,0.6089558300194422,0.573363484347029,-15.005987,-0.006265000000000001,0.008471,-0.0010469999999999993,0.0238062909972026,0.0013613568165555,0.646679429355524
26.065162907268167,0.6089559815140213,0.5733636845362943,-14.982435,-0.0066599999999999,0.008775999999999902,0.009927999999999899,0.0250629280586385,-0.0008377580409573,0.6625619255486725
27.06766917293233,0.6089561389427198,0.5733638815839668,-14.962267,0.002246999999999902,-0.0033019999999999022,0.015766,0.0254469004940773,-0.0046600291028247,0.675948566004884
28.07017543859649,0.6089563005602086,0.5733640753155137,-14.95977,0.0094840000000001,-0.0153020000000001,0.010469,0.019669860669976,-0.0074874624910556,0.6877644799474707
29.07268170426065,0.6089564644466253,0.5733642678253301,-14.977648,0.0032259999999999,-0.009895,-0.004129000000000001,0.0164060949687466,-0.0074525559060156,0.7010464006485624
30.07518796992481,0.6089566274603775,0.5733644601606138,-15.00426,0.0008940000000001998,-0.0011459999999998,-0.0176199999999999,0.020298179200694,-0.0055676003138618,0.7158467752521819
31.07769423558897,0.608956789775998,0.5733646528449633,-15.018672,-0.0042280000000001,0.0119619999999999,-0.021492000000000098,0.0243997029428807,-0.0026179938779913,0.7319911231930067
32.08020050125313,0.6089569554077439,0.5733648434349174,-15.006001,-0.006465000000000201,0.013575999999999899,-0.004650999999999902,0.0278554548618295,-0.0019722220547535,0.7486415468037403
33.08270676691729,0.6089571259264118,0.5733650321050096,-14.975887,-0.0028099999999998005,0.0029400000000001023,0.021344000000000002,0.0233175988066442,-0.0040491638646267,0.7632848766812653
34.08521303258145,0.6089573020301334,0.5733652183316408,-14.954524,0.001826999999999801,-0.004217000000000103,0.0255789999999999,0.0202283660306142,-0.0071733032256966,0.7775790534419287
35.08771929824561,0.6089574840679745,0.5733654010676135,-14.959839,0.0017710000000001995,-0.010768999999999898,0.006338999999999997,0.0168598805742652,-0.0081681408993334,0.7915766289495082
36.09022556390977,0.6089576669784801,0.5733655815346582,-14.985715,0.005792,-0.015598,-0.0147550000000001,0.0171216799620643,-0.0072954762733361,0.8053124225225813
37.092731829573935,0.6089578481436564,0.5733657618271699,-15.01149,-9.300000000009995e-05,0.000583,-0.0220689999999999,0.0235095850243636,-0.0048694686130641,0.8204443573242018
38.095238095238095,0.6089580286107009,0.5733659408979511,-15.018751,-0.0044950000000001,0.016592,-0.012490999999999999,0.0257959663444761,-0.0028099800957108,0.8361174663669887
39.097744360902254,0.6089582115212065,0.5733661183979362,-15.005046,-0.0027439999999998993,0.013371999999999901,0.006709999999999997,0.0261973920724348,-0.0025830872929515,0.8509527475556478
40.100250626566414,0.6089583996677,0.5733662915345978,-14.983184,-0.0162039999999999,-0.0217149999999998,0.008432000000000002,-0.0059515727493006,-0.0054454272662223,0.8661370771414134
41.10275689223057,0.6089585986352347,0.5733664658929902,-14.961429,0.0830989999999998,0.0812539999999997,0.035684,0.0873711823548361,-0.0792728546255823,0.8817053966159104
42.10526315789473,0.6089588131361998,0.5733666488034957,-15.032673,-0.0128739999999999,-0.0241539999999998,0.12965100000000002,-0.0248011286708394,-0.1942027858694091,0.9427221421722172
43.10776942355889,0.608959038807272,0.5733668311904025,-15.246433,-0.1392559999999999,0.0007529999999999898,-0.05975800000000002,-0.0695688239844939,-0.2229483586497556,1.092035059680332
44.11027568922306,0.608959281582571,0.5733670008364059,-15.511248,-0.054255000000000095,0.08056,-0.0775990000000001,0.0763581547747519,-0.2337868533046403,1.2591851723306589
45.11278195488722,0.6089595402403661,0.5733671483167277,-15.816662,-0.012854999999999894,0.018500999999999906,0.04504300000000011,0.0322536845768552,-0.2594780998939969,1.3666277458031848
46.11528822055138,0.6089598313612853,0.5733672692680449,-16.184235,0.09865499999999988,-0.03335300000000002,-0.01069700000000011,0.0501258561172771,-0.2712765256374785,1.3862452640488936
47.11779448621554,0.6089601619266457,0.5733673711952731,-16.602951,0.0925419999999999,-0.023930999999999883,-0.0022129999999998956,0.0331787090804122,-0.2771059253391397,1.366016810751817
48.1203007518797,0.6089604394339968,0.5733674767876928,-17.069811,0.0321970000000001,-0.020592,-0.010203000000000101,0.020891591146372,-0.2741388656107493,1.3439558490066086
49.122807017543856,0.6089607909433081,0.5733675951210162,-17.574337,-0.007493999999999994,-0.009043000000000107,-0.0130449999999999,0.0249407550109989,-0.2590068609959584,1.3343564857607622
50.125313283208015,0.6089611731704143,0.5733677251480456,-18.083025,-0.028515000000000002,0.0026990000000002012,-0.056028,0.0132819556076768,-0.2171887721181744,1.3361716979960063
51.127819548872175,0.608961566044029,0.5733678619818587,-18.539337,-0.00044100000000010103,-0.005617000000000205,-0.0495099999999999,0.0076619954162551,-0.1673072446428838,1.3328729733498597
52.130325814536334,0.6089619693896191,0.573368001608199,-18.912788,0.004267000000000101,-0.009142999999999887,-0.015190000000000106,0.0098785635662879,-0.1200611992446898,1.3267819313400322
53.1328320802005,0.6089623846034481,0.573368141758138,-19.194441,-0.0015919999999999997,-0.0019480000000000053,0.0002840000000001036,0.0123743843966397,-0.0797440935236208,1.322750028781707
54.13533834586466,0.6089628108128515,0.573368286096867,-19.393097,0.0030919999999999004,-0.002116000000000104,0.017317,0.0065624379874986,-0.0500385896546773,1.3186835163443158
55.13784461152882,0.6089632478432961,0.5733684351479852,-19.529327,5.199999999999996e-05,-0.007183999999999996,0.024005999999999902,0.0069813170079773,-0.0326551103048138,1.314791449565661
56.14035087719298,0.6089636939494529,0.5733685885624265,-19.626232,-0.0034839999999999004,-0.012537000000000104,0.018969,0.0042760566673861,-0.0237015712420829,1.311230925531715
57.14285714285714,0.6089641470369268,0.5733687447693945,-19.700157,-0.004458,-0.012208999999999897,0.013766,-0.006754424205218,-0.019687313962496,1.308298789841657
58.1453634085213,0.6089646043131908,0.5733689048160869,-19.759787,-0.004189000000000101,-0.006952,0.0056819999999999996,-0.0027925268031909,-0.0186575697038193,1.3061521570347518
59.14786967418546,0.6089650650801134,0.5733690659099768,-19.806866,-0.0019479999999998995,-0.0007549999999999016,-0.0032119999999999996,0.0009599310885968,-0.0167726141116655,1.3056110002468782
60.15037593984962,0.6089655267197005,0.5733692278765314,-19.839405,-0.002458,0.003814999999999902,0.001962000000000099,-0.0005759586531581,-0.0152541776624304,1.3056633252178529
61.15288220551378,0.6089659937698083,0.5733693914138823,-19.861996,0.0013639999999999,0.0014990000000003993,0.0072180000000000005,-0.0014137166941154,-0.0144513262065129,1.3050349543272577
62.15538847117794,0.6089664671031014,0.5733695559984308,-19.881287,-0.0006059999999999,-0.001250000000000702,0.0057649999999999,-0.0023911010752322,-0.0160570291183477,1.3048254973637254
63.1578947368421,0.6089669420071909,0.5733697225028415,-19.904057,-0.007662,-0.0256369999999995,0.002614,-0.0107163216072451,-0.0168598805742652,1.3040228204407334
64.16040100250626,0.6089674160386157,0.5733698895308509,-19.929026,-0.002114,-0.0051549999999998,-0.004351,-0.0101054563690471,-0.015969762655748,1.3034293386818852
65.16290726817043,0.6089678881501784,0.5733700541153993,-19.951357,-0.0061210000000002,0.0019349999999995005,-0.0016089999999999002,-0.0075921822461753,-0.0135437549954759,1.3056807785103728
66.16541353383458,0.6089683571201484,0.5733702166055527,-19.971043,-0.0045199999999996,0.0025530000000003,0.0021169999999999,-0.0029321531433504,-0.0119729586686809,1.3092237096254586
67.16791979949875,0.6089688252174539,0.5733703782230415,-19.991762,0.0070219999999999,1.0000000001000962e-06,0.003821,-0.0054105206811824,-0.0104370689269259,1.309747413120812
68.1704260651629,0.6089692941874238,0.5733705396659973,-20.012005,0.0071189999999997,-0.0007870000000003003,-0.0064769999999999,-0.008604473212332,-0.0077143552938148,1.3090143748349743
69.17293233082707,0.6089697633319268,0.5733707021561506,-20.025667,-0.0027329999999998,0.00025000000000030033,-0.0066430000000001,-0.0038571776469074,-0.0050090949532237,1.3092761742227736
70.17543859649122,0.6089702321273638,0.5733708635991065,-20.028196,-0.0035869999999999,0.0025949999999997997,-0.0004409999999999987,-0.0050265482457436,-0.0037699111843076,1.3098520805160545
71.17794486215539,0.6089707016209327,0.5733710248675293,-20.020782,-0.0029870000000001003,0.0031819999999998,0.003854,-0.0040840704496667,-0.0038571776469074,1.3107771224729037
72.18045112781954,0.6089711714635673,0.5733711849142217,-20.010588,-0.0002839999999996994,0.0026090000000001,0.007469,-0.0055501470213419,-0.0056025068989016,1.3123654419053887
73.1829573934837,0.6089716407826031,0.573371345135447,-20.005411,0.00024199999999960017,-0.0016959999999998998,0.0068709999999999995,-0.0058643062867009,-0.0061959188445797,1.3138489543162917
74.18546365914787,0.6089721107997708,0.5733715030877443,-20.007261,0.010426000000000199,-0.0432049999999999,-0.001555,-0.0128107167096383,-0.0066846110351381,1.3226803901445527
75.18796992481202,0.6089725581276579,0.5733716503935332,-20.021828,-0.2264600000000001,-0.075269,-0.007102,-0.0581194640914111,0.018744836166419,1.4865492314412527
76.19047619047619,0.6089729981251625,0.5733717458630433,-19.991814,-0.150208,0.0764409999999995,-0.0524679999999999,0.1227664595852811,0.022427480888127,1.680717110725622
77.19298245614034,0.6089733904751783,0.5733718242283268,-19.955906,0.008855000000000002,-0.08608799999999919,0.07718499999999989,-0.0298102236240631,0.0152541776624304,1.8687589192420764
78.19548872180451,0.6089737678153625,0.5733718163743451,-19.918886,0.014606000000000008,-0.0387660000000003,-0.043731,0.0608770843095622,0.0208217779762924,2.0529435326583303
79.19799498746866,0.6089741165321472,0.5733717469102408,-19.86869,0.03611500000000001,-0.022186000000000317,0.020023,0.049846603436958,0.0088313660150913,2.224299976072426
80.20050125313283,0.6089744308659454,0.5733716336383724,-19.827673,0.042990000000000084,-0.02345699999999959,0.0092869999999999,0.0275762021815104,0.0044854961776255,2.3872088688272366
81.203007518797,0.6089747080242306,0.5733714779550031,-19.797926,0.044512999999999914,-0.0146030000000002,0.0062700000000001,0.0517664656141518,-0.0001047197551196,2.538947793995624
82.20551378446115,0.6089749455635417,0.5733712913793061,-19.788673,0.04153799999999999,-0.015470000000000095,0.01044,0.0300545697193423,-0.0041189770347065,2.6809653923100347
83.20802005012531,0.6089751375497595,0.5733710774019398,-19.801292,0.034492000000000106,-0.01022599999999979,-0.00978,0.0336324946859307,-0.0044505895925854,2.8127029140637365
84.21052631578947,0.6089752836338179,0.5733708421315566,-19.821754,0.027531,0.005694999999999895,-0.014277999999999999,0.0323758576244948,-0.0044854961776252,2.927318441696109
85.21303258145363,0.6089753874809084,0.5733705899314797,-19.837833,0.026122999999999896,0.025276000000000104,-0.011006,0.0315031929984976,-0.0041189770347065,3.0243238240686616
86.21553884711778,0.608975451534492,0.5733703218489066,-19.843369,0.020959000000000005,0.028266999999999987,0.0007460000000000001,0.029216811678385,-0.0059166661642606,3.106441862080968
87.21804511278195,0.608975483997616,0.5733700427707592,-19.844893,0.014628000000000092,0.024207999999999896,0.005918,0.0234746784393237,-0.0064926248174188,-3.1095484259764703
88.22055137844612,0.6089754897572025,0.5733697554895644,-19.849083,0.009751000000000003,0.022614000000000106,0.007346,0.0218166156499291,-0.0067195176201781,-3.05708389847469
89.22305764411027,0.6089754712567126,0.5733694601798549,-19.858038,0.005939999999999897,0.022606999999999905,-0.002348,0.0201760061530544,-0.0063006385996995,-3.0189484892251994
90.22556390977444,0.6089754311141397,0.5733691580633614,-19.866219,0.001459000000000099,0.028123000000000092,-0.004994,0.0163188285061469,-0.0056723200689814,-2.9964860668454474
91.2280701754386,0.6089753784051963,0.5733688505363472,-19.868677,0.00039999999999990044,0.031740000000000004,-0.004418,0.0196524073774561,-0.00614355896702,-2.9870089290071182
92.23057644110276,0.608975316096942,0.573368535853483,-19.867785,-0.0012069999999996944,0.02728,0.0070999999999999995,0.0138579142608349,-0.0087964594300513,-2.9879514242564875
93.23308270676692,0.6089752509961609,0.5733682145383677,-19.871355,0.000582999999999799,0.0260079999999999,0.006099999999999901,0.0068765972528576,-0.0112748269678832,-2.9985979501469457
94.23558897243107,0.608975187815242,0.5733678874636658,-19.883257,0.0026799999999996965,0.0196249999999999,0.0025650000000000993,0.000907571211037,-0.012932889757278,-3.016330338267576
95.23809523809524,0.6089751296957779,0.5733675542803117,-19.902906,0.006652000000000401,0.021334000000000103,-0.0005369999999999993,0.0035953782591083,-0.0136659280431155,-3.0407824185413084
96.2406015037594,0.6089750808265588,0.5733672156864369,-19.928833,0.0041439999999997,0.016745999999999997,-0.0037810000000001003,-0.0079587013890941,-0.0124441975667195,-3.06804439164429
97.24310776942356,0.6089750419057165,0.5733668748236339,-19.957029,0.0019980000000004022,0.005932,-0.0067869999999998,-0.0094073246682494,-0.010105456369047,-3.095097064863372
98.24561403508773,0.6089750171220412,0.5733665299465737,-19.978926,0.0017129999999996003,0.007724000000000002,-0.0080220000000001,-0.0027227136331111,-0.0079063415115343,-3.120526512064929
99.24812030075188,0.6089750047302035,0.5733661822769867,-19.987415,0.005321000000000298,0.0008500000000000035,-0.004605,-0.0090931654028904,-0.0052185344634629,-3.1407372502700985
100.25062656641605,0.6089750047302035,0.5733658307676754,-19.990698,0.0050019999999998,-0.010083000000000106,0.0183099999999999,-0.0036477381366681,-0.0057421332390612,3.127821988338265
101.2531328320802,0.6089750141549815,0.573365477163969,-20.003777,0.0014949999999998003,-0.024472999999999898,0.010104000000000099,-0.0116064395257622,-0.0057072266540214,3.119514256005357
102.25563909774436,0.6089750289902801,0.5733651214658674,-20.021833,0.0019070000000005003,-0.0234810000000001,-0.0165349999999999,-0.007365289443416,-0.002740166925631,3.1163900991909954
103.25814536340852,0.6089750436510457,0.573364762975239,-20.030724,0.0015509999999997002,-0.0022609999999999002,-0.0079280000000001,-0.0078714349264944,-0.0013264502315155,3.1159014070004365
104.26065162907268,0.6089750576136798,0.5733644041355447,-20.029884,0.0034270000000002996,0.0015389999999998998,0.0037400000000000003,-0.0032114058236695,-0.001204277183876,3.1178385828438104
105.26315789473684,0.6089750736707089,0.5733640440741201,-20.02676,0.0019219999999995005,-0.0055979999999999,0.009895000000000001,0.0013439035240356,-0.0016929693744345,3.1226732844981746
106.265664160401,0.6089750911240014,0.5733636840126954,-20.02615,0.00041200000000030015,-0.011302,-0.001255,-0.0012391837689159,-0.0012391837689158,3.131696619277693
107.26817042606515,0.6089751049121025,0.5733633243003365,-20.026688,0.0005350000000001998,-0.0120559999999999,-0.003377,-0.0041189770347066,-0.0007853981633973,-3.1408072903329813
108.27067669172932,0.6089751132896829,0.5733629644134448,-20.026819,-4.3000000000300177e-05,-0.002420000000000099,0.0025069999999999997,-0.0018500490071139,0.0004014257279587,-3.1312779671500173
109.27318295739347,0.6089751159076768,0.5733626029557567,-20.027676,-0.0006250000000002998,-0.0003470000000000001,0.0009009999999998999,-0.0006457718232379,0.0001221730476397,-3.1239473399455457
110.27568922305764,0.6089751131151501,0.5733622407999369,-20.031382,0.0006700000000003999,2.1999999999997716e-05,0.00034200000000010004,-0.0020594885173533,0.0004886921905584,-3.117978401170188
111.2781954887218,0.608975106133833,0.5733618777714525,-20.031637,0.0012500000000001997,0.009940000000000001,-0.0073420000000000004,-0.0007504915783575,0.0013089969389958,-3.114958911751067
112.28070175438596,0.6089750974071867,0.5733615159646985,-20.026405,0.0019619999999998003,0.0142020000000001,0.0043750000000001,-0.0048520153205442,0.0005410520681183,-3.1153080474146364
113.28320802005013,0.608975089553205,0.5733611529362143,-20.02342,-0.0029630000000003,0.009782999999999901,0.0059269999999999,-0.0119380520836412,-0.0005759586531579,-3.117908622906693
114.28571428571428,0.6089750836190856,0.573360789209598,-20.027699,-0.0007139999999999,-0.0005790000000000014,0.0009109999999999995,0.0010821041362364,0.0005759586531581,-3.120910536860245
115.28822055137844,0.6089750789066966,0.5733604240867185,-20.032654,0.0017810000000003001,-0.003771000000000099,-0.008461,-0.0040491638646268,0.00310668606855,-3.124715406989471
116.2907268170426,0.6089750752415052,0.5733600587893062,-20.035984,0.0013380000000001,-0.0011639999999999004,0.00012300000000000028,-0.0074001960284559,0.0035255650890286,-3.128485370533656
117.29323308270676,0.6089750720999125,0.5733596941900254,-20.038618,0.0008579999999994999,0.0048809999999999,0.001052,-0.0056199601914217,0.0041189770347067,-3.132167997802072
118.29573934837092,0.6089750727980443,0.5733593285435471,-20.03694,-0.0019849999999999,0.0026320000000000995,-0.004482,-0.0118856922060813,0.0055850536063819,-3.135379490892204
119.29824561403508,0.6089750745433735,0.5733589630716017,-20.031332,0.0009310000000005002,-0.005016,0.0046100000000001,0.0038920842319473,0.0053930673886626,-3.1373864624523646
120.30075187969923,0.608975075765104,0.5733585969015246,-20.023617,-0.0020780000000005005,-0.007385,-0.0011359999999999999,-0.0095993108859688,0.0049567350756638,-3.1367755274009963
121.3032581453634,0.6089750780340321,0.5733582302078488,-20.010698,0.0013079999999999,0.0032639999999999,-0.002704,-0.0062657320146596,0.004921828490624,-3.135711068543498
122.30576441102755,0.608975082746421,0.5733578642123046,-19.993883,8.900000000040039e-05,0.0093920000000001,0.0046759999999999,-0.0052708943410228,0.0040491638646269,-3.1343496593670643
123.30827067669172,0.6089750885060076,0.5733574989148923,-19.984741,0.0027459999999996,-0.0022439999999999995,0.015151,-0.0062482787221396,0.0011693705988362,-3.1323251123413365
124.31077694235589,0.6089750939165282,0.5733571339665456,-19.994761,0.0028000000000002,-0.02042,0.0029939999999999013,0.0009948376736367,0.0007853981633973,-3.1278744529355804
125.31328320802004,0.6089750965345221,0.5733567691927319,-20.013189,-0.0012020000000001999,-0.017908,-0.018854999999999802,-0.0006457718232379,0.00307177948351,-3.1229001947542265
126.3157894736842,0.6089750949637258,0.5733564045934513,-20.018932,-0.0005649999999995001,0.004070999999999998,-0.0150710000000001,0.002740166925631,0.0049916416607038,-3.1204215828703
127.31829573934836,0.60897508745881,0.5733560492444155,-19.99789,0.1743459999999995,0.097165,-0.04566,0.0542448331519837,0.0276983752291499,3.036733080143756
128.32080200501252,0.6089751368516279,0.5733557368304794,-19.922949,0.1449690000000001,0.42985700000000004,0.0531720000000001,-0.0697433569096934,0.0166853476490658,2.728926795808744
129.32330827067668,0.6089752427931134,0.5733554818378757,-19.875986,0.021225000000000105,-0.06711900000000004,0.046288999999999796,-0.0226194671058465,0.0060737457969404,2.4628514211553783
130.32581453634086,0.6089754168024398,0.5733552961348433,-19.857187,0.014127,-0.1341619999999999,-0.018518999999999997,-0.0347495054072071,0.0088662726001311,2.22787779631926
131.328320802005,0.6089756798235582,0.5733551634898202,-19.85306,-0.005613000000000035,-0.08819500000000008,0.0069340000000001,-0.0439822971502571,0.0023561944901924,2.015523725855449
132.33082706766916,0.6089759770531297,0.5733550784922855,-19.862785,-0.01706400000000008,-0.06320600000000012,-0.03057,0.0046251225177849,0.0040666171571468,1.826661525324096
133.33333333333331,0.6089762960993169,0.5733550420149042,-19.859411,-0.016987999999999892,-0.03726899999999998,-0.0172879999999999,-0.0108559479474047,0.0061959188445799,1.652547653678066
134.3358395989975,0.6089766350422577,0.5733550528359456,-19.846205,-0.014954999999999996,-0.0314689999999999,0.0275149999999998,-0.0008901179185171,0.0046949356878647,1.495363213976994
135.33834586466165,0.608976986726102,0.5733551064175536,-19.83223,-0.01678400000000002,-0.029902000000000102,-0.003479,0.0122347580564802,0.0050440015382635,1.3529791837861267
136.3408521303258,0.6089773453912632,0.5733552029342611,-19.823442,-0.017451999999999968,-0.0337589999999999,0.0019230000000001004,0.00307177948351,0.0034208453339088,1.2282056828275147
137.34335839598998,0.6089777066744184,0.5733553392444757,-19.82588,-0.01989100000000013,-0.022847,0.004581,0.0180467044656213,0.0026005405854716,1.129507331080528
138.34586466165413,0.6089780681321065,0.5733555118575387,-19.833059,-0.0529069999999999,0.0027850000000001,-0.0053690000000000005,0.0146782190092723,0.0023736477827123,1.0695726896604576
139.34837092731829,0.6089784285425971,0.5733557137921333,-19.83687,-0.05509899999999998,0.0186829999999999,-0.0071660000000000005,0.0230208928338052,0.0001221730476397,1.045871170778252
140.35087719298244,0.6089787934909436,0.5733559364961458,-19.837566,-0.067056,0.031052000000000097,0.0033660000000001,0.0133168621927167,-0.0014137166941152,1.0605667558135818
141.35338345864662,0.6089791668168707,0.5733561653088107,-19.839796,-0.0795,0.028266999999999806,0.0053219999999999,0.0236317580720032,-0.0030368728984699,1.1107100128635012
142.35588972431077,0.6089795525346354,0.5733563873146916,-19.85042,-0.07226199999999991,0.0067810000000000925,0.0045009999999999,0.0111526539202437,-0.0040840704496667,1.189878269907012
143.35839598997492,0.6089799520405011,0.5733565901219507,-19.865952,-0.06929200000000009,-0.008167000000000202,-0.0088269999999999,0.0131946891450771,-0.0038571776469074,1.289204992544594
144.36090225563908,0.6089803623674083,0.573356764480343,-19.877115,-0.051562999999999914,-0.014295999999999892,-0.007110999999999999,0.0195127810372966,-0.0052883476335428,1.399143212314547
145.36340852130326,0.6089807798501654,0.5733569027104197,-19.880394,-0.02821200000000018,-0.012025999999999704,-0.0013409999999999004,0.0264242848751941,-0.0090931654028902,1.5090814320844996
146.3659147869674,0.6089812036161077,0.5733570018451212,-19.881001,-0.004334999999999811,-0.012859000000000599,0.0082709999999999,0.0211184839491313,-0.0116238928182821,1.6106072521263022
147.36842105263156,0.6089816327925709,0.5733570615353816,-19.886042,0.013205999999999912,-0.011777999999999598,0.008942,0.0180641577581413,-0.0127758101245984,1.6988336632679082
148.37092731829574,0.6089820682522191,0.57335708649359,-19.900593,0.02704999999999999,-0.0127090000000001,-0.00023000000000000104,0.0212581102892909,-0.0124441975667195,1.7705318063931277
149.3734335839599,0.6089825070279931,0.5733570831774644,-19.924995,0.0379030000000001,-0.0125069999999997,-0.0003969999999999998,0.0190939020168179,-0.0110479341651239,1.82381660373676
150.37593984962405,0.6089829449311024,0.5733570578701902,-19.952847,0.0359949999999999,-0.0056600000000002,-0.009693,0.0183783170235002,-0.0080459678516937,1.857850611417112
151.3784461152882,0.608983382310613,0.573357014062426,-19.973648,0.0367760000000001,0.0090690000000001,-0.010578,0.02153736296961,-0.0057944931166211,1.8738901523363545
152.38095238095238,0.6089838200391894,0.5733569597826862,-19.979471,0.03506999999999989,0.017164999999999903,-0.0035080000000000007,0.0123220245190799,-0.0057421332390612,1.8747454334830016
153.38345864661653,0.6089842631782865,0.5733569000924258,-19.972025,0.032118000000000105,0.018941999999999997,0.005449000000000001,0.0135612082879959,-0.0074525559060156,1.8621964812545773
154.38596491228068,0.6089847157421615,0.5733568400530995,-19.959532,0.029393999999999802,0.013061000000000003,0.009767999999999999,-0.0026878070480712,-0.0096691240560484,1.839507288245114
155.3884711779449,0.6089851794761437,0.5733567855988269,-19.952557,0.047197,-0.005733000000000203,0.007148000000000001,-0.0075223690760955,-0.013823007675795,1.8199595482629
156.39097744360902,0.6089856309928212,0.5733567358569432,-19.969568,-0.1466919999999999,-0.2684609999999998,0.016066,-0.0297578637465033,0.0026878070480713,1.995173047150855
157.39348370927317,0.6089860177577835,0.5733566513830074,-19.955307,-0.22271499999999989,-0.2311779999999999,-0.078978,0.0912632665867834,0.0138928208458748,2.303817037166948
158.39598997493732,0.6089863141146905,0.5733565759847837,-19.931013,0.0586899999999998,-0.033500000000000085,0.07166600000000001,0.0983667566424004,-0.0067718774977378,2.589422960309395
159.3984962406015,0.6089865048791777,0.5733564635855799,-19.91823,0.10811500000000018,0.07348699999999997,-0.00036200000000009835,0.1043008760991811,-0.0166678943565457,2.821953141646014
160.40100250626566,0.6089866113442621,0.5733563044115522,-19.907511,0.03906799999999981,0.08046400000000015,-0.0182469999999998,0.0387812159793139,-0.0124441975667195,3.0147596117539504
161.4035087719298,0.6089866642277385,0.5733561220246453,-19.889473,0.014536000000000299,0.05356299999999986,-0.006425000000000101,0.0642281164733913,-0.0071558499331767,-3.1045568715822287
162.406015037594,0.6089866752233127,0.5733559234061765,-19.872087,0.025882999999999698,0.022849000000000008,0.017613,0.0062831853071795,-0.0032463124087094,-2.9595373593142646
163.40852130325814,0.6089866457272484,0.5733557144902649,-19.871086,0.031657000000000296,0.005265999999999993,0.008301000000000001,0.0174009326423834,0.0022514747350728,-2.8296499389275547
164.4110275689223,0.6089865715507552,0.5733555012110303,-19.885639,0.027343999999999802,-0.0019669999999999965,-0.007588000000000001,0.0337546677335703,0.005253441048503,-2.714999260364047
165.41353383458645,0.6089864532174319,0.5733552886299275,-19.900562,0.0116919999999999,0.01808900000000002,-0.017912,0.0301243828894221,0.0070162235930173,-2.624503973554726
166.41604010025063,0.6089862933452723,0.5733550777941538,-19.898787,-0.0040979999999998995,0.04771699999999998,-0.013256999999999998,0.0302989158146215,0.0076270888312153,-2.560397960315804
167.41854636591478,0.6089860994391926,0.5733548678310448,-19.878309,-0.0168529999999999,0.0524340000000002,0.012672,0.0234572251468037,0.0045378560551854,-2.523205046315682
168.42105263157893,0.6089858844146286,0.5733546542027445,-19.855904,-0.019823,0.040815999999999714,0.013932,0.0179943445880615,0.0013788101090754,-2.511092461306842
169.4235588972431,0.6089856566491613,0.5733544342912585,-19.842323,-0.0196010000000002,0.031914,0.005334,0.0136659280431156,-0.0002617993877991,-2.525177390543484
170.42606516290726,0.608985421553311,0.5733542051295278,-19.836349,-0.020598999999999805,0.0436750000000002,-0.00527,0.0121300383013605,-0.0019722220547535,-2.562021151426744
171.42857142857142,0.6089851861083949,0.5733539646231569,-19.835066,-0.01675400000000009,0.0502389999999998,0.0022119999999999996,-0.002740166925631,-0.0039095375244673,-2.618360327321243
172.43107769423557,0.608984962008119,0.5733537105032178,-19.841341,-0.01051199999999991,0.0489900000000001,0.0026439999999999996,0.0054454272662223,-0.0061959188445797,-2.6889764361233968
173.43358395989975,0.6089847574555306,0.5733534405007825,-19.850063,0.0004409999999998998,0.0421610000000001,-0.0124109999999999,-0.0100880030765272,-0.0069987703004972,-2.768354080317269
174.4360902255639,0.6089845836207372,0.5733531554885156,-19.853706,0.011047000000000098,0.03859199999999979,-0.0015710000000001,-0.0095818575934488,-0.0089884456477706,-2.8518854685045474
175.43859649122803,0.608984443994397,0.5733528580844112,-19.856581,0.011422999999999905,0.02097099999999999,0.0064159999999999,-0.0020245819323134,-0.0109083078249645,-2.932729189270095
176.44110275689223,0.6089843403218393,0.5733525484630018,-19.866535,0.012372999999999995,-0.00529199999999988,0.009313000000000099,-0.0089709923552508,-0.0123045712265599,-3.0056316270324825
177.4436090225564,0.6089842708577352,0.5733522297658804,-19.887371,0.013109000000000204,-0.016119999999999995,-0.0047910000000001,-0.0072954762733362,-0.0115540796482023,-3.0684981947031007
178.44611528822054,0.6089842296679648,0.5733519033893103,-19.912712,0.015260999999999601,-0.023585000000000023,-0.0030009999999999998,-0.011676252695842,-0.0103148958792864,-3.1207709977865488
179.4486215538847,0.6089842136109358,0.5733515728239499,-19.937452,0.0095740000000002,-0.018344000000000082,-0.0074039999999999,-0.0095993108859688,-0.0078539816339744,3.121277003643286
180.45112781954887,0.6089842171015943,0.5733512375462007,-19.956408,0.0009050000000002979,-0.018690999999999902,-0.0042799999999999,-0.0115191730631625,-0.0054105206811823,3.090698852601639
181.45363408521305,0.6089842382200781,0.5733508987777929,-19.967386,-0.0011000000000004999,-0.024732000000000004,-0.0009430000000001,-0.0075223690760955,-0.0042062434973062,3.072006376312779
182.4561403508772,0.608984269112406,0.5733505552969961,-19.969717,0.00021200000000030222,-0.027257000000000003,0.0008680000000000007,-0.013212142437597,-0.0047123889803846,3.064588674631926
183.45864661654133,0.6089843071605836,0.5733502088491395,-19.96822,0.0045410000000001005,-0.015985000000000096,0.007855999999999998,-0.0062831853071795,-0.0054279739737022,3.065094942288052
184.4611528822055,0.608984348350354,0.5733498587360916,-19.97179,0.004868999999999797,-0.020344,0.012181999999999998,-0.0164759081388264,-0.0070860367630969,3.072774443356705
185.4636591478697,0.6089843883183939,0.5733495072267804,-19.989117,0.0017760000000000015,-0.0312609999999998,-0.0011670000000000985,-0.0013439035240356,-0.0057770398241012,3.08719067099196
186.46616541353384,0.6089844225268471,0.5733491539721396,-20.00802,0.002567,-0.0244630000000001,-0.0169709999999998,0.0029321531433504,-0.0027576202181509,3.106162487227601
187.468671679198,0.6089844441689299,0.5733487991467027,-20.016808,0.004861,-0.008745000000000003,-0.0045410000000001005,-0.000593411945678,-0.001815142422074,3.1255356593780306
188.4711779448621,0.6089844569098335,0.5733484444957988,-20.009674,0.020636,0.0310000000000001,-0.008618999999999998,-0.0852244273748831,-0.0077143552938148,-3.1282933668626445
189.4736842105263,0.6089844508011811,0.5733481097416482,-20.014757,0.26065499999999986,-0.2018430000000001,0.032251999999999996,-0.1154884366044648,0.0189717289691784,-2.9161137246042785
190.47619047619045,0.6089843715632329,0.5733478269983094,-19.962303,0.042605000000000004,-0.24747999999999998,-0.087547,0.1891413310386254,0.0210661240715717,-2.623055210649231
191.47869674185463,0.6089842731266633,0.573347608308554,-19.916199,0.039663000000000004,0.13681899999999997,0.138651,0.0383972435438752,-0.0111701072127636,-2.382653786372334
192.4812030075188,0.6089840872490979,0.5733474512289214,-19.906763,-0.017091999999999885,0.091862,-0.062881,0.0522726110972301,0.0057246799465413,-2.1649587465980336
193.4837092731829,0.6089838308602308,0.5733473440657053,-19.891867,-0.023565000000000003,0.04540000000000011,0.0143939999999999,0.0794473875507818,-0.0030019663134301,-1.971768251694782
194.48621553884712,0.6089835495131554,0.5733472780922596,-19.892733,-0.02062900000000001,0.063664,-0.0095899999999999,0.0232477856365644,0.0009948376736368,-1.7957173263784263
195.48872180451127,0.6089832419861412,0.5733472557520453,-19.891102,-0.01756000000000002,0.0293709999999998,-0.014176999999999999,0.0512952267161133,0.0040666171571468,-1.6353209921614946
196.49122807017545,0.6089829189256967,0.5733472732053377,-19.885397,-0.008882000000000001,0.038164000000000295,0.0087159999999999,0.0388510291493937,0.0029845130209102,-1.4885563077211688
197.4937343358396,0.6089825846951449,0.573347330975736,-19.882511,-0.0047419999999999685,0.031364999999999706,0.0037270000000000996,0.0298102236240631,0.0032986722862693,-1.3562776291795935
198.49624060150376,0.6089822459267371,0.5733474281905753,-19.886993,-0.014174999999999993,0.0215220000000002,0.0016189999999999998,0.0435285115447385,0.0037699111843079,-1.2422900884653807
199.4987468671679,0.6089819045403353,0.5733475632790594,-19.896271,-0.03164700000000012,0.0017529999999999005,-0.0030659999999999997,0.0373500459926786,0.0044331363000655,-1.1599802911281585
200.5012531328321,0.6089815610595386,0.5733477306561346,-19.903818,-0.0473599999999999,-0.0031169999999998005,-0.005084999999999999,0.0315555528760574,0.004642575810305,-1.1091043274049588
201.50375939849624,0.608981214960748,0.5733479247367474,-19.908474,-0.05393200000000009,-0.0153470000000002,-0.0006950000000000003,0.0219387886975687,0.0054803338512623,-1.0909532871566543
202.5062656641604,0.6089808615315743,0.5733481336526589,-19.911169,-0.0548149999999999,-0.026818,-0.001346,0.0200189265203749,0.0084997534572124,-1.106172191714902
203.5087719298245,0.608980496234162,0.5733483485026899,-19.907778,-0.060079,-0.02665800000000009,-0.000497,0.0140324471860344,0.0088313660150913,-1.1529990788399362
204.5112781954887,0.6089801150542532,0.5733485589893976,-19.895519,-0.068172,-0.007240999999999609,-0.0047989999999999994,0.0012391837689159,0.0072780229808164,-1.2254482545955814
205.51378446115288,0.6089797200862436,0.5733487527209447,-19.874987,-0.070351,0.010664999999999897,0.0072210000000001,0.004904375198104,0.0033335788713091,-1.3171126502043509
206.51629072681703,0.6089793134245278,0.5733489195744211,-19.85862,-0.055707000000000007,0.01584399999999951,0.0165289999999999,-0.0025830872929516,-0.002129301687433,-1.419843026682711
207.5187969924812,0.6089788975125672,0.5733490532666418,-19.862785,-0.0204639999999999,0.013138000000000594,0.007257999999999999,-0.0035430183815484,-0.0054105206811823,-1.522590455027861
208.5213032581453,0.6089784747938223,0.5733491494342835,-19.883593,0.0006979999999998932,0.013510999999999801,-0.013646000000000099,-0.0030368728984701,-0.0046600291028247,-1.6188275085571004
209.52380952380952,0.608978046140958,0.5733492091245439,-19.903204,0.004503000000000007,0.018573,-0.011995999999999798,-0.0040317105721069,-0.0035081117965085,-1.7039826114540948
210.52631578947367,0.6089776122521059,0.5733492354790157,-19.912317,0.01006499999999999,0.017318999999999602,-0.0099440000000001,-0.0013962634015954,-0.0025307274153916,-1.774773165914984
211.52882205513785,0.6089771790613855,0.5733492319883572,-19.910313,0.02604300000000001,0.0104140000000003,0.0054009999999999996,-0.0060737457969402,-0.0032463124087094,-1.827778588405249
212.531328320802,0.6089767481395932,0.5733492042376221,-19.908707,0.049847,-0.0017920000000000002,0.018002,0.0010821041362364,-0.0046949356878647,-1.8600848597524664
213.53383458646616,0.6089763149488729,0.5733491586845286,-19.918686,0.04797599999999999,-0.0160359999999997,0.00519,-0.002146754979953,-0.0053058009260626,-1.8735759058045327
214.5363408521303,0.6089758758240331,0.5733491031830584,-19.941216,0.0357420000000001,-0.017948000000000502,-0.007652,0.0013962634015954,-0.0042411500823462,-1.8722672230248023
215.5388471177945,0.6089754297178762,0.573349045761726,-19.962734,0.028057999999999902,-0.006684999999999601,-0.014159000000000001,-0.0052708943410228,-0.0025656340004316,-1.859369012959761
216.54135338345864,0.6089749757577378,0.5733489895621241,-19.972273,0.0288339999999999,0.005593999999999901,-0.007696999999999999,0.003665191429188,-0.0017453292519942,-1.8369414622584648
217.5438596491228,0.6089745172597434,0.5733489392966415,-19.96969,0.0464280000000001,0.008759999999999601,0.0093110000000001,-0.0069289571304174,-0.0026005405854714,-1.814112311296284
218.5463659147869,0.6089740732479816,0.573348896536075,-19.967157,-0.14596900000000002,0.2442210000000004,0.0125719999999999,0.0506145483078355,0.008604473212332,-1.9889594830275377
219.5488721804512,0.6089736959077974,0.5733488138074684,-19.9394,-0.270185,0.2206899999999999,-0.039079,-0.0435808714222984,0.0184655834861,-2.2996108460295184
220.55137844611528,0.6089734018198184,0.5733487338713887,-19.910393,0.061228000000000005,-0.012604999999999977,0.054957000000000006,-0.0327772833524535,0.0054977871437822,-2.568374132450711
221.55388471177943,0.6089732061684092,0.5733486080331496,-19.900103,0.10202699999999987,-0.045804999999999985,-0.031841,-0.0094073246682494,0.0093549647906896,-2.7918112181976094
222.5563909774436,0.6089730873114871,0.5733484226791831,-19.883238,0.05780900000000011,-0.042369000000000046,0.0119549999999999,-0.056618480934696,0.0051836278784231,-2.9854382024934933
223.55889724310777,0.6089730216871073,0.5733482153340679,-19.871136,0.0354550000000001,-0.029653999999999958,0.0023750000000000997,0.0182910505609005,0.0053930673886626,3.1324122042710103
224.56140350877192,0.6089730059791439,0.5733479936772529,-19.845438,0.0315989999999999,-0.009724000000000121,-0.027269,-0.0020943951023931,0.0081332343142936,2.985158565840739
225.56390977443607,0.6089730442018547,0.5733477624211271,-19.818541,0.0335530000000002,-0.016952999999999885,0.032574,0.0032637657012293,0.0050090949532237,2.85558567123853
226.56641604010025,0.608973129897521,0.5733475262780792,-19.808779,0.0225209999999998,-0.02299000000000001,0.01214,0.015673056682909,0.0027925268031909,2.744634916156325
227.5689223057644,0.6089732607972148,0.5733472892623668,-19.816509,0.010437000000000099,-0.04648200000000011,-0.008564,0.0088837258926511,0.0027227136331111,2.662604493672469
228.57142857142856,0.6089734279997572,0.5733470534683849,-19.83219,0.0018659999999996995,-0.046601999999999894,-0.008987000000000099,0.0179594380030216,0.0013962634015955,2.607486908628026
229.5739348370927,0.6089736240002321,0.5733468183725347,-19.846985,-0.014272999999999599,-0.04422100000000001,-0.0118399999999999,0.0203505390782538,0.0021816615649929,2.580574071188613
230.5764411027569,0.6089738379775984,0.5733465806586905,-19.853588,-0.0272280000000001,-0.04904,-0.0004959999999998993,0.0156556033903891,0.0016057029118348,2.582162111368418
231.57894736842104,0.6089740619033415,0.5733463361380623,-19.852102,-0.0245010000000001,-0.0498450000000001,0.0010069999999998995,0.0174707458124632,-0.0004188790204786,2.608551646738205
232.5814536340852,0.6089742868762821,0.5733460820181232,-19.848516,-0.015195999999999994,-0.0463899999999998,0.007343000000000001,0.0134390352403563,-0.0025656340004316,2.6557804133768044
233.58395989974937,0.6089745032971092,0.5733458148082147,-19.847277,-0.005981999999999904,-0.049302,0.003078,0.0134739418253962,-0.0043982297150255,2.719502122567729
234.58646616541355,0.6089747003447818,0.5733455352064686,-19.851551,0.005214999999999692,-0.044098000000000206,0.002794,0.0124965574442793,-0.0057246799465413,2.793120162776728
235.58897243107768,0.6089748705143839,0.5733452453072798,-19.862659,0.0113340000000004,-0.03510399999999979,-0.0002850000000001003,0.0091280719879303,-0.0063180918922194,2.8716426654502927
236.59147869674183,0.6089750089189936,0.5733449459833131,-19.881958,0.008812999999999807,-0.020776000000000017,0.0040380000000001,0.0237888377046827,-0.0080110612666539,2.948943036221733
237.593984962406,0.6089751132896829,0.5733446375836343,-19.907227,0.007967000000000002,-0.004156000000000104,-0.0075330000000000995,0.0159697626557481,-0.0076096355386952,3.0204318794630542
238.59649122807016,0.608975183277386,0.5733443222026384,-19.932304,0.0066980000000001,0.011872000000000105,-0.0069309999999999,0.0152192710773905,-0.0065449846949787,3.082251563741741
239.59899749373432,0.6089752232454257,0.5733440007129902,-19.95167,0.006891999999999697,0.02166999999999991,-0.004687,0.0167377075266256,-0.0045727626402249,3.132534185332432
240.6015037593985,0.6089752375571257,0.5733436736382884,-19.959379,0.008194000000000302,0.026360999999999996,-0.003573,0.0171740398396242,-0.0034557519189486,-3.1122536688637688
241.60401002506265,0.6089752338919342,0.5733433423747963,-19.959225,0.0062190000000002,0.030600000000000002,0.009646,0.0116413461108021,-0.003630284844148,-3.0853408314243564
242.6065162907268,0.6089752171367734,0.5733430097150409,-19.962013,0.0013369999999999008,0.018427,0.011731,0.0108559479474047,-0.004886921905584,-3.068079280776037
243.60902255639093,0.6089751907823018,0.573342673390094,-19.974789,-0.004323000000000302,0.013704999999999995,-0.0020880000000001,0.0098611102737679,-0.0050265482457436,-3.0582008219295047
244.6115288220552,0.6089751576210459,0.5733423328763569,-19.991127,-0.0030589999999998986,0.0205280000000001,-0.0083299999999999,0.0052883476335428,-0.0036128315516281,-3.056211181488816
245.6140350877193,0.6089751214927304,0.5733419888719614,-20.001953,0.0021059999999998996,0.02357,-0.0042879999999999,0.0042411500823462,-0.0023561944901921,-3.061028307677613
246.61654135338344,0.6089750853644149,0.5733416412023745,-20.008881,0.0053300000000003,0.018190999999999798,0.0057389999999999,-0.0002094395102393,-0.0016406094968746,-3.070819674594471
247.6190476190476,0.6089750532503567,0.5733412910893264,-20.019854,0.0045709999999999,0.0062720000000000015,0.009027,-0.003682644721708,-0.0016929693744345,-3.084293406980357
248.62155388471177,0.6089750281176154,0.5733409394054823,-20.036232,-0.001384999999999999,0.005568000000000101,-0.010197,-0.0020245819323134,0.0005585053606382,-3.100891557979993
249.62406015037595,0.6089750083953948,0.5733405858017757,-20.045994,0.012426,-0.0102080000000001,-0.0066009999999999,0.0443662695856958,0.0075398223686156,-3.123894875348231
250.62656641604008,0.6089750003668803,0.5733402498258947,-20.019627,0.2331369999999999,0.2097440000000001,-0.0676560000000001,0.0188495559215387,0.0320267917740959,2.952939910021971
251.62907268170423,0.6089750691328528,0.5733399585304425,-19.955614,0.08366599999999982,0.277807,0.095883,-0.0598473400508855,0.0150970980297511,2.654122053881437
252.6315789473684,0.6089751586682435,0.5733397316376398,-19.9118,0.019546000000000285,-0.118697,-0.014485999999999999,-0.0282045207122283,0.0111526539202437,2.402567853511249
253.63408521303256,0.6089753504799282,0.573339563213367,-19.884153,0.005603999999999887,-0.10283999999999999,0.009981,-0.0355349035706045,0.0090408055253305,2.178956322105613
254.63659147869672,0.60897561489731,0.5733394436583132,-19.876453,-0.01236500000000007,-0.07963800000000013,0.016068999999999996,-0.0248360352558793,0.0078190750489346,1.9776850051255048
255.6390977443609,0.6089759124759474,0.5733393696563529,-19.883608,-0.012551999999999897,-0.057155999999999985,-0.035218,0.0151320046147908,0.0122696646415201,1.793133785299869
256.64160401002505,0.6089762318712005,0.5733393419056179,-19.88496,-0.008049000000000028,-0.0412359999999998,-0.0073290000000000004,-0.0112922802604033,0.0135088484104362,1.6238892426405644
257.64411027568923,0.6089765671489498,0.5733393588353115,-19.877182,-0.010911999999999977,-0.03101200000000011,0.006872000000000001,0.0129328897572779,0.0128107167096385,1.470422458965995
258.6466165413533,0.6089769137713392,0.5733394188746378,-19.857422,-0.016247000000000122,-0.023212000000000198,-0.009682000000000001,0.0151320046147908,0.0122173047639604,1.332907862481607
259.64912280701753,0.6089772703421054,0.5733395218490638,-19.834255,-0.013945999999999903,-0.0228669999999998,0.014396,3.4906585039886e-05,0.0090408055253305,1.2120438990474618
260.6516290726817,0.6089776319743264,0.5733396646169965,-19.824568,-0.026675999999999978,-0.015541,0.018469,0.0146782190092723,0.0066322511575784,1.1211994765745723
261.65413533834584,0.6089779944792121,0.5733398414188497,-19.832083,-0.0537060000000002,-0.0044340000000000004,-0.0023690000000001,0.0133517687777566,0.0064053583548191,1.0663961380619504
262.65664160401,0.6089783580312953,0.573340046320504,-19.851282,-0.05560699999999971,0.006176999999999801,-0.010080000000000002,0.01537635071007,0.005899212871741,1.047965548427353
263.65914786967414,0.608978722630576,0.5733402691990495,-19.870617,-0.0704960000000001,0.022380000000000098,-0.0157089999999999,0.0132994089001967,0.0060911990894603,1.068508038816741
264.6616541353383,0.6089790929894433,0.573340496440918,-19.877354,-0.076842,0.0276220000000003,-0.005056,0.0148527519344717,0.0055501470213419,1.1242887442571874
265.6641604010025,0.6089794727730885,0.5733407160033379,-19.869299,-0.07701,0.021732999999999503,0.0010929999999999985,0.0121998514714403,0.0031415926535898,1.2076980117567038
266.66666666666663,0.6089798679156312,0.5733409151454056,-19.854244,-0.0659329999999998,0.006084000000000395,0.010439000000000101,0.0135088484104361,0.0002443460952792,1.31035834817218
267.6691729323308,0.6089802778934725,0.573341082347948,-19.84103,-0.0472420000000002,-0.011464000000000099,0.0095009999999999,0.0244695161129604,-0.0031415926535898,1.4202093538394105
268.671679197995,0.6089807000886185,0.5733412127240431,-19.839748,-0.019598000000000004,-0.027171000000000098,0.009167999999999999,0.0243997029428807,-0.0079761546816139,1.5283499368396871
269.6741854636591,0.6089811303122792,0.5733413036556971,-19.856224,-0.0012049999999999839,-0.0315790000000002,-0.0034879999999999998,0.0228812664936456,-0.0093898713757294,1.6280605446462455
270.6766917293233,0.6089815622812691,0.573341357586371,-19.884468,0.01438300000000009,-0.0213039999999997,-0.0042660000000001,0.0186924762888592,-0.0097040306410884,1.712447336153219
271.6791979949875,0.6089819919813309,0.5733413780067232,-19.918264,0.02985599999999991,-0.0095809999999998,-0.00726,0.0201236462754946,-0.0081506876068133,1.7797297090044304
272.6817042606516,0.6089824190633988,0.5733413698036758,-19.948524,0.03705,0.0051859999999996995,-0.0070859999999998,0.0219562419900886,-0.0065798912800185,1.8268884355801471
273.6842105263158,0.6089828468435985,0.5733413399585455,-19.969572,0.04237500000000009,0.0144540000000001,-0.0054820000000001,0.0235270383168835,-0.0035604716740684,1.855319796735257
274.68671679198,0.608983279859786,0.5733412949290508,-19.976023,0.0348669999999999,0.014190000000000098,-0.004557,0.0216246294322097,-0.0013089969389956,1.86753718876568
275.6892230576441,0.6089837193336917,0.5733412404747782,-19.971682,0.0314680000000001,0.009550000000000003,0.012282999999999999,0.0196000474998963,-0.0031415926535898,1.8661933550548149
276.69172932330827,0.6089841652653154,0.5733411816571824,-19.967758,0.029442999999999997,0.006837999999999601,0.006006,0.0113271868454431,-0.0053232542185825,1.85214345457626
277.6942355889724,0.6089846209707831,0.5733411254575805,-19.971949,0.029261999999999802,0.0033980000000002966,0.007256,0.0056897733615015,-0.0063704517697793,1.8278833779735384
278.69674185463657,0.6089850831339692,0.573341073097703,-19.985594,0.0254050000000001,-0.010241999999999897,-0.0093820000000001,0.0125314640293192,-0.0087091929674516,1.8191916208453145
279.69924812030075,0.6089855341270478,0.5733410240539508,-20.020781,-0.120116,-0.23523300000000041,0.0301980000000001,-0.0712094334813686,0.0071383966406568,1.9759745824585504
280.7017543859649,0.6089859245572015,0.573340949004793,-20.015049,-0.22607600000000003,-0.2227899999999996,-0.108028,0.1365196540909964,0.021258110289291,2.274757427294289
281.70426065162906,0.6089862275463596,0.573340869592312,-19.984879,0.030265000000000097,-0.05051,0.095659,0.1020494013641084,-0.00307177948351,2.555685501522249
282.70676691729324,0.608986427212026,0.5733407571931083,-19.962168,0.12568399999999993,0.06156899999999993,-0.02965,0.0711570736038088,-0.00307177948351,2.7928234742571814
283.70927318295736,0.6089865415310921,0.5733405936557574,-19.936644,0.02940899999999999,0.0648180000000001,0.016732,0.0358490628359635,-0.0021467549799529,2.9912327130634067
284.71177944862154,0.608986604712011,0.5733404100471201,-19.912348,0.031257000000000104,0.05658899999999989,-0.010776999999999901,0.0509636141582344,0.0015009831567152,-3.123685558011039
285.7142857142857,0.6089866197218425,0.5733402089851902,-19.891121,0.021291999999999894,0.02692899999999998,0.0177849999999998,0.0160744824108677,0.0029845130209102,-2.977008227299776
286.71679197994985,0.6089865919711074,0.5733399965786202,-19.883194,0.028689999999999903,0.010699999999999987,0.00017900000000009922,0.0280998009571087,0.0070860367630969,-2.8463527573224328
287.719298245614,0.6089865186672788,0.5733397773652662,-19.886358,0.0268000000000004,0.00031200000000003447,-0.0027000000000001,0.0299498499642227,0.0081681408993334,-2.7307771589751235
288.7218045112781,0.6089864008575544,0.573339558326445,-19.894436,0.0151779999999996,0.020342999999999972,-0.0115219999999998,0.031084313978019,0.0104894288044858,-2.64171305960573
289.72431077694233,0.6089862420325924,0.5733393410329531,-19.891314,0.0010540000000000991,0.04545200000000002,-0.0126790000000001,0.0208392312688123,0.0102799892942466,-2.5782701667628105
290.7268170426065,0.6089860496973089,0.5733391263574553,-19.874897,-0.012327999999999999,0.04993,0.004371,0.0287630260728665,0.0082030474843735,-2.5416706123484905
291.72932330827064,0.6089858353708767,0.5733389092384963,-19.854668,-0.028649,0.046757999999999994,0.0118309999999999,0.021834068942449,0.0053930673886626,-2.5307971936552724
292.7318295739348,0.6089856088271398,0.5733386846146216,-19.840385,-0.0255679999999998,0.03461800000000009,0.0035930000000001005,0.0145385926691127,0.0036477381366681,-2.545632335217592
293.734335839599,0.6089853768728822,0.5733384500423702,-19.833042,-0.022143000000000197,0.0456449999999999,-0.0005090000000000008,0.0131248759749973,0.0015184364492351,-2.5824065970900376
294.7368421052631,0.6089851470130196,0.5733382018565504,-19.83107,-0.01074,0.049568,0.0011949999999999001,0.0029321531433504,-0.0001396263401594,-2.638396881667063
295.7393483709273,0.6089849312903242,0.5733379390099651,-19.8333,-0.0038049999999998085,0.053002999999999904,-0.0007649999999998994,-0.0057246799465414,-0.0022863813201126,-2.7084020728711407
296.7418546365915,0.6089847361625138,0.5733376613280811,-19.840675,0.003948999999999703,0.03475600000000009,-0.0031040000000000004,-0.0115889862332423,-0.0033859387488688,-2.785213768905316
297.7443609022556,0.608984570007169,0.5733373716034252,-19.850037,0.010877000000000303,0.020706000000000016,0.00036699999999989996,-0.0084648468721724,-0.0048171087355042,-2.863125336527513
298.7468671679198,0.6089844335224215,0.573337071406794,-19.859909,0.010461999999999708,0.01201799999999989,-0.0058839999999999,-0.0049567350756638,-0.0059690260418205,-2.938959909979959
299.749373433584,0.6089843305479956,0.573336758469259,-19.867016,0.009219000000000296,0.007614000000000093,0.0012729999999999998,-0.0140673537710742,-0.0075398223686153,-3.009610925367152
300.7518796992481,0.6089842589894964,0.5733364362814791,-19.873699,0.012035999999999998,0.0023209999999999065,0.006353,-0.0081506876068135,-0.0090582588178504,-3.072093468242454
301.7543859649123,0.6089842186723905,0.573336107635981,-19.887194,0.012067999999999496,-0.01764299999999991,0.003299,-0.010751228192285,-0.0087266462599715,-3.124034693674608
302.7568922305764,0.6089842057569541,0.5733357737544951,-19.911047,0.0074970000000007045,-0.027872999999999995,0.0008559999999999002,-0.0110130275800842,-0.0069813170079773,3.1200902844716856
303.7593984962406,0.6089842134364029,0.573335435509686,-19.93936,0.006248999999999498,-0.03521199999999999,-0.0092069999999998,-0.0103323491718064,-0.0041364303272264,3.093107406969391
304.7619047619048,0.6089842350784855,0.5733350942978173,-19.961788,0.0030559999999999997,-0.027089000000000002,-0.0097870000000001,-0.0108035880698448,-0.002094395102393,3.0766141851643845
305.7644110275689,0.6089842652726816,0.5733347508170205,-19.971588,0.0008850000000002016,-0.0186670000000001,-0.002496,-0.0083601271170528,-0.0018500490071138,3.069458265418038
306.76691729323306,0.6089842989575361,0.5733344047182298,-19.971121,-0.001853000000000101,-0.0161299999999999,0.006038,-0.0114842664781226,-0.0026703537555512,3.0696153974105944
307.76942355889724,0.6089843356094504,0.5733340551287807,-19.96789,-0.0035349999999997987,-0.0204620000000001,0.0069889999999999,-0.0038920842319473,-0.0043109632524258,3.0775215294826186
308.77192982456137,0.6089843715632329,0.573333702048673,-19.966045,0.0034309999999995004,-0.0174989999999999,0.0018940000000001,-0.0048171087355043,-0.0058293997016609,3.090751037946273
309.77443609022555,0.6089844047244888,0.5733333451288409,-19.969362,0.008109000000000598,-0.0090169999999999,0.006848999999999999,-0.0086742863824118,-0.0069115038378975,3.10630204375459
310.77694235588973,0.6089844305553618,0.5733329868127455,-19.985052,0.0089439999999996,-0.014663999999999996,0.0066549999999999995,-0.0131248759749973,-0.00609119908946,3.1234759614211667
311.77944862155385,0.608984446437858,0.5733326373978292,-20.015512,0.15720900000000032,-0.055917000000000106,0.0026149999999999993,-0.00923279174305,-0.0001570796326795,-3.042789651900857
312.78195488721803,0.6089844106586082,0.5733323295217492,-20.019623,0.15937299999999957,-0.37013399999999996,-0.096002,0.0269653369433123,0.0268257106031528,-2.7472354916483823
313.7844611528822,0.6089843115239069,0.5733320764490076,-19.965492,0.02100200000000013,0.043856000000000006,0.053539,0.0645771823237902,0.0100007366139276,-2.484388941204621
314.78696741854634,0.6089841607274594,0.5733318924913045,-19.909838,0.012666000000000066,0.1483580000000001,0.032498,0.018762289458939,0.008325220532013,-2.2565888115804165
315.7894736842105,0.608983923537214,0.5733317594972155,-19.86515,-0.026536000000000004,0.06935099999999977,0.013096,0.0937067275395755,-0.0005061454830783,-2.0549853758969463
316.79197994987464,0.6089836542329105,0.5733316704854237,-19.861099,-0.017293999999999976,0.04447600000000021,0.022119999999999997,0.0135786615805158,-0.0022514747350725,-1.874361530860733
317.7944862155388,0.6089833575269377,0.5733316235360667,-19.875912,-0.015278000000000014,0.02110899999999999,-0.045399999999999996,0.0488343124708013,0.0041538836197465,-1.7093925561766243
318.796992481203,0.6089830360372894,0.5733316207435399,-19.878002,-0.008340999999999987,0.04535399999999991,-0.017677,0.0494451777089993,0.0034557519189488,-1.5591029175125073
319.7994987468672,0.6089827016322048,0.5733316579190529,-19.864986,-0.008800000000000086,0.04880500000000001,0.01113,0.0277332818141899,0.002775073510671,-1.4222862083828212
320.8020050125313,0.6089823612930007,0.5733317361098035,-19.85161,-0.020888999999999908,0.026050000000000097,0.019371,0.0414341164423453,-0.0001570796326795,-1.303341984952823
321.8045112781955,0.6089820195575331,0.5733318507779354,-19.855021,-0.03081400000000012,-0.0008110000000000998,0.007656,0.0378736447682769,-0.0016057029118348,-1.210804593105499
322.8070175438596,0.6089816746804729,0.5733319987818559,-19.873007,-0.03601599999999999,-0.010065999999999901,-0.0098710000000001,0.0283790536374277,-0.0007679448708775,-1.1470298782651904
323.8095238095238,0.6089813245674248,0.5733321764563737,-19.88909,-0.0344109999999998,-0.005315,-0.0174679999999998,0.019076448724298,0.0014311699866353,-1.1129089182815044
324.812030075188,0.6089809669494611,0.5733323743767109,-19.892498,-0.048667000000000196,-0.006541999999999999,-0.0041500000000001,0.0189891822616983,0.0044505895925857,-1.111548050157139
325.8145363408521,0.6089806014775159,0.5733325839907542,-19.884348,-0.07026299999999999,-0.020126000000000102,0.007571,0.0119555053761611,0.004310963252426,-1.1450932260205928
326.8170426065163,0.6089802251845291,0.573332792208534,-19.880373,-0.0772929999999999,-0.022760000000000093,0.014052,0.0024958208303518,0.0026354471705114,-1.207471380753333
327.8195488721804,0.6089798359761059,0.5733329885580748,-19.885546,-0.0671549999999999,-0.01440799999999981,-0.002674,-0.0074176493209759,0.0005061454830783,-1.2917881321974234
328.8220551378446,0.6089794310597194,0.5733331616947365,-19.890495,-0.044145000000000004,0.008824000000000207,-0.017037,-0.0080459678516938,0.0004886921905584,-1.3865593709543762
329.8245614035088,0.6089790127042978,0.573333305160801,-19.880943,-0.03311800000000009,0.0310349999999997,-0.001671999999999901,-0.0145385926691127,-0.0012391837689158,-1.4862526825480464
330.8270676691729,0.6089785859712956,0.5733334133712147,-19.86989,-0.02379600000000001,0.026692999999999897,0.025639999999999802,-0.0191288086018578,-0.0060562925044203,-1.5836418104632346
331.8295739348371,0.6089781566202996,0.5733334858023786,-19.878511,-0.0014189999999998926,0.0071210000000000995,0.006328000000000101,-0.0088313660150913,-0.0077143552938148,-1.6716939155724442
