Time [s],Longitude [rad],Latitude [rad],Altitude [m],V North [m/s],V East [m/s],V Down [m/s],Roll [rad],Pitch [rad],Yaw [rad]
1.0025062656641603,0.6096587505546416,0.5734271111975751,-11.246019,0.12539100000000003,0.15979599999999994,0.006406000000000002,0.0157254165604689,-0.0134390352403561,-0.4067664354697984
2.0050125313283207,0.6096586070885771,0.5734274295456305,-11.279463,0.05344899999999986,0.13256600000000007,0.025317999999999997,-0.007993607974134,-0.0075921822461753,-0.3495196534576774
3.007518796992481,0.609658488231655,0.5734277557476678,-11.327631,0.025253999999999888,0.07758100000000001,-0.0019920000000000007,-0.0085172067497323,0.0001221730476397,-0.3055897510915646
4.010025062656641,0.6096583824647024,0.5734280775863819,-11.355957,0.0051480000000001525,0.05473899999999998,-0.036404,-0.0167028009415857,0.0093375114981697,-0.2707007415172458
5.012531328320802,0.6096582869951922,0.5734283994250959,-11.336946,0.008178000000000019,0.06942499999999996,-0.048851,-0.0001919862177193,0.0164410015537865,-0.242373751051405
6.015037593984962,0.6096582028703224,0.5734287209147442,-11.278131,0.01727400000000001,0.082289,-0.025949999999999994,0.0082728606544531,0.0218864288200089,-0.2212729996474734
7.017543859649122,0.6096581344534157,0.5734290458950508,-11.208636,0.008846999999999827,0.066768,0.0044309999999999905,-3.490658503988601e-05,0.0257610597594364,-0.2089505562493736
8.020050125313283,0.6096580805227417,0.5734293724461539,-11.163726,-0.0007880000000000109,0.028707000000000038,0.03961200000000001,0.0008203047484373,0.0255516202491969,-0.2038197071275303
9.022556390977442,0.609658026243002,0.5734296995208558,-11.156609,0.003066000000000013,-0.029442000000000024,0.020884,-0.0044331363000655,0.0235619449019235,-0.2031741621970957
10.025062656641603,0.6096579639347477,0.5734300267700906,-11.13455,0.006454000000000182,-0.02389600000000003,-0.051063,-0.0103498024643263,0.0256912465893566,-0.2003293627828076
11.027568922305765,0.6096578995320984,0.5734303550665228,-11.04705,0.0023529999999998275,0.046104000000000034,-0.055484,-0.0026354471705114,0.0281172542496286,-0.1936970243587661
12.030075187969924,0.6096578431579636,0.5734306828393564,-10.944301,0.0011980000000000324,0.057062999999999975,0.026987999999999998,0.0032288591161895,0.0258832328070759,-0.1916895466531223
13.032581453634084,0.6096577958595407,0.5734310088668606,-10.893356,-0.0002039999999996489,-0.0033889999999999754,0.058769,-0.0075398223686155,0.0217118958948094,-0.1972747224325515
14.035087719298245,0.6096577480375193,0.5734313369887599,-10.884426,-0.0017590000000002881,-0.04549500000000001,0.014858999999999999,-0.0089709923552508,0.0185528499486997,-0.2036103897903391
15.037593984962406,0.6096576918379174,0.573431665983324,-10.858847,-0.004982999999999738,-0.02413599999999999,-0.039233,-0.0054977871437821,0.017819811662862,-0.2061409252195132
16.040100250626566,0.609657629704196,0.573431992534427,-10.790814,-0.0024810000000003996,0.030159999999999965,-0.033750999999999996,0.0032288591161895,0.0168249739892254,-0.204482827523533
17.042606516290725,0.6096575740281929,0.5734323203072605,-10.714806,0.005809000000000175,0.040536000000000016,0.022368999999999993,-0.0008203047484373,0.0136135681655558,-0.2073974052013156
18.045112781954884,0.6096575256825725,0.5734326479055611,-10.683571,0.010307000000000066,-0.013402999999999998,0.056656,-0.0078190750489345,0.0101927228316469,-0.2164207225275414
19.047619047619047,0.6096574741953596,0.5734329781218557,-10.697202,-0.002571000000000101,-0.061124999999999985,0.021426,-0.0130027029273577,0.0091106186954104,-0.2252517569300754
20.050125313283207,0.6096574090945786,0.5734333060692222,-10.700891,-0.01716099999999976,-0.038773,-0.036502,-0.0101229096615671,0.0099832833214075,-0.2264565751660196
21.052631578947366,0.6096573377106121,0.5734336312240618,-10.655172,-0.01060300000000014,0.03129700000000002,-0.04622899999999999,0.0020943951023931,0.0096167641784887,-0.222599257892772
22.05513784461153,0.6096572738315614,0.5734339544590392,-10.589313,0.004413,0.054199,0.011908999999999996,0.0071383966406568,0.0060388392119004,-0.222232808563023
23.05764411027569,0.6096572207735522,0.5734342789157472,-10.568998,0.012046999999999919,-0.0025440000000000462,0.067037,-0.00614355896702,0.0019722220547535,-0.22869043952894
24.06015037593985,0.6096571649230161,0.573434608084844,-10.608521,0.006673999999999847,-0.07270599999999999,0.03369,-0.0116587994033221,0.0013788101090754,-0.2371901755328587
25.062656641604008,0.6096570958079778,0.5734349344614141,-10.6355,-0.043828999999999674,-0.032279,-0.051712,-0.0183434104384603,0.0056199601914217,-0.1950403344708562
26.065162907268167,0.6096570347214539,0.5734352610125172,-10.597057,0.06589199999999984,0.173187,-0.057904,0.0378736447682769,0.0099832833214075,-0.1080013057259672
27.06766917293233,0.609656985677702,0.5734355873890874,-10.535094,-0.0019100000000000783,0.14391400000000001,0.017314999999999997,-0.0007330382858376,0.0071209433481369,-0.0632506099192265
28.07017543859649,0.6096569722386668,0.5734359203979086,-10.517377,0.003614000000000228,0.044987,0.05371,-0.0032463124087094,0.0053930673886626,-0.0501606405292689
29.07268170426065,0.6096569743330618,0.5734362535812628,-10.539702,0.003991000000000078,-0.020710000000000006,0.015443,0.0,0.0053581608036226,-0.0556238527005697
30.07518796992481,0.6096569699697387,0.5734365874627487,-10.553276,-0.007210000000000161,-0.016553,-0.03033,-0.002740166925631,0.0050963614158234,-0.070615847002766
31.07769423558897,0.6096569605449607,0.5734369192498395,-10.526041,-0.015900999999999943,0.0037670000000000065,-0.036647,-0.0037350045992678,0.0020245819323134,-0.0943179767502091
32.08020050125313,0.6096569498984524,0.5734372477208048,-10.487463,-0.003931000000000129,-0.007430000000000006,0.02021,0.0016929693744344,-0.0042062434973062,-0.1252271643910829
33.08270676691729,0.6096569350631537,0.5734375772389676,-10.487562,0.010968000000000089,-0.058572,0.048432,-0.0085870199198121,-0.009494591130849,-0.1560324700348776
34.08521303258145,0.6096569099304124,0.5734379069316633,-10.522575,0.0044119999999998605,-0.074939,0.008912,-0.0221656815003279,-0.0123394778115999,-0.1724908201614295
35.08771929824561,0.6096568710095701,0.5734382369734249,-10.543262,-0.011260999999999743,-0.008902999999999994,-0.029789,-0.0063355451847394,-0.0143291531588733,-0.1640086421697841
36.09022556390977,0.6096568305179315,0.5734385659679888,-10.542326,-0.008267000000000024,0.05501,-0.0012299999999999998,0.0001396263401595,-0.0190066355542182,-0.1315628142955776
37.092731829573935,0.6096567998001367,0.5734388937408224,-10.566505,0.007374999999999687,0.061422000000000004,0.042294,-0.0024958208303518,-0.0235270383168835,-0.0769520379593278
38.095238095238095,0.6096567816487124,0.5734392232589851,-10.625526,0.016599000000000252,0.07468999999999999,0.017436999999999994,-0.0077143552938149,-0.0249582083035189,0.0020943951023931
39.097744360902254,0.6096567788561856,0.5734395546970101,-10.679236,0.007406000000000024,0.12743500000000002,-0.023216999999999995,0.0019896753472735,-0.0246615023306797,0.1064999909566939
40.100250626566414,0.609656803639861,0.5734398875312985,-10.701916,-0.011159000000000141,0.20604399999999998,-0.030490999999999997,0.0108559479474047,-0.0245567825755601,0.2318320845424067
41.10275689223057,0.6096568708350372,0.5734402167003954,-10.710947,-0.04514299999999993,0.2531260000000001,0.007431999999999999,0.0244869694054804,-0.0268082573106327,0.3661002638983305
42.10526315789473,0.6096569882956959,0.5734405357465826,-10.744713,-0.08219500000000002,0.2415259999999999,0.039400000000000004,0.0165631746014261,-0.0283441470523877,0.5045397976198133
43.10776942355889,0.6096571514839809,0.5734408387357408,-10.821802,-0.10890899999999992,0.20184200000000008,0.03773699999999999,0.01230457122656,-0.0272096830385915,0.6472378998095772
44.11027568922306,0.6096573527204437,0.5734411233989418,-10.914551,-0.13467200000000012,0.19879400000000003,-0.009390999999999997,0.020001473227855,-0.026720990848033,0.7946658966321233
45.11278195488722,0.6096575895616232,0.5734413838020661,-10.983402,-0.17473300000000003,0.21384999999999987,-0.029747999999999997,0.031991885189056,-0.0285012266850672,0.943437657352365
46.11528822055138,0.609657867592573,0.5734416134873958,-11.02318,-0.21519,0.21753900000000015,-0.020152999999999997,0.0259879525621955,-0.0261973920724347,1.0909877748626728
47.11779448621554,0.6096581845443652,0.5734418098369366,-11.05545,-0.24176799999999998,0.18064199999999997,0.004580999999999995,0.0176103721526227,-0.0185703032412196,1.2374733462490195
48.1203007518797,0.6096585357046107,0.5734419636004437,-11.097445,-0.258439,0.12380799999999992,0.011047000000000001,0.025848326222036,-0.0116064395257622,1.380258732354675
49.122807017543856,0.609658906063478,0.5734420754760488,-11.148803,-0.265038,0.07610099999999997,0.0010660000000000044,0.028920105705546,-0.0068416906678177,1.517860542941786
50.125313283208015,0.6096592877669854,0.5734421445910871,-11.197625,-0.271798,0.04260300000000017,-0.007964000000000006,0.0200712863979347,-0.0030368728984699,1.649737621222478
51.127819548872175,0.6096596752300792,0.5734421705964929,-11.229436,-0.267313,0.02468199999999987,-0.024730999999999996,0.0274365758413508,0.0018675022996339,1.7727659325554357
52.130325814536334,0.6096600635658379,0.5734421555866613,-11.233442,-0.249672,0.011633999999999922,-0.028813000000000002,0.0109955742875642,0.009529497715889,1.8857060662789409
53.1328320802005,0.6096604532978598,0.5734421013069217,-11.217857,-0.22124199999999997,-0.02882600000000002,-0.009588,0.0172438530097039,0.0163886416762268,1.9897451255370304
54.13533834586466,0.6096608351759002,0.5734420147385907,-11.20177,-0.19936700000000007,-0.0680559999999999,0.0058390000000000004,0.0038571776469074,0.020647245051093,2.086907622448847
55.13784461152882,0.6096612009969113,0.5734418974524651,-11.187449,-0.20931,-0.09192899999999993,-0.004453000000000002,0.0040317105721069,0.0237015712420831,2.192168534356381
56.14035087719298,0.6096615458739716,0.5734417468305506,-11.158469,-0.19594900000000004,-0.09166200000000013,-0.023602,0.011362093430483,0.0276983752291499,2.282628652781274
57.14285714285714,0.609661873646805,0.5734415735193559,-11.10784,-0.16469899999999993,-0.09863899999999992,-0.017654999999999997,0.0056897733615015,0.0295135176512242,2.360156213061446
58.1453634085213,0.609662184140879,0.5734413700139651,-11.040249,-0.13063599999999997,-0.08366600000000002,-0.016861,-0.0068591439603377,0.0318173522638567,2.4254838171504245
59.14786967418546,0.6096624808468518,0.57344114835715,-10.959044,-0.08975299999999997,-0.0755570000000001,-0.009251999999999996,-0.0132645023151569,0.035691983203284,2.4817185874490697
60.15037593984962,0.6096627613212626,0.5734409144830303,-10.878011,-0.07685900000000001,-0.09124599999999994,0.008489999999999998,-0.0019024088846738,0.0375245789178781,2.542822686734439
61.15288220551378,0.609663024167848,0.5734406697878692,-10.810541,-0.08957400000000004,-0.12401400000000007,0.015497999999999998,0.0020769418098732,0.0371406064824393,2.608935671533521
62.15538847117794,0.6096632611835605,0.5734404139226008,-10.756923,-0.09519300000000008,-0.13667399999999996,0.012924999999999999,0.0009773843811168,0.0332485222504921,2.672605195379812
63.1578947368421,0.6096634732410645,0.5734401432220338,-10.710245,-0.08066499999999999,-0.124784,0.0014120000000000035,-0.0019547687622336,0.0278903614468695,2.728961946739879
64.16040100250626,0.6096636606894262,0.573439858035234,-10.656484,-0.06321399999999988,-0.10468799999999989,-0.015423000000000006,-0.0028623399732707,0.0223227611330074,2.7775169541704834
65.16290726817043,0.6096638338260881,0.5734395635981893,-10.581731,-0.05059999999999998,-0.07535400000000003,-0.020059999999999995,-0.0049567350756638,0.0163362817986669,2.8203648222135294
66.16541353383458,0.6096639956181097,0.573439263052492,-10.492913,-0.04001200000000016,-0.047533999999999965,-0.004348000000000005,-0.0145211393765928,0.0108210413623648,2.8579241855434
67.16791979949875,0.6096641500797485,0.5734389586670705,-10.426696,-0.026366999999999807,-0.049012000000000056,0.046767,-0.0177849050778222,0.0057595865315813,2.889933524024976
68.1704260651629,0.609664293545813,0.5734386500928588,-10.41624,-0.019183000000000172,-0.09293600000000002,0.054814,-0.0053930673886624,0.0015009831567152,2.917230648059092
69.17293233082707,0.6096644178132558,0.5734383387261203,-10.451449,-0.012753000000000014,-0.107205,0.031492,-0.0048345620280242,-0.0050614548307834,2.9355390820993423
70.17543859649122,0.6096645197404841,0.5734380259631183,-10.49278,-0.018865999999999827,-0.06256499999999998,-0.019361,-0.0086568330898918,-0.011309733552923,2.942241198786878
71.17794486215539,0.6096646139882637,0.5734377098839908,-10.495621,-0.006639999999999979,0.01699700000000004,-0.03932,-0.0147131255943121,-0.0155334303427494,2.9401293154853803
72.18045112781954,0.6096647143446956,0.573437392059534,-10.478373,-0.010658999999999974,0.039733999999999936,0.00015199999999999936,-0.0195476876223364,-0.0186575697038193,2.935643749494585
73.1829573934837,0.6096648258712349,0.5734370738860113,-10.478003,0.005729999999999791,0.023349999999999982,0.032466,-0.0194953277447766,-0.019634954084936,2.9286273862752275
74.18546365914787,0.60966494193563,0.5734367579814167,-10.523742,0.0030770000000002184,-0.015390999999999933,0.047868999999999995,-0.0194604211597367,-0.0206996049286527,2.9203372294078878
75.18796992481202,0.6096650529385705,0.5734364426004208,-10.600751,0.012286999999999715,-0.03691699999999998,0.006186999999999998,4.337963350313732e-19,-0.023073252711365,2.909690982770109
76.19047619047619,0.6096651566111281,0.5734361294883531,-10.657458,0.01750200000000013,0.007647999999999988,-0.038742,-0.0016580627893946,-0.0260403124397552,2.893406816502907
77.19298245614034,0.6096652660432722,0.5734358209141414,-10.673329,0.02747900000000003,0.07572299999999998,-0.025606999999999998,-0.0115889862332423,-0.0278729081543493,2.8747841184775424
78.19548872180451,0.6096653908343138,0.5734355165287197,-10.691357,0.01850099999999988,0.06617799999999996,0.025390000000000003,-0.007382742735936,-0.0271224165759917,2.862793776329512
79.19799498746866,0.6096655260973308,0.5734352158084897,-10.750838,-0.00010199999999982445,0.0022530000000000605,0.045329999999999995,-0.0027750735106709,-0.0261275789023549,2.85710393315484
80.20050125313283,0.6096656604876832,0.5734349133429302,-10.834377,-0.008672000000000013,-0.03538300000000005,-0.005485000000000004,0.0031241393610698,-0.0228812664936455,2.8523741606951054
81.203007518797,0.6096657885948502,0.5734346100047063,-10.888979,0.006072999999999995,-0.005298999999999943,-0.04207199999999999,-0.0040142572795869,-0.0188844625065784,2.8440315392304503
82.20551378446115,0.6096659158293528,0.5734343068410152,-10.901268,0.014721999999999902,0.04402099999999998,-0.032448000000000005,-0.0045029494701453,-0.0152018177848705,2.834763736182605
83.20802005012531,0.6096660523141003,0.5734340059462522,-10.900474,0.011012000000000022,0.04749999999999999,0.004994,-0.0046774823953448,-0.0122347580564801,2.8304701913161137
84.21052631578947,0.609666199794422,0.573433705226022,-10.91721,0.0018730000000000135,0.011781000000000041,0.024324,-0.0040491638646268,-0.0097912971036882,2.832232938954043
85.21303258145363,0.6096663458784805,0.5734334064256541,-10.954091,-0.005338999999999983,-0.02750600000000003,0.007899,0.0035779249665883,-0.0056723200689814,2.836910508615851
86.21553884711778,0.6096664875992157,0.5734331067526216,-10.982704,-0.0032650000000000734,-0.02941499999999997,-0.023218999999999997,0.0053756140961425,-0.0022514747350725,2.840907382416088
87.21804511278195,0.6096666211169035,0.5734328058578584,-10.983833,0.0014039999999999608,-0.0034960000000000546,-0.023716,-0.0037175513067479,-0.0004537856055184,2.8433857150473347
88.22055137844612,0.6096667535873938,0.5734325053121613,-10.969445,-0.002542999999999962,0.010207999999999995,-0.004705000000000001,-0.0020071286397934,-8.726646259971105e-05,2.8463527573224323
89.22305764411027,0.6096668885013449,0.5734322042428653,-10.952606,-0.011652999999999913,0.0036319999999999686,-0.006029,0.0009424777960769,0.0009424777960769,2.8513794626478086
90.22556390977444,0.6096670260332899,0.5734319019518389,-10.928819,-0.0021089999999999165,-0.0028009999999999424,-0.004803999999999999,-5.235987755982984e-05,0.0030194196059503,2.857034154891345
91.2280701754386,0.6096671637397679,0.5734315973918844,-10.909878,0.00793099999999991,-0.003098000000000045,0.012670999999999998,0.0019198621771937,0.0042236967898263,2.8617466136849
92.23057644110276,0.6096672977810546,0.5734312952753908,-10.910684,0.007557999999999954,-0.02119099999999996,0.023244,0.0057595865315812,0.0030194196059503,2.865917933143874
93.23308270676692,0.609667427109952,0.5734309943806278,-10.928569,-0.0065830000000000055,-0.03886900000000004,0.007323,0.011676252695842,0.0003665191429189,2.8698274532150485
94.23558897243107,0.6096675473631376,0.5734306915660026,-10.935886,-0.013649000000000022,-0.02320599999999995,-0.021963,0.0026354471705114,-0.0016755160819144,2.870874598406368
95.23809523809524,0.6096676663945926,0.5734303852607189,-10.914931,-0.014893999999999963,0.015225999999999962,-0.034272,-0.0029845130209103,-0.002740166925631,2.8683611148439856
96.2406015037594,0.6096677918837657,0.5734300777337047,-10.863598,0.0017849999999999255,0.05077300000000007,-0.017375,-0.0077318085863348,-0.0020245819323132,2.8631253365275127
97.24310776942356,0.6096679281939803,0.5734297719520198,-10.81824,0.013288000000000189,0.040788999999999964,0.028083,-0.0039269908169872,-0.0013439035240354,2.8612403460287736
98.24561403508773,0.6096680695656498,0.573429470359125,-10.818813,0.015075999999999867,-0.017908999999999953,0.052934999999999996,0.0013089969389957,-0.0007504915783576,2.8638409389741226
99.24812030075188,0.6096682077957264,0.5734291703370266,-10.863105,0.004671000000000092,-0.05649800000000005,0.026069999999999996,0.0074525559060157,-0.001815142422074,2.8671570994594973
100.25062656641605,0.6096683313650375,0.5734288704894611,-10.90947,-0.005730000000000013,-0.04020699999999999,-0.020394999999999996,0.0055850536063818,-0.0041538836197463,2.8675933270527407
101.2531328320802,0.6096684481275645,0.5734285687220334,-10.917042,-0.014758000000000049,0.011751999999999985,-0.048785,0.0038222710618675,-0.004886921905584,2.864207388303872
102.25563909774436,0.609668568206217,0.5734282636384802,-10.876399,-0.012440000000000007,0.05365500000000001,-0.035574999999999996,-0.0050789081233034,-0.002740166925631,2.859285594719833
103.25814536340852,0.6096687029456352,0.5734279555878672,-10.823138,0.0008509999999999351,0.04981899999999995,0.011770999999999997,-0.0127234502470386,1.74532925198978e-05,2.856580351832534
104.26065162907268,0.6096688471098315,0.573427650155248,-10.803467,0.017518000000000145,0.007141000000000064,0.044391,-0.003996803987067,0.0020769418098733,2.85698169029403
105.26315789473684,0.6096689910994948,0.5734273494350179,-10.832372,0.022853000000000012,-0.03166599999999997,0.044381,0.0005585053606381,0.000314159265359,2.85944272671239
106.265664160401,0.6096691246171826,0.5734270511582488,-10.88426,0.0009629999999998251,-0.04547699999999999,-0.0032279999999999948,0.0079587013890941,-0.0031241393610697,2.863509361322829
107.26817042606515,0.6096692488846253,0.5734267534050784,-10.902527,-0.01333899999999999,-0.014917000000000069,-0.052553,0.0075572756611354,-0.0036128315516281,2.864713655959997
108.27067669172932,0.6096693719303375,0.5734264516376507,-10.870017,-0.01604799999999984,0.023739000000000066,-0.037938,0.0018151424220741,-0.0024434609527919,2.8646784875755698
109.27318295739347,0.6096695024809656,0.573426145332367,-10.821469,-0.009546000000000054,0.032962999999999965,0.005179000000000003,-0.0071558499331767,-0.0001745329251994,2.865813265748632
110.27568922305764,0.6096696419327728,0.5734258392016163,-10.796635,0.002483000000000013,0.012975999999999988,0.032117,-0.0066671577426183,0.0007679448708775,2.8676282161844884
111.2781954887218,0.6096697831299093,0.5734255342925959,-10.803001,0.014234999999999998,-0.012264000000000053,0.025403999999999996,0.0001047197551196,-0.0006806784082777,2.870682594735356
112.28070175438596,0.6096699182183933,0.5734252313034377,-10.827092,0.012593999999999994,-0.030760999999999927,0.010366,0.0040666171571467,-0.0032114058236694,2.876285084180965
113.28320802005013,0.6096700445802312,0.5734249307577406,-10.853148,-0.003319000000000072,-0.029343000000000008,-0.002363999999999998,0.0100007366139275,-0.0054105206811823,2.880264644315022
114.28571428571428,0.6096701643098179,0.5734246295139117,-10.871168,-0.01985999999999999,-0.01687800000000006,-0.014362000000000002,0.0052708943410228,-0.0063180918922194,2.880822835516395
115.28822055137844,0.6096702812468778,0.5734243233831608,-10.865397,-0.011194999999999844,0.006076000000000081,-0.027444999999999997,-0.003979350694547,-0.0049741883681837,2.8772800440276494
116.2907268170426,0.6096704053397877,0.5734240153325478,-10.838971,0.0006899999999998574,0.03592699999999993,-0.008806000000000001,-0.003368485456349,-0.004607669225265,2.871485533457736
117.29323308270676,0.6096705362394815,0.5734237088527312,-10.820819,0.011575000000000113,0.039689000000000085,0.023285,-0.0081681408993334,-0.0034033920413889,2.867331527664942
118.29573934837092,0.6096706748186241,0.5734234058635731,-10.839355,0.016707999999999945,-0.0025840000000000307,0.041248999999999994,-0.0024260076602721,-0.0034382986264287,2.86644151446618
119.29824561403508,0.609670810430707,0.5734231065396064,-10.887096,0.003025999999999973,-0.04069400000000001,0.006406000000000002,0.0057246799465414,-0.0051312680008632,2.8674710841919318
120.30075187969923,0.6096709376652095,0.5734228077392384,-10.914598,-0.005506000000000011,-0.01522800000000002,-0.037572999999999995,0.0041015237421866,-0.0059166661642606,2.8669650783351925
121.3032581453634,0.6096710631543827,0.5734225059718107,-10.899743,-0.011365999999999987,0.028837,-0.036941,-0.0029496064358704,-0.0039444441095071,2.865778114817497
122.30576441102755,0.609671195275807,0.5734222014118563,-10.865284,0.002758000000000038,0.03825500000000004,0.0022380000000000004,-0.0059341194567807,-0.0001221730476395,2.8649927515606843
123.30827067669172,0.6096713362984106,0.5734218968519018,-10.854335,0.006296999999999997,-0.0028160000000000407,0.035258,3.4906585039886545e-05,0.0023561944901924,2.8675411242548137
124.31077694235589,0.6096714734812899,0.5734215936882108,-10.870378,0.0006139999999998924,-0.042265,0.009132000000000001,0.0063704517697793,0.00307177948351,2.871136397794167
125.31328320802004,0.6096716028101874,0.573421292095316,-10.878064,-0.0017939999999998513,-0.027112000000000025,-0.020325000000000003,0.0045553093477051,0.0024434609527921,2.8726024569125497
126.3157894736842,0.6096717239360375,0.5734209891061578,-10.860898,-0.009745000000000115,0.007066000000000017,-0.024807000000000003,0.0028797932657906,0.0030368728984702,2.872951610029411
127.31829573934836,0.609671848901612,0.5734206840226046,-10.826022,0.001000000000000112,0.026012000000000035,-0.007744000000000001,-0.0062831853071795,0.0058119464091412,2.871974225648294
128.32080200501252,0.6096719808485034,0.573420379986249,-10.797389,0.005767999999999995,0.010464000000000029,0.018340000000000002,-0.0053232542185827,0.0065798912800187,2.8724280287071053
129.32330827067668,0.6096721133189937,0.5734200766480249,-10.788067,-0.001064000000000176,-0.010855000000000059,0.015408,0.0020420352248333,0.0063879050622992,2.872323361311863
130.32581453634086,0.6096722440441545,0.5734197727862022,-10.786948,-0.007726999999999817,-0.01700299999999999,-0.002927,0.0014311699866353,0.0054105206811825,2.8708573021934805
131.328320802005,0.609672369184262,0.5734194684007806,-10.770911,0.004202999999999957,-0.00409499999999996,-0.020132,0.0004363323129985,0.0050090949532237,2.8675235487892463
132.33082706766916,0.6096724943243693,0.5734191647134907,-10.74455,0.010003999999999902,0.01694299999999993,0.0027050000000000025,0.0018675022996339,0.0034732052114687,2.861973523940952
133.33333333333331,0.6096726253985962,0.573418863120596,-10.724792,0.0031450000000001754,0.026673000000000058,0.0061259999999999995,-0.0053756140961425,0.0025132741228719,2.85790687187722
134.3358395989975,0.6096727617088108,0.5734185617022342,-10.707748,0.005071999999999965,0.020079999999999987,0.0037279999999999987,-0.0023038346126325,0.0015009831567152,2.857226176015649
135.33834586466165,0.6096729025568813,0.5734182602838723,-10.698246,-0.005159000000000136,-0.0006519999999999859,0.006414,0.0064053583548191,0.0002094395102394,2.8606470038962657
136.3408521303258,0.6096730427068204,0.5734179586909776,-10.690518,-0.0004169999999998897,-0.008201000000000014,-0.0020290000000000004,0.0003141592653589,0.0006981317007976,2.8656388375431874
137.34335839598998,0.6096731800642324,0.5734176557018196,-10.683913,-0.003306999999999949,-0.01348499999999997,0.002091000000000001,-0.0010821041362364,0.0013788101090754,2.8715379980550506
138.34586466165413,0.6096733130583214,0.5734173541089248,-10.676872,0.005012999999999934,-0.007908000000000026,0.0006439999999999996,0.0037350045992678,0.00307177948351,2.876878443766765
139.34837092731829,0.6096734443070813,0.5734170537377604,-10.678092,0.0036599999999999966,-0.01810299999999998,0.014405000000000001,0.0022514747350726,0.0034732052114687,2.8808580039008227
140.35087719298244,0.6096735715415837,0.5734167528429974,-10.687567,-0.01105899999999993,-0.03005200000000008,-0.005926000000000001,0.0071209433481368,0.0037524578917877,2.884086810657135
141.35338345864662,0.609673694761829,0.573416450377438,-10.675724,-0.010213000000000028,-0.0007239999999999469,-0.028036000000000002,0.0028448866807507,0.0047647488579445,2.8839123824516903
142.35588972431077,0.609673817982074,0.573416144770286,-10.634687,-0.013599000000000139,0.023538999999999977,-0.029240999999999996,-0.0001919862177193,0.0079761546816141,2.882777604278629
143.35839598997492,0.6096739481836362,0.5734158377668706,-10.573277,0.006588999999999956,0.03751300000000002,-0.003501000000000004,-0.0084124869946126,0.0110479341651241,2.880561053581889
144.36090225563908,0.6096740853665155,0.573415531112521,-10.53453,0.016575000000000006,0.009294999999999942,0.040059,-0.0031415926535897,0.0117286125734019,2.8808928930325703
145.36340852130326,0.60967422167673,0.5734152298686921,-10.542882,0.013060000000000072,-0.035765999999999964,0.044573,0.0092502450355699,0.0104894288044858,2.8827254014807018
146.3659147869674,0.6096743487366996,0.5734149301956596,-10.571703,-0.007215999999999889,-0.052622999999999975,-0.010141,0.0100880030765272,0.0072082098107366,2.884121699788882
147.36842105263156,0.6096744660228254,0.5734146298244952,-10.561079,-0.00994600000000001,-0.007682999999999995,-0.053464,0.0027925268031909,0.003665191429188,2.8808580039008227
148.37092731829574,0.6096745838325498,0.5734143263117384,-10.501099,-0.009133999999999975,0.04558499999999999,-0.034697000000000006,-0.0024958208303518,0.0023387411976725,2.8759013211850366
149.3734335839599,0.609674714034112,0.5734140222753827,-10.431033,0.0751409999999999,0.063913,0.014678000000000004,-0.0226892802759262,0.0010995574287564,2.917335315454334
150.37593984962405,0.6096748337636988,0.5734137376121817,-10.401,0.11069700000000005,-0.273466,0.04909,0.0216595360172496,0.0066846110351383,-3.1261465769761063
151.3784461152882,0.6096748932794263,0.5734134780817219,-10.410934,0.1796359999999999,-0.459965,0.027548,0.0953647903289701,-0.0039793506945469,-2.837224772600965
152.38095238095238,0.6096748967700848,0.5734132716092715,-10.430942,0.23852200000000012,-0.424656,-0.011446999999999999,0.1219112482518039,-0.0206821516361328,-2.578147923902001
153.38345864661653,0.6096748002533771,0.5734131009160705,-10.434583,0.24290599999999984,-0.295401,-0.008794,0.1647067215107049,-0.0389382956119934,-2.3591617768135387
154.38596491228068,0.6096746381122896,0.5734129625114609,-10.440082,0.20977800000000013,-0.21178200000000003,0.015917999999999998,0.0836187244630483,-0.0490612052735606,-2.1689031558009555
155.3884711779449,0.6096744393192878,0.5734128511594546,-10.460117,0.19231299999999996,-0.17186199999999996,0.015749,0.0422020613132229,-0.0459370659124906,-2.0005138768350053
156.39097744360902,0.609674214695413,0.5734127673836504,-10.501312,0.21262199999999998,-0.161756,0.030313,0.06461208890883,-0.0467050107833681,-1.8444116285366328
157.39348370927317,0.6096739597028094,0.573412712580312,-10.583944,0.221557,-0.17306299999999997,0.03483000000000001,0.0141022603561141,-0.044296456415616,-1.7017657989579666
158.39598997493732,0.6096736722470816,0.573412693556223,-10.667705,0.226476,-0.14008700000000007,-0.027694999999999997,0.0266860842629932,-0.0363203017340019,-1.5702200190758877
159.3984962406015,0.609673360880343,0.5734127106604499,-10.723291,0.225045,-0.07375899999999991,-0.01716700000000001,0.0316253660461372,-0.0318173522638565,-1.4480299195694928
160.40100250626566,0.609673038867096,0.5734127612749981,-10.785752,0.230638,-0.048319,0.02786600000000001,0.020612338466053,-0.0300196631343023,-1.336276225764909
161.4035087719298,0.6096727088253344,0.5734128478433289,-10.870857,0.21532100000000004,-0.06506400000000001,0.0020729999999999915,0.0282045207122283,-0.0235444916094034,-1.2423257629952924
162.406015037594,0.6096723711041242,0.5734129684455803,-10.926018,0.20334599999999992,-0.029238000000000097,-0.05340399999999999,0.0176976386152225,-0.0127583568320783,-1.1603126541776156
163.40852130325814,0.6096720316375847,0.5734131227326862,-10.937041,0.18642400000000003,0.015722000000000014,-0.023568000000000002,0.0158824961931484,-0.0044505895925854,-1.0929075148668193
164.4110275689223,0.609671696883434,0.5734133038978625,-10.943176,0.14864699999999997,0.017749999999999932,0.006426,0.00305432619099,0.0028623399732707,-1.041281077018554
165.41353383458645,0.6096713734739236,0.5734135039125948,-10.956697,0.09602700000000008,0.0454190000000001,-0.0019240000000000004,-0.0161792021659874,0.0136484747505958,-1.0035291689656047
166.41604010025063,0.6096710559985328,0.5734137164936978,-10.955102,0.052378000000000036,0.03434000000000004,-0.030178000000000003,-0.0062657320146596,0.0265988178003935,-0.977733254981006
167.41854636591478,0.6096707488205845,0.5734139336126567,-10.911146,0.025123000000000006,0.04208400000000001,-0.04621199999999999,-0.0077318085863348,0.0376118453804779,-0.959198189937384
168.42105263157893,0.6096704507183482,0.5734141512552144,-10.831821,0.03207099999999996,0.04178499999999996,-0.018537000000000012,0.0037699111843077,0.0418180888777841,-0.9455500118927608
169.4235588972431,0.609670159597429,0.5734143729120295,-10.742185,0.03824099999999997,0.028451000000000004,-0.007609999999999992,-0.0024958208303518,0.0431794456943397,-0.9387775933429556
170.42606516290726,0.6096698733634316,0.5734145998048321,-10.648252,0.02048099999999997,0.02264899999999992,0.001454999999999998,-0.0041887902047863,0.0429700061841005,-0.9371195131002674
171.42857142857142,0.6096695907946258,0.5734148291410958,-10.568373,-0.008712000000000053,-0.007141999999999982,0.023798,-0.0074525559060157,0.0374722190403182,-0.9406977347728288
172.43107769423557,0.6096693033388979,0.5734150556848328,-10.504257,-0.016943999999999848,-0.025201999999999947,-0.0006049999999999944,-0.0114319066005628,0.0307876080051801,-0.9446418821763632
173.43358395989975,0.6096690143123737,0.5734152794360429,-10.429023,0.0028319999999999457,0.010949000000000098,-0.012899000000000008,-0.0082205007768932,0.023108159296405,-0.9440485225905626
174.4360902255639,0.6096687272057119,0.5734155028381871,-10.353284,0.019412999999999903,0.023930999999999925,0.018803,-0.0030019663134302,0.012601277199399,-0.9431931192708672
175.43859649122803,0.6096684425425108,0.5734157281601936,-10.307873,0.005666000000000171,-0.0063630000000001186,0.034968,-0.0117111592808819,0.0028623399732707,-0.9473476486624376
176.44110275689223,0.6096681570066452,0.5734159545293976,-10.292553,-0.016032000000000046,-0.017442999999999875,0.020817,-0.0134215819478363,-0.0042062434973062,-0.9531245837667836
177.4436090225564,0.6096678688527858,0.5734161793278053,-10.286792,-0.018445000000000045,-0.00020500000000001073,0.002933,-0.0074525559060157,-0.0100007366139274,-0.9568418209142664
178.44611528822054,0.609667581222525,0.5734164006355543,-10.287837,-0.004882000000000053,0.006680000000000019,0.01386,-0.0044505895925855,-0.0171216799620643,-0.9575922950393309
179.4486215538847,0.6096672923705337,0.5734166205470401,-10.309819,0.003306000000000031,-0.008401000000000103,0.022536,-0.0060388392119003,-0.0238935574598022,-0.9598261594022512
180.45112781954887,0.6096670026458779,0.573416842203855,-10.347811,-0.0037039999999999296,-0.01730100000000001,0.008181,-0.0096167641784887,-0.0283441470523877,-0.9628807997525072
181.45363408521305,0.609666710652294,0.5734170631625384,-10.381898,-0.0018120000000001468,0.006279000000000146,-0.011891000000000002,-0.0093200582056497,-0.0301243828894219,-0.964154855199878
182.4561403508772,0.6096664204040395,0.573417285517485,-10.418564,0.0023120000000000918,0.02822799999999992,0.027405000000000002,0.0005235987755982,-0.0345226126044477,-0.963648866796432
183.45864661654133,0.6096661305048507,0.5734175066507013,-10.499253,-0.015687000000000006,-0.026519999999999877,0.044618,-0.0098087503962081,-0.0403345590135888,-0.9680643752710526
184.4611528822055,0.609665837987668,0.5734177235951273,-10.592183,-0.011381000000000085,-0.03606200000000004,-0.025804999999999995,-0.0127409035395586,-0.0396189740202712,-0.9697395073805312
185.4636591478697,0.609665541630761,0.5734179419358169,-10.64059,0.010782999999999987,0.022969999999999935,-0.044549000000000005,-0.0018500490071139,-0.0360235957611629,-0.965393759716114
186.46616541353384,0.609665245797453,0.573418158356644,-10.670335,0.004753000000000007,0.03574300000000008,0.010807999999999998,0.0013439035240356,-0.0348367718698068,-0.9633692301436778
187.468671679198,0.609664956072797,0.5734183773954652,-10.733232,-0.0046079999999999455,-0.005767000000000078,0.044241,-0.0038746309394274,-0.0354999969855645,-0.9672963256804188
188.47117794486212,0.6096646679189376,0.5734185952125559,-10.835125,-0.004464999999999941,-0.033924000000000065,0.025848999999999997,-0.0127583568320785,-0.0338419341961699,-0.9707866700251436
189.4736842105263,0.6096643719110965,0.5734188139023111,-10.934577,-0.0035240000000000826,-0.02712099999999995,-0.0335,-0.0078539816339744,-0.0271398698685116,-0.9712228976183872
190.47619047619045,0.6096640732852614,0.5734190299740726,-10.976368,-0.03053499999999998,0.03467599999999993,-0.065264,-0.0323758576244948,-0.0164060949687465,-0.9449561287081852
191.47869674185463,0.6096637853059348,0.5734192516308875,-10.971805,0.13688499999999992,0.08837099999999998,-0.020954,0.026459191460234,-0.0074001960284559,-0.8563810007820313
192.4812030075188,0.6096635139072362,0.573419490566462,-10.984793,0.08361400000000008,0.07677100000000014,0.046188,0.0105766952670856,-0.0087615528450115,-0.8102166930009294
193.4837092731829,0.6096632487917227,0.5734197377050841,-11.038743,0.044221999999999984,0.01710999999999996,0.017987999999999997,-0.0120602251312808,-0.004886921905584,-0.7931820526086633
194.48621553884712,0.6096629925773885,0.5734199965374123,-11.07042,0.0002830000000000332,0.009231999999999907,-0.057762,-0.0023387411976724,0.00310668606855,-0.7944742245736692
195.48872180451127,0.6096627422971739,0.5734202546716086,-11.040062,-0.01905800000000002,0.03882500000000011,-0.046332,0.0027750735106709,0.007435102613496,-0.8096233334151296
196.49122807017545,0.6096624955076176,0.5734205079188831,-10.996075,-0.015401999999999916,0.0040439999999999365,0.020942000000000002,0.0055850536063818,0.0039793506945471,-0.8401314443938956
197.4937343358396,0.6096622467981992,0.573420755406571,-10.990509,-0.028617000000000115,-0.06503899999999985,0.040147,-0.0035430183815484,0.0004886921905584,-0.87948870629283
198.49624060150376,0.6096619846497455,0.5734209981818699,-11.00853,-0.050462999999999925,-0.07620300000000002,-0.0015510000000000003,-0.0151145513222708,0.0014486232791552,-0.9110967063129104
199.4987468671679,0.609661708538658,0.5734212343249178,-11.000175,-0.047719999999999985,-0.02437900000000015,-0.042161000000000004,-0.0101927228316468,0.0048171087355044,-0.924867371564438
200.5012531328321,0.6096614270170495,0.5734214613922534,-10.959991,-0.011643999999999988,0.028099000000000096,-0.0035899999999999994,-0.0039095375244672,0.0040666171571468,-0.9159836107652012
201.50375939849624,0.609661150905962,0.5734216872378587,-10.946751,0.037169999999999925,0.014720999999999984,0.046077,0.0032288591161895,0.0001919862177195,-0.8853359432594471
202.5062656641604,0.6096608767147365,0.5734219198902478,-10.963666,0.05289800000000011,0.008205000000000018,0.0006080000000000009,-0.0084124869946126,0.0016929693744345,-0.831265259060227
203.50877192982452,0.6096606081085645,0.5734221630146127,-10.955325,0.07327399999999984,0.07135599999999998,-0.03979,-1.7453292519943537e-05,0.0061959188445799,-0.7488510735804418
204.5112781954887,0.6096603531159608,0.5734224180072164,-10.919957,0.10255100000000006,0.12633899999999998,-0.008726000000000001,0.0062831853071795,0.0065449846949787,-0.6422458043632677
205.51378446115288,0.6096601265722239,0.5734226915003103,-10.887116,0.13192099999999995,0.1742030000000001,0.010641999999999999,0.0139800873084745,0.0053058009260629,-0.5178042650283851
206.51629072681703,0.6096599366804013,0.5734229862864209,-10.868718,0.13307500000000005,0.22142499999999987,0.019102,0.0249931148885588,0.0015533430342751,-0.3829423246609338
207.5187969924812,0.6096597904218098,0.5734233021910154,-10.869348,0.09702100000000002,0.23919900000000005,0.012111,0.0105417886820457,0.0,-0.2459173628448996
208.5213032581453,0.6096596933815035,0.5734236325818429,-10.875149,0.05291900000000016,0.24514599999999998,-0.00244,0.0140499004785543,0.0013788101090754,-0.1061855524386541
209.52380952380952,0.6096596441632186,0.5734239690813226,-10.876459,0.01799599999999968,0.254848,0.0004490000000000002,0.0222354946704077,3.4906585040017646e-05,0.0354301838154848
210.52631578947367,0.6096596413706918,0.5734243054062695,-10.876857,-0.004734000000000016,0.270341,-0.0011060000000000002,0.0202807259081741,-0.0015009831567149,0.17851227589398
211.52882205513785,0.6096596891927133,0.5734246385896238,-10.874658,-0.04008900000000004,0.275089,-0.0029389999999999998,0.0197047672550159,-0.001535889741755,0.3220481535779937
212.531328320802,0.6096597895491453,0.5734249633953976,-10.873114,-0.07660299999999998,0.26092300000000007,0.0034609999999999997,0.0243647963578408,-0.0010995574287564,0.4654793115068877
213.53383458646616,0.6096599377275987,0.5734252723186752,-10.876762,-0.1051359999999999,0.24176699999999995,0.003312,0.0268257106031528,-0.002426007660272,0.6071651750903725
214.5363408521303,0.6096601277939543,0.5734255629159957,-10.883271,-0.1331049999999998,0.2280390000000001,-1.1999999999999858e-05,0.0202807259081741,-0.0027750735106708,0.7461631443593232
215.5388471177945,0.6096603599227448,0.5734258323948321,-10.889386,-0.15896900000000014,0.21423499999999995,0.0009950000000000002,0.026441738167714,-0.0015533430342749,0.8826479442251574
216.54135338345864,0.6096606313214435,0.5734260739484006,-10.897096,-0.1856089999999999,0.187095,0.004467,0.0225322006432467,0.0,1.015432558810301
217.5438596491228,0.6096609339615358,0.5734262851332401,-10.912569,-0.20734600000000003,0.15365600000000001,0.010521,0.0207868713912524,0.0013439035240356,1.1439760233130984
218.54636591478692,0.6096612645268962,0.573426462633225,-10.934545,-0.21459000000000006,0.125672,-0.0004380000000000009,0.0268780704807126,0.0011868238913561,1.26662044947708
219.54887218045116,0.6096616151635429,0.5734266066228884,-10.95302,-0.20899099999999993,0.09156599999999981,-0.007349999999999999,0.0228638132011257,0.0003316125578789,1.3825277476487308
220.55137844611528,0.6096619839516139,0.5734267160550325,-10.958677,-0.22229200000000005,0.09537500000000021,-0.014695000000000001,0.014451326206513,0.0019373154697137,1.4979985564277507
221.55388471177943,0.6096623675749835,0.5734267905805915,-10.94836,-0.20986100000000002,0.057698999999999945,-0.014877999999999999,0.0175754655675829,0.0040666171571468,1.5978139712558914
222.5563909774436,0.6096627614957956,0.5734268333411581,-10.93236,-0.19728099999999998,0.023339,0.001601,-0.0006632251157578,0.0069987703004972,1.684225292335301
223.55889724310777,0.6096631573364699,0.573426845209397,-10.92428,-0.177403,0.00031500000000006523,0.009352,0.0033510321638291,0.0099309234438478,1.7590650455674024
224.56140350877192,0.6096635495119529,0.5734268308976972,-10.922153,-0.15001599999999998,-0.013578000000000312,0.0004080000000000004,-0.0047996554429844,0.0118682389135615,1.8249511026571408
225.56390977443607,0.6096639359278493,0.5734267930240524,-10.915072,-0.13591899999999998,-0.018745999999999707,-0.008784,0.0026354471705114,0.0134564885328762,1.8900170644379524
226.56641604010025,0.6096643200748176,0.5734267350791212,-10.897161,-0.12874200000000002,-0.02292100000000019,-0.010112999999999999,0.0024260076602721,0.0158999494856684,1.9557112574830184
227.5689223057644,0.6096647000329959,0.5734266584591671,-10.872899,-0.128214,-0.03245299999999984,-0.0022920000000000024,-0.0020071286397934,0.0178721715404219,2.0206375231105
228.57142857142856,0.6096650723117252,0.5734265619424594,-10.845013,-0.13178900000000004,-0.04222400000000004,-0.008132999999999998,0.0049392817831439,0.0187099295813792,2.0814446895302274
229.5739348370927,0.60966543656194,0.5734264458780642,-10.807574,-0.12998299999999996,-0.04393500000000006,-0.010449,-0.0015009831567151,0.0188844625065787,2.136038553626025
230.5764411027569,0.6096657924345746,0.5734263099169156,-10.759624,-0.10267599999999999,-0.032478999999999925,-0.0074760000000000035,-0.0050090949532237,0.0191462618943778,2.180596826882733
231.57894736842104,0.6096661432457543,0.5734261582478035,-10.707626,-0.07744700000000004,-0.028244000000000158,-0.00032999999999999696,-0.0102799892942466,0.0197571271325758,2.2156257944097693
232.5814536340852,0.609666489170012,0.5734259968048476,-10.658069,-0.05477999999999994,-0.03240899999999991,0.0031979999999999995,-0.0030892327760299,0.0201585528605345,2.2422769720877227
233.58395989974937,0.6096668282874858,0.573425827856976,-10.614854,-0.04254099999999994,-0.03758299999999992,0.010343999999999999,-0.0087266462599716,0.0184306769010602,2.2622608000368403
234.58646616541355,0.6096671604236423,0.573425652974985,-10.583997,-0.04411100000000001,-0.03296800000000011,0.009831,-0.0041364303272265,0.0140673537710742,2.2757347942221138
235.58897243107768,0.6096674866256796,0.5734254730315391,-10.557158,-0.030811000000000144,-0.01657200000000003,-0.0005690000000000001,-0.0074351026134958,0.0091978851580101,2.282785784773831
236.59147869674183,0.6096678103842559,0.5734252883757043,-10.526519,-0.01566999999999985,-0.0038519999999999666,-0.0024939999999999997,-0.0135437549954759,0.0049741883681839,2.28395545207864
237.593984962406,0.6096681344918978,0.5734251018000073,-10.497464,-0.0008369999999999767,0.010936999999999975,0.004815,-0.0153414441250301,-1.74532925198978e-05,2.278509815372907
238.59649122807016,0.6096684619156656,0.5734249173187054,-10.480919,0.007281999999999789,0.015227000000000102,0.019559,-0.0131946891450771,-0.0041189770347065,2.2691200487169327
239.59899749373432,0.6096687926555587,0.5734247328374034,-10.480011,0.0036410000000000053,0.007433000000000023,0.010055999999999999,-0.013212142437597,-0.0062657320146595,2.2599571748637177
240.6015037593985,0.6096691242681167,0.5734245499268978,-10.482639,0.026044000000000178,-0.010950000000000015,0.0017099999999999997,-0.007068583470577,-0.0095120444233689,2.24688451913994
241.60401002506265,0.6096694516918842,0.5734243719033141,-10.49161,0.029079999999999995,-0.008879999999999999,0.008212,0.0033510321638291,-0.0169995069144246,2.232450716039117
242.6065162907268,0.6096697778939216,0.5734241980685206,-10.504867,0.024691999999999936,0.012056999999999984,0.002654000000000002,-0.0013962634015954,-0.0245044226980002,2.2204078918404786
243.60902255639093,0.6096701075866173,0.5734240299933137,-10.526801,0.02695000000000003,0.028416999999999915,0.014533999999999998,-0.0041887902047863,-0.0296182374063436,2.210668989520935
244.61152882205516,0.6096704437370313,0.5734238654087651,-10.568813,0.016481999999999886,0.011138000000000092,0.023279,-0.0047123889803846,-0.0296531439913836,2.2028498097522458
245.6140350877193,0.6096707812837084,0.5734237025695459,-10.63053,0.004518000000000022,-0.014406000000000141,0.011122,0.0013788101090755,-0.0286408530252268,2.1961302572254824
246.61654135338344,0.609671116212392,0.5734235418247218,-10.692159,0.010779000000000094,-0.012107999999999786,-0.007282000000000004,0.0038571776469074,-0.0298800367941427,2.189201369908235
247.6190476190476,0.609671449919345,0.5734233838724245,-10.745776,0.020345999999999975,0.01402699999999979,-0.004647999999999999,0.0012915436464758,-0.0322013246992953,2.1830404100085725
248.62155388471177,0.609671785895226,0.5734232259201272,-10.793927,0.009292999999999996,0.022547000000000095,-0.009366,-0.0030019663134302,-0.0306828882500602,2.179846492384008
249.62406015037595,0.6096721260598972,0.5734230711094225,-10.83403,-0.0013639999999999208,0.007605000000000084,-0.004501999999999999,0.0014660765716752,-0.0272271363311114,2.178921432973866
250.62656641604008,0.6096724644792391,0.5734229131571252,-10.873618,-0.01102000000000003,-0.0067190000000001415,0.0019619999999999985,0.0037524578917878,-0.0238761041672823,2.179636895794136
251.62907268170423,0.6096728009787189,0.5734227538085646,-10.915412,0.003841999999999901,-0.00432599999999983,0.0022900000000000004,-0.0020245819323134,-0.0199840199353349,2.1794972170940987
252.6315789473684,0.6096731402707255,0.5734225972525306,-10.960363,0.01714199999999999,-0.0013210000000001276,0.0017600000000000046,0.0,-0.0158126830230684,2.179584570823161
253.63408521303256,0.6096734786900675,0.5734224431399576,-11.003821,0.010587000000000013,-0.002853999999999912,-0.006303000000000003,0.0009599310885968,-0.0123918376891596,2.180195628047577
254.63659147869672,0.6096738165858107,0.5734222918199114,-11.035054,-0.0027849999999999264,-0.002766999999999964,-0.016831,0.006457718232379,-0.0093898713757294,2.1827959417402454
255.6390977443609,0.6096741539579551,0.5734221375328056,-11.046254,-0.018294000000000032,-0.0013970000000000926,-0.019781,0.0064228116473391,-0.0051487212933831,2.1874037331385585
256.64160401002505,0.6096744934244946,0.5734219804531729,-11.039336,-0.01535299999999995,0.0022439999999999127,-0.014450000000000001,0.0004188790204786,0.000628318530718,2.1923079512570296
257.64411027568923,0.6096748321929024,0.5734218205810135,-11.023148,-0.0040679999999999605,0.005715000000000137,-0.006449,0.0008377580409572,0.006736970912698,2.197229867014116
258.6466165413533,0.6096751721830407,0.5734216601852553,-11.004137,0.003909999999999858,-0.002371000000000123,-0.000671999999999999,0.0004712388980384,0.0123918376891598,2.2020645686684808
259.64912280701753,0.6096755093806522,0.5734215010112275,-10.987141,0.00014300000000000423,-0.015877999999999837,0.0034420000000000006,0.0042236967898262,0.0153065375399903,2.2070560008896742
260.6516290726817,0.6096758430876051,0.5734213416626667,-10.972461,-0.012864999999999904,-0.020501000000000102,-0.001981,0.0057421332390613,0.0150621914447111,2.211454352777748
261.65413533834584,0.6096761731293667,0.5734211809178427,-10.949298,-0.011399000000000159,-0.006559999999999899,-0.011422000000000002,0.0072256631032565,0.0132295957301171,2.213286861225879
262.65664160401,0.60967650386926,0.5734210170314259,-10.912124,-0.012147999999999826,0.010705999999999882,-0.014799999999999997,0.0028797932657906,0.0109432144100045,2.2142818210725634
263.65914786967414,0.6096768379252787,0.5734208505270152,-10.861631,-0.006936000000000053,0.016766999999999976,-0.011416000000000003,-0.0019198621771937,0.0111526539202437,2.214735501958327
264.6616541353383,0.6096771732030282,0.5734206850698021,-10.809204,0.010582000000000091,0.00931800000000016,0.009419999999999998,-0.002460914245312,0.0128979831722382,2.213199647123157
265.6641604010025,0.6096775105751726,0.5734205204852537,-10.778434,0.010618999999999934,-0.0114240000000001,0.026518000000000003,0.0025481807079117,0.012636183784439,2.211367121221733
266.66666666666663,0.6096778446311913,0.573420358867765,-10.76646,0.008551999999999893,-0.019538999999999973,0.010908,0.0003141592653589,0.0087440995524916,2.2093949340735644
267.6691729323308,0.6096781750220187,0.5734201989956055,-10.759511,0.0036290000000001044,-0.0024800000000000377,0.0024009999999999995,0.005532693728822,0.0018849555921538,2.2079810602998164
268.671679197995,0.6096785048892474,0.5734200394725119,-10.749207,-0.0037770000000001414,0.016243999999999925,-0.009818999999999998,0.0041713369122664,-0.0019722220547535,2.2080509607363585
269.6741854636591,0.6096788392943321,0.5734198790767535,-10.728297,-0.003009999999999957,0.013276999999999983,-0.006814000000000001,-0.0022514747350726,-0.0011868238913561,2.207893828743802
270.6766917293233,0.6096791759683449,0.5734197188555282,-10.707478,0.0003750000000000142,0.002147000000000121,0.006175,0.0033510321638291,0.0001221730476397,2.2074051365532434
271.6791979949875,0.6096795145622197,0.5734195579361712,-10.694765,0.003924999999999956,-0.003438000000000052,0.007809999999999999,-0.0005585053606381,0.0002268928027593,2.2066023374572032
272.6817042606516,0.6096798528070287,0.5734193971913472,-10.689757,0.00043199999999998795,-0.0012079999999998758,0.0073950000000000005,-0.0009250245035569,-0.0015533430342749,2.20698622262618
273.6842105263158,0.609680188084778,0.5734192367955889,-10.687292,-0.0063909999999998135,0.0012729999999998576,-0.004845,0.0018500490071139,-0.0032463124087094,2.2096741518472984
274.68671679198,0.6096805237115931,0.5734190751781001,-10.677423,0.005506000000000011,0.0020139999999999603,-0.0054859999999999996,-0.0004363323129985,-0.002426007660272,2.211803488441317
275.6892230576441,0.6096808614328034,0.573418914607809,-10.672699,0.008429999999999938,-0.005163999999999946,0.015275,0.0013613568165555,-0.0012566370614357,2.2128679472988155
276.69172932330827,0.6096811967105527,0.5734187552592482,-10.687721,-0.0020210000000000505,-0.017242999999999897,0.019643,0.0080983277292536,-0.0013613568165555,2.2142293564752484
277.6942355889724,0.6096815277995118,0.5734185960852204,-10.712527,-0.011824999999999974,-0.01492899999999997,-0.00042000000000000023,0.0062482787221396,-0.0037699111843076,2.215974790446998
278.69674185463657,0.6096818559214111,0.5734184342931987,-10.720589,-0.012434000000000056,0.005116999999999816,-0.028651000000000003,0.0046774823953448,-0.006736970912698,2.2160095574056977
279.69924812030075,0.6096821873594361,0.573418270406782,-10.698937,-0.006449999999999845,0.02570500000000009,-0.024329999999999997,-0.0011693705988362,-0.007993607974134,2.215887576344276
280.7017543859649,0.6096825250806465,0.5734181056477006,-10.665404,0.003926999999999792,0.02757799999999988,0.001468999999999998,-0.0051138147083433,-0.0057072266540214,2.216166671944962
281.70426065162906,0.6096828676887786,0.5734179421103497,-10.650334,0.015468000000000037,0.0020480000000000498,0.030618,-0.0041713369122664,-0.001169370598836,2.216411157666581
282.70676691729324,0.6096832087261145,0.5734177825872561,-10.672462,0.008933999999999997,-0.032001999999999864,0.034335000000000004,0.0023387411976724,0.0006108652381979,2.217545534413915
283.70927318295736,0.6096835398150735,0.5734176241113601,-10.714786,0.0014770000000001726,-0.03581100000000004,0.0036389999999999964,0.0069987703004972,-0.0020594885173532,2.21843556506597
284.71177944862154,0.6096838656680449,0.5734174649373323,-10.744024,-0.009038000000000102,-0.005329000000000139,-0.022210999999999998,0.0096516707635286,-0.0061086523819799,2.219692167220821
285.7142857142857,0.6096841901247528,0.5734173020981129,-10.744767,-0.021584000000000048,0.020256000000000052,-0.032189,0.0076445421237351,-0.0060213859193802,2.219378182488387
286.71679197994985,0.6096845212137119,0.5734171369899658,-10.714046,-0.0067109999999999115,0.02980500000000008,-0.024981000000000003,-0.0050265482457436,-0.001815142422074,2.2171790850841666
287.719298245614,0.6096848592839881,0.5734169711836868,-10.674116,0.010534000000000043,0.01846100000000006,0.006720000000000004,-0.0093724180832095,0.0026354471705114,2.213810442548185
288.7218045112781,0.6096852003213239,0.5734168062500725,-10.656912,0.014473999999999876,-0.006281000000000203,0.03112,-0.0023387411976724,0.00614355896702,2.21154170650681
289.72431077694233,0.6096855376934682,0.5734166449816497,-10.671421,0.017457000000000056,-0.023261999999999894,0.028068,0.0052883476335428,0.0062831853071796,2.209255237920235
290.7268170426065,0.6096858707022896,0.5734164875529512,-10.698444,0.007304999999999895,-0.02012299999999989,-0.0070230000000000015,0.0031590459461097,0.0037524578917877,2.2077541500437645
291.72932330827064,0.6096861995223206,0.5734163306478514,-10.701525,-0.0011159999999998949,0.002174999999999816,-0.031758999999999996,0.0053756140961425,0.0001919862177195,2.207283033318774
292.7318295739348,0.6096865293895493,0.5734161719974223,-10.674167,-0.016634000000000038,0.023519999999999985,-0.025454,0.002146754979953,-0.000593411945678,2.2089585668539806
293.734335839599,0.6096868671107595,0.5734160110780653,-10.630713,-0.009161999999999892,0.028067000000000064,-0.004380000000000002,-0.001204277183876,0.0032463124087094,2.210494282062811
294.7368421052631,0.6096872109406222,0.5734158480643132,-10.599424,0.0008079999999999199,0.005433999999999939,0.021807000000000003,-0.0050789081233034,0.0092851516206098,2.2123096164711025
295.7393483709273,0.6096875526760898,0.5734156859232257,-10.592611,0.013902000000000081,-0.025269999999999904,0.024381,-0.0016755160819145,0.0131597825600373,2.2128679472988155
296.7418546365915,0.6096878883029049,0.5734155295417247,-10.604524,0.017199999999999882,-0.030594999999999928,0.011328,0.0009948376736367,0.0116587994033221,2.2132169607893366
297.7443609022556,0.6096882150285409,0.573415372636625,-10.61777,-0.0050280000000000324,-0.014264000000000054,-0.010754,0.0097214839336084,0.0069464104229375,2.2145609341265424
298.7468671679198,0.6096885398343146,0.5734152153824593,-10.609714,-0.019256999999999858,0.010275000000000034,-0.025412999999999998,0.0049916416607037,0.0045378560551854,2.216393704374062
299.749373433584,0.6096888698760762,0.5734150535904378,-10.57205,-0.022966000000000042,0.02818100000000001,-0.030304,0.0031415926535897,0.0062133721370998,2.218610255070802
300.7518796992481,0.6096892072482206,0.5734148888313564,-10.509162,0.00043199999999998795,0.022618000000000027,-0.013207000000000003,-0.0033510321638291,0.0123918376891598,2.2186624578687293
301.7543859649123,0.6096895488091553,0.5734147242468077,-10.457433,0.013269999999999893,-0.003522000000000025,0.032012000000000006,-0.0065275314024587,0.0167726141116655,2.2174930698166
302.7568922305764,0.6096898886247606,0.5734145621057204,-10.444069,0.008773000000000142,-0.019981000000000027,0.030042999999999997,-0.0003141592653589,0.0163886416762268,2.2166729396010885
303.7593984962406,0.609690223553444,0.5734144032807583,-10.44782,0.013125999999999971,-0.01932400000000012,0.006072,0.0014660765716752,0.0141197136486341,2.2171790850841666
304.7619047619048,0.6096905523734751,0.5734142465501916,-10.447761,-0.0013320000000001109,-0.012871999999999995,-0.00987,0.0058643062867009,0.0116937059883621,2.218645144202549
305.7644110275689,0.6096908796227098,0.5734140887724272,-10.43043,-0.011168999999999984,-0.0015650000000000386,-0.022275,0.0078016217564146,0.010786134777325,2.219570203612691
306.76691729323306,0.6096912096644714,0.5734139287257347,-10.389956,-0.012829999999999897,0.011778000000000066,-0.019368,-0.0017104226669544,0.0109606677025244,2.220006431205935
307.76942355889724,0.6096915421496939,0.5734137646647851,-10.336701,-0.014620000000000077,0.019354000000000093,-0.007962999999999998,-0.0036477381366681,0.0131248759749973,2.220076331642477
308.77192982456137,0.6096918816162333,0.5734135978113086,-10.277302,-0.0016959999999999198,0.018108000000000013,-0.003810000000000001,-0.0016406094968746,0.0178721715404219,2.219831985547198
309.77443609022555,0.6096922224790363,0.5734134325286284,-10.22128,0.018961999999999923,0.00282300000000002,0.010100999999999999,-0.0067369709126981,0.0226543736908864,2.218330897670728
310.77694235588973,0.6096925600257137,0.5734132712602056,-10.188836,0.022812000000000054,-0.02276100000000003,0.032882,-0.0008028514559173,0.0218864288200089,2.215713008512491
311.77944862155385,0.6096928912892058,0.5734131124352436,-10.183502,0.04074999999999995,-0.03899200000000014,0.014287999999999999,0.0017104226669544,0.0144338729139932,2.2338643105601848
312.78195488721803,0.6096931967218248,0.5734129609406645,-10.181894,-0.03893800000000003,-0.2271399999999999,-0.006325000000000001,-0.0080459678516938,0.0106465084371654,2.4261823677302425
313.7844611528822,0.609693445780309,0.5734127935635892,-10.156461,-0.14788999999999985,-0.35679799999999995,-0.028641,0.0472809694365263,0.0086917396749317,2.6998147038854783
314.78696741854634,0.6096936435261133,0.5734126439888724,-10.104076,-0.08365100000000014,-0.3820380000000001,-0.019596999999999996,0.1096590369028037,-0.0010646508437164,2.96625678966798
315.7894736842105,0.6096937616849036,0.5734124713758093,-10.057663,-0.025992000000000015,-0.35801399999999994,0.027474,0.1532224550325822,-0.020280725908174,-3.086754443398717
316.79197994987464,0.6096938068889313,0.5734122874181061,-10.047334,0.021381000000000094,-0.316703,0.038015999999999994,0.1428203101439885,-0.036617007706841,-2.8889039368459324
317.7944862155388,0.6096937880393754,0.5734121029368042,-10.066885,0.03533900000000001,-0.291494,0.028248,0.0632332787997545,-0.0432667121569394,-2.713131845330876
318.796992481203,0.6096937192734028,0.5734119202008315,-10.120531,0.042093999999999854,-0.26312599999999997,0.032311000000000006,0.0567232006898157,-0.0441219234904166,-2.55706448616425
319.7994987468672,0.6096936000674149,0.5734117444461758,-10.2003,0.06097600000000014,-0.26531299999999997,0.018153000000000002,0.0352905574753253,-0.0432667121569394,-2.4149422204545967
320.8020050125313,0.6096934360064652,0.5734115777672324,-10.279972,0.08900299999999994,-0.247506,-0.018016000000000004,0.0253596340314776,-0.0392350015848323,-2.2866782704315063
321.8045112781955,0.6096932283122842,0.573411424527324,-10.334466,0.10071600000000003,-0.20498700000000014,-0.025381,0.0312413936106985,-0.0358665161284834,-2.16899024773063
322.8070175438596,0.6096929841407219,0.5734112878680435,-10.376114,0.10982099999999995,-0.18165299999999984,0.0024150000000000005,0.0299498499642226,-0.0341910000465688,-2.0616877543838696
323.8095238095238,0.6096927082041672,0.5734111688365885,-10.432702,0.12724100000000005,-0.171562,0.025703000000000004,0.0283965069299477,-0.0321489648217354,-1.96757963602292
324.812030075188,0.6096924005026201,0.5734110716217492,-10.520727,0.136621,-0.175524,0.023639999999999994,0.0234746784393237,-0.0279427213244292,-1.8881319517661648
325.8145363408521,0.6096920633050086,0.5734109967471243,-10.607515,0.12395499999999998,-0.14012100000000016,-0.022931999999999994,0.0113097335529232,-0.0192335283569775,-1.8243577605246328
326.8170426065163,0.6096917002765241,0.573410941420187,-10.663466,0.109323,-0.1063829999999999,-0.031964000000000006,0.005218534463463,-0.0105417886820455,-1.7740748771345534
327.8195488721804,0.6096913206674118,0.5734109014521472,-10.682085,0.08049400000000001,-0.08621199999999996,-0.042374,0.0053058009260627,0.0007679448708775,-1.7363059346681038
328.8220551378446,0.6096909295391265,0.5734108735268793,-10.667374,0.063224,-0.0690170000000001,-0.016450000000000003,0.0087790061375314,0.0108559479474048,-1.7078399287273416
329.8245614035088,0.6096905291605961,0.5734108558990536,-10.653483,0.06543600000000001,-0.036194999999999755,0.008168000000000002,-0.0078365283414545,0.018744836166419,-1.6856041373509616
