Time [s],Longitude [rad],Latitude [rad],Altitude [m],V North [m/s],V East [m/s],V Down [m/s],Roll [rad],Pitch [rad],Yaw [rad]
2.0050125313283207,0.6096586070885771,0.5734274295456305,-11.279463,-0.0719420000000002,-0.02722999999999992,0.0189119999999999,-0.007993607974134,-0.0075921822461753,-0.3495196534576774
3.007518796992481,0.609658488231655,0.5734277557476678,-11.327631,-0.028195,-0.05498499999999999,-0.0273099999999999,-0.0085172067497323,0.0001221730476397,-0.3055897510915646
4.010025062656641,0.6096583824647024,0.5734280775863819,-11.355957,-0.0201059999999997,-0.0228420000000001,-0.034412,-0.0167028009415857,0.0093375114981697,-0.2707007415172458
5.012531328320802,0.6096582869951922,0.5734283994250959,-11.336946,0.003029999999999899,0.014686000000000005,-0.012447,-0.0001919862177193,0.0164410015537865,-0.242373751051405
6.015037593984962,0.6096582028703224,0.5734287209147442,-11.278131,0.009096000000000002,0.012864000000000098,0.0229010000000001,0.0082728606544531,0.0218864288200089,-0.2212729996474734
7.017543859649122,0.6096581344534157,0.5734290458950508,-11.208636,-0.008427000000000202,-0.015521000000000007,0.0303809999999998,-3.490658503988601e-05,0.0257610597594364,-0.2089505562493736
8.020050125313283,0.6096580805227417,0.5734293724461539,-11.163726,-0.0096349999999998,-0.038061,0.0351810000000001,0.0008203047484373,0.0255516202491969,-0.2038197071275303
9.022556390977442,0.609658026243002,0.5734296995208558,-11.156609,0.0038540000000000002,-0.058149,-0.018728,-0.0044331363000655,0.0235619449019235,-0.2031741621970957
10.025062656641603,0.6096579639347477,0.5734300267700906,-11.13455,0.0033880000000001,0.005545999999999999,-0.071947,-0.0103498024643263,0.0256912465893566,-0.2003293627828076
11.027568922305765,0.6096578995320984,0.5734303550665228,-11.04705,-0.004101000000000301,0.07,-0.004421000000000001,-0.0026354471705114,0.0281172542496286,-0.1936970243587661
12.030075187969924,0.6096578431579636,0.5734306828393564,-10.944301,-0.0011549999999998,0.0109589999999999,0.0824719999999999,0.0032288591161895,0.0258832328070759,-0.1916895466531223
13.032581453634084,0.6096577958595407,0.5734310088668606,-10.893356,-0.0014019999999996002,-0.0604519999999998,0.0317810000000001,-0.0075398223686155,0.0217118958948094,-0.1972747224325515
14.035087719298245,0.6096577480375193,0.5734313369887599,-10.884426,-0.0015550000000006002,-0.0421060000000001,-0.0439100000000001,-0.0089709923552508,0.0185528499486997,-0.2036103897903391
15.037593984962406,0.6096576918379174,0.573431665983324,-10.858847,-0.0032239999999995003,0.0213590000000001,-0.0540919999999999,-0.0054977871437821,0.017819811662862,-0.2061409252195132
16.040100250626566,0.609657629704196,0.573431992534427,-10.790814,0.0025019999999994005,0.0542959999999998,0.005482000000000098,0.0032288591161895,0.0168249739892254,-0.204482827523533
17.042606516290725,0.6096575740281929,0.5734323203072605,-10.714806,0.0082900000000004,0.010376000000000104,0.056119999999999795,-0.0008203047484373,0.0136135681655558,-0.2073974052013156
18.045112781954884,0.6096575256825725,0.5734326479055611,-10.683571,0.0044979999999999005,-0.053938999999999904,0.034287000000000095,-0.0078190750489345,0.0101927228316469,-0.2164207225275414
19.047619047619047,0.6096574741953596,0.5734329781218557,-10.697202,-0.012878000000000101,-0.047722,-0.03523,-0.0130027029273577,0.0091106186954104,-0.2252517569300754
20.050125313283207,0.6096574090945786,0.5734333060692222,-10.700891,-0.0145899999999996,0.0223519999999999,-0.057928,-0.0101229096615671,0.0099832833214075,-0.2264565751660196
21.052631578947366,0.6096573377106121,0.5734336312240618,-10.655172,0.006557999999999601,0.07007,-0.009726999999999902,0.0020943951023931,0.0096167641784887,-0.222599257892772
22.05513784461153,0.6096572738315614,0.5734339544590392,-10.589313,0.0150160000000001,0.022902,0.0581379999999998,0.0071383966406568,0.0060388392119004,-0.222232808563023
23.05764411027569,0.6096572207735522,0.5734342789157472,-10.568998,0.0076339999999998995,-0.056742999999999995,0.0551280000000001,-0.00614355896702,0.0019722220547535,-0.22869043952894
24.06015037593985,0.6096571649230161,0.573434608084844,-10.608521,-0.0053730000000001,-0.07016199999999989,-0.033347,-0.0116587994033221,0.0013788101090754,-0.2371901755328587
25.062656641604008,0.6096570958079778,0.5734349344614141,-10.6355,-0.050502999999999396,0.040426999999999894,-0.085402,-0.0183434104384603,0.0056199601914217,-0.1950403344708562
26.065162907268167,0.6096570347214539,0.5734352610125172,-10.597057,0.1097209999999994,0.205466,-0.006191999999999996,0.0378736447682769,0.0099832833214075,-0.1080013057259672
27.06766917293233,0.609656985677702,0.5734355873890874,-10.535094,-0.06780199999999979,-0.02927300000000002,0.0752189999999999,-0.0007330382858376,0.0071209433481369,-0.0632506099192265
28.07017543859649,0.6096569722386668,0.5734359203979086,-10.517377,0.0055240000000002,-0.09892699999999999,0.0363950000000001,-0.0032463124087094,0.0053930673886626,-0.0501606405292689
29.07268170426065,0.6096569743330618,0.5734362535812628,-10.539702,0.0003769999999997998,-0.065697,-0.038267,0.0,0.0053581608036226,-0.0556238527005697
30.07518796992481,0.6096569699697387,0.5734365874627487,-10.553276,-0.0112010000000001,0.004157000000000001,-0.045773,-0.002740166925631,0.0050963614158234,-0.070615847002766
31.07769423558897,0.6096569605449607,0.5734369192498395,-10.526041,-0.008690999999999801,0.020319999999999998,-0.006317,-0.0037350045992678,0.0020245819323134,-0.0943179767502091
32.08020050125313,0.6096569498984524,0.5734372477208048,-10.487463,0.0119699999999998,-0.011197,0.056857,0.0016929693744344,-0.0042062434973062,-0.1252271643910829
33.08270676691729,0.6096569350631537,0.5734375772389676,-10.487562,0.0148990000000001,-0.051142,0.028222000000000004,-0.0085870199198121,-0.009494591130849,-0.1560324700348776
34.08521303258145,0.6096569099304124,0.5734379069316633,-10.522575,-0.0065560000000002006,-0.016367000000000007,-0.03952,-0.0221656815003279,-0.0123394778115999,-0.1724908201614295
35.08771929824561,0.6096568710095701,0.5734382369734249,-10.543262,-0.0156729999999995,0.06603600000000011,-0.038701,-0.0063355451847394,-0.0143291531588733,-0.1640086421697841
36.09022556390977,0.6096568305179315,0.5734385659679888,-10.542326,0.0029939999999997,0.0639129999999999,0.028559000000000098,0.0001396263401595,-0.0190066355542182,-0.1315628142955776
37.092731829573935,0.6096567998001367,0.5734388937408224,-10.566505,0.0156419999999996,0.006411999999999994,0.043523999999999896,-0.0024958208303518,-0.0235270383168835,-0.0769520379593278
38.095238095238095,0.6096567816487124,0.5734392232589851,-10.625526,0.0092240000000006,0.013267999999999898,-0.024857000000000098,-0.0077143552938149,-0.0249582083035189,0.0020943951023931
39.097744360902254,0.6096567788561856,0.5734395546970101,-10.679236,-0.009193000000000201,0.0527450000000001,-0.0406539999999998,0.0019896753472735,-0.0246615023306797,0.1064999909566939
40.100250626566414,0.609656803639861,0.5734398875312985,-10.701916,-0.0185650000000001,0.0786089999999999,-0.007273999999999999,0.0108559479474047,-0.0245567825755601,0.2318320845424067
41.10275689223057,0.6096568708350372,0.5734402167003954,-10.710947,-0.0339839999999998,0.04708200000000018,0.0379229999999998,0.0244869694054804,-0.0268082573106327,0.3661002638983305
42.10526315789473,0.6096569882956959,0.5734405357465826,-10.744713,-0.037052000000000106,-0.011600000000000166,0.0319680000000001,0.0165631746014261,-0.0283441470523877,0.5045397976198133
43.10776942355889,0.6096571514839809,0.5734408387357408,-10.821802,-0.02671399999999989,-0.039683999999999914,-0.001663000000000095,0.01230457122656,-0.0272096830385915,0.6472378998095772
44.11027568922306,0.6096573527204437,0.5734411233989418,-10.914551,-0.025763000000000202,-0.003047999999999995,-0.0471279999999998,0.020001473227855,-0.026720990848033,0.7946658966321233
45.11278195488722,0.6096575895616232,0.5734413838020661,-10.983402,-0.0400609999999999,0.015055999999999792,-0.020357,0.031991885189056,-0.0285012266850672,0.943437657352365
46.11528822055138,0.609657867592573,0.5734416134873958,-11.02318,-0.04045699999999999,0.003689000000000303,0.009595,0.0259879525621955,-0.0261973920724347,1.0909877748626728
47.11779448621554,0.6096581845443652,0.5734418098369366,-11.05545,-0.026577999999999907,-0.03689700000000018,0.0247339999999998,0.0176103721526227,-0.0185703032412196,1.2374733462490195
48.1203007518797,0.6096585357046107,0.5734419636004437,-11.097445,-0.016671000000000075,-0.05683400000000001,0.006466000000000099,0.025848326222036,-0.0116064395257622,1.380258732354675
49.122807017543856,0.609658906063478,0.5734420754760488,-11.148803,-0.0065990000000000215,-0.047707,-0.009981,0.028920105705546,-0.0068416906678177,1.517860542941786
50.125313283208015,0.6096592877669854,0.5734421445910871,-11.197625,-0.006759999999999988,-0.033497999999999806,-0.00903,0.0200712863979347,-0.0030368728984699,1.649737621222478
51.127819548872175,0.6096596752300792,0.5734421705964929,-11.229436,0.004484999999999961,-0.017921000000000298,-0.0167669999999999,0.0274365758413508,0.0018675022996339,1.7727659325554357
52.130325814536334,0.6096600635658379,0.5734421555866613,-11.233442,0.017641000000000018,-0.013047999999999902,-0.0040820000000000994,0.0109955742875642,0.009529497715889,1.8857060662789409
53.1328320802005,0.6096604532978598,0.5734421013069217,-11.217857,0.028430000000000094,-0.0404599999999999,0.019225,0.0172438530097039,0.0163886416762268,1.9897451255370304
54.13533834586466,0.6096608351759002,0.5734420147385907,-11.20177,0.021874999999999922,-0.03922999999999989,0.015427,0.0038571776469074,0.020647245051093,2.086907622448847
55.13784461152882,0.6096612009969113,0.5734418974524651,-11.187449,-0.009943000000000007,-0.023873000000000005,-0.010291999999999999,0.0040317105721069,0.0237015712420831,2.192168534356381
56.14035087719298,0.6096615458739716,0.5734417468305506,-11.158469,0.013360999999999984,0.0002669999999997952,-0.019149,0.011362093430483,0.0276983752291499,2.282628652781274
57.14285714285714,0.609661873646805,0.5734415735193559,-11.10784,0.03125000000000011,-0.006976999999999789,0.0059470000000001015,0.0056897733615015,0.0295135176512242,2.360156213061446
58.1453634085213,0.609662184140879,0.5734413700139651,-11.040249,0.03406300000000001,0.01497299999999989,0.000793999999999899,-0.0068591439603377,0.0318173522638567,2.4254838171504245
59.14786967418546,0.6096624808468518,0.57344114835715,-10.959044,0.04088299999999999,0.008108999999999908,0.007609000000000102,-0.0132645023151569,0.035691983203284,2.4817185874490697
60.15037593984962,0.6096627613212626,0.5734409144830303,-10.878011,0.012893999999999906,-0.0156889999999998,0.0177419999999998,-0.0019024088846738,0.0375245789178781,2.542822686734439
61.15288220551378,0.609663024167848,0.5734406697878692,-10.810541,-0.012715000000000004,-0.0327680000000001,0.007008,0.0020769418098732,0.0371406064824393,2.608935671533521
62.15538847117794,0.6096632611835605,0.5734404139226008,-10.756923,-0.005618999999999999,-0.012659999999999907,-0.0025730000000000006,0.0009773843811168,0.0332485222504921,2.672605195379812
63.1578947368421,0.6096634732410645,0.5734401432220338,-10.710245,0.014528000000000096,0.0118899999999999,-0.0115129999999999,-0.0019547687622336,0.0278903614468695,2.728961946739879
64.16040100250626,0.6096636606894262,0.573439858035234,-10.656484,0.017451000000000105,0.02009600000000021,-0.016835,-0.0028623399732707,0.0223227611330074,2.7775169541704834
65.16290726817043,0.6096638338260881,0.5734395635981893,-10.581731,0.012613999999999896,0.02933399999999979,-0.004636999999999902,-0.0049567350756638,0.0163362817986669,2.8203648222135294
66.16541353383458,0.6096639956181097,0.573439263052492,-10.492913,0.010587999999999799,0.0278200000000001,0.0157119999999999,-0.0145211393765928,0.0108210413623648,2.8579241855434
67.16791979949875,0.6096641500797485,0.5734389586670705,-10.426696,0.013645000000000303,-0.0014780000000000973,0.051115,-0.0177849050778222,0.0057595865315813,2.889933524024976
68.1704260651629,0.609664293545813,0.5734386500928588,-10.41624,0.007183999999999701,-0.043924000000000005,0.008046999999999999,-0.0053930673886624,0.0015009831567152,2.917230648059092
69.17293233082707,0.6096644178132558,0.5734383387261203,-10.451449,0.006430000000000099,-0.01426899999999999,-0.023322000000000002,-0.0048345620280242,-0.0050614548307834,2.9355390820993423
70.17543859649122,0.6096645197404841,0.5734380259631183,-10.49278,-0.006112999999999799,0.044640000000000096,-0.050852999999999995,-0.0086568330898918,-0.011309733552923,2.942241198786878
71.17794486215539,0.6096646139882637,0.5734377098839908,-10.495621,0.0122259999999999,0.0795619999999999,-0.019959,-0.0147131255943121,-0.0155334303427494,2.9401293154853803
72.18045112781954,0.6096647143446956,0.573437392059534,-10.478373,-0.004018999999999999,0.0227369999999999,0.0394719999999999,-0.0195476876223364,-0.0186575697038193,2.935643749494585
73.1829573934837,0.6096648258712349,0.5734370738860113,-10.478003,0.0163889999999996,-0.016384000000000003,0.0323140000000001,-0.0194953277447766,-0.019634954084936,2.9286273862752275
74.18546365914787,0.60966494193563,0.5734367579814167,-10.523742,-0.0026529999999995,-0.038740999999999796,0.015402999999999896,-0.0194604211597367,-0.0206996049286527,2.920337229407888
75.18796992481202,0.6096650529385705,0.5734364426004208,-10.600751,0.0092099999999995,-0.021526000000000003,-0.041682,4.337963350313733e-19,-0.023073252711365,2.909690982770109
76.19047619047619,0.6096651566111281,0.5734361294883531,-10.657458,0.005215000000000402,0.0445649999999998,-0.0449289999999999,-0.0016580627893946,-0.0260403124397552,2.893406816502907
77.19298245614034,0.6096652660432722,0.5734358209141414,-10.673329,0.0099769999999999,0.068075,0.013135000000000098,-0.0115889862332423,-0.0278729081543493,2.8747841184775424
78.19548872180451,0.6096653908343138,0.5734355165287197,-10.691357,-0.008978000000000201,-0.009544999999999998,0.050996999999999904,-0.007382742735936,-0.0271224165759917,2.862793776329512
79.19799498746866,0.6096655260973308,0.5734352158084897,-10.750838,-0.0186029999999996,-0.0639249999999999,0.0199399999999999,-0.0027750735106709,-0.0261275789023549,2.85710393315484
80.20050125313283,0.6096656604876832,0.5734349133429302,-10.834377,-0.008570000000000199,-0.037635999999999996,-0.0508149999999999,0.0031241393610698,-0.0228812664936455,2.8523741606951054
81.203007518797,0.6096657885948502,0.5734346100047063,-10.888979,0.014744999999999899,0.030084000000000097,-0.0365869999999999,-0.0040142572795869,-0.0188844625065784,2.8440315392304503
82.20551378446115,0.6096659158293528,0.5734343068410152,-10.901268,0.008649,0.0493199999999998,0.009623999999999903,-0.0045029494701453,-0.0152018177848705,2.834763736182605
83.20802005012531,0.6096660523141003,0.5734340059462522,-10.900474,-0.003709999999999901,0.003479000000000003,0.037441999999999996,-0.0046774823953448,-0.0122347580564801,2.8304701913161137
84.21052631578947,0.609666199794422,0.573433705226022,-10.91721,-0.009139,-0.035718999999999904,0.01933,-0.0040491638646268,-0.0097912971036882,2.832232938954043
85.21303258145363,0.6096663458784805,0.5734334064256541,-10.954091,-0.007211999999999901,-0.039287,-0.016425,0.0035779249665883,-0.0056723200689814,2.836910508615851
86.21553884711778,0.6096664875992157,0.5734331067526216,-10.982704,0.0020739999999999,-0.0019089999999999004,-0.0311179999999999,0.0053756140961425,-0.0022514747350725,2.840907382416088
87.21804511278195,0.6096666211169035,0.5734328058578584,-10.983833,0.0046689999999999,0.0259189999999999,-0.0004970000000001015,-0.0037175513067479,-0.0004537856055184,2.8433857150473347
88.22055137844612,0.6096667535873938,0.5734325053121613,-10.969445,-0.0039469999999998,0.0137039999999999,0.019011,-0.0020071286397934,-8.726646259971105e-05,2.8463527573224323
89.22305764411027,0.6096668885013449,0.5734322042428653,-10.952606,-0.00911,-0.006575999999999999,-0.0013239999999999997,0.0009424777960769,0.0009424777960769,2.8513794626478086
90.22556390977444,0.6096670260332899,0.5734319019518389,-10.928819,0.009544,-0.0064329999999998,0.0012250000000000993,-5.235987755982984e-05,0.0030194196059503,2.857034154891345
91.2280701754386,0.6096671637397679,0.5734315973918844,-10.909878,0.010039999999999799,-0.00029700000000010014,0.0174749999999998,0.0019198621771937,0.0042236967898263,2.8617466136849
92.23057644110276,0.6096672977810546,0.5734312952753908,-10.910684,-0.00037300000000000007,-0.0180929999999999,0.010573000000000101,0.0057595865315812,0.0030194196059503,2.865917933143874
93.23308270676692,0.609667427109952,0.5734309943806278,-10.928569,-0.0141409999999999,-0.0176780000000001,-0.015921,0.011676252695842,0.0003665191429189,2.8698274532150485
94.23558897243107,0.6096675473631376,0.5734306915660026,-10.935886,-0.007065999999999999,0.0156630000000001,-0.029286,0.0026354471705114,-0.0016755160819144,2.870874598406368
95.23809523809524,0.6096676663945926,0.5734303852607189,-10.914931,-0.0012449999999999007,0.0384319999999998,-0.012308999999999997,-0.0029845130209103,-0.002740166925631,2.8683611148439856
96.2406015037594,0.6096677918837657,0.5734300777337047,-10.863598,0.0166789999999998,0.0355470000000001,0.016896999999999995,-0.0077318085863348,-0.0020245819323132,2.8631253365275127
97.24310776942356,0.6096679281939803,0.5734297719520198,-10.81824,0.0115030000000002,-0.009984000000000097,0.045458,-0.0039269908169872,-0.0013439035240354,2.8612403460287736
98.24561403508773,0.6096680695656498,0.573429470359125,-10.818813,0.0017879999999996996,-0.058697999999999806,0.0248519999999999,0.0013089969389957,-0.0007504915783576,2.8638409389741226
99.24812030075188,0.6096682077957264,0.5734291703370266,-10.863105,-0.0104049999999998,-0.038589000000000095,-0.026865,0.0074525559060157,-0.001815142422074,2.8671570994594973
100.25062656641605,0.6096683313650375,0.5734288704894611,-10.90947,-0.010401,0.016291000000000097,-0.0464649999999998,0.0055850536063818,-0.0041538836197463,2.8675933270527407
101.2531328320802,0.6096684481275645,0.5734285687220334,-10.917042,-0.009028000000000001,0.051958999999999804,-0.028390000000000103,0.0038222710618675,-0.004886921905584,2.864207388303872
102.25563909774436,0.609668568206217,0.5734282636384802,-10.876399,0.0023180000000000006,0.0419030000000001,0.013210000000000104,-0.0050789081233034,-0.002740166925631,2.859285594719833
103.25814536340852,0.6096687029456352,0.5734279555878672,-10.823138,0.0132909999999999,-0.003836000000000103,0.0473459999999998,-0.0127234502470386,1.74532925198978e-05,2.856580351832534
104.26065162907268,0.6096688471098315,0.573427650155248,-10.803467,0.0166670000000002,-0.0426779999999999,0.0326200000000001,-0.003996803987067,0.0020769418098733,2.85698169029403
105.26315789473684,0.6096689910994948,0.5734273494350179,-10.832372,0.005334999999999899,-0.038806999999999904,-1.0000000000003062e-05,0.0005585053606381,0.000314159265359,2.85944272671239
106.265664160401,0.6096691246171826,0.5734270511582488,-10.88426,-0.021890000000000197,-0.013810999999999997,-0.047608999999999894,0.0079587013890941,-0.0031241393610697,2.863509361322829
107.26817042606515,0.6096692488846253,0.5734267534050784,-10.902527,-0.0143019999999997,0.0305599999999999,-0.049325000000000105,0.0075572756611354,-0.0036128315516281,2.864713655959997
108.27067669172932,0.6096693719303375,0.5734264516376507,-10.870017,-0.002708999999999899,0.038655999999999996,0.014615000000000003,0.0018151424220741,-0.0024434609527919,2.8646784875755698
109.27318295739347,0.6096695024809656,0.573426145332367,-10.821469,0.006501999999999798,0.009223999999999902,0.043117,-0.0071558499331767,-0.0001745329251994,2.865813265748632
110.27568922305764,0.6096696419327728,0.5734258392016163,-10.796635,0.012029000000000001,-0.019987,0.026938,-0.0066671577426183,0.0007679448708775,2.8676282161844884
111.2781954887218,0.6096697831299093,0.5734255342925959,-10.803001,0.011751999999999901,-0.0252399999999999,-0.006713000000000101,0.0001047197551196,-0.0006806784082777,2.870682594735356
112.28070175438596,0.6096699182183933,0.5734252313034377,-10.827092,-0.001641,-0.0184969999999999,-0.015037999999999899,0.0040666171571467,-0.0032114058236694,2.876285084180965
113.28320802005013,0.6096700445802312,0.5734249307577406,-10.853148,-0.0159129999999999,0.0014179999999998985,-0.012729999999999901,0.0100007366139275,-0.0054105206811823,2.880264644315022
114.28571428571428,0.6096701643098179,0.5734246295139117,-10.871168,-0.0165409999999999,0.012465,-0.011998000000000099,0.0052708943410228,-0.0063180918922194,2.880822835516395
115.28822055137844,0.6096702812468778,0.5734243233831608,-10.865397,0.008665000000000098,0.022954000000000002,-0.0130829999999999,-0.003979350694547,-0.0049741883681837,2.8772800440276494
116.2907268170426,0.6096704053397877,0.5734240153325478,-10.838971,0.0118849999999996,0.029850999999999905,0.0186389999999999,-0.003368485456349,-0.004607669225265,2.871485533457736
117.29323308270676,0.6096705362394815,0.5734237088527312,-10.820819,0.0108850000000003,0.0037620000000000986,0.032091,-0.0081681408993334,-0.0034033920413889,2.867331527664942
118.29573934837092,0.6096706748186241,0.5734234058635731,-10.839355,0.005132999999999799,-0.042273000000000005,0.017963999999999897,-0.0024260076602721,-0.0034382986264287,2.86644151446618
119.29824561403508,0.609670810430707,0.5734231065396064,-10.887096,-0.013682,-0.03811,-0.034842999999999895,0.0057246799465414,-0.0051312680008632,2.867471084191932
120.30075187969923,0.6096709376652095,0.5734228077392384,-10.914598,-0.008531999999999899,0.025466000000000003,-0.0439789999999999,0.0041015237421866,-0.0059166661642606,2.8669650783351925
121.3032581453634,0.6096710631543827,0.5734225059718107,-10.899743,-0.005859999999999901,0.044065,0.0006319999999998965,-0.0029496064358704,-0.0039444441095071,2.865778114817497
122.30576441102755,0.609671195275807,0.5734222014118563,-10.865284,0.0141239999999999,0.009417999999999996,0.039179,-0.0059341194567807,-0.0001221730476395,2.8649927515606843
123.30827067669172,0.6096713362984106,0.5734218968519018,-10.854335,0.0035389999999999,-0.041070999999999996,0.03302,3.4906585039886545e-05,0.0023561944901924,2.8675411242548137
124.31077694235589,0.6096714734812899,0.5734215936882108,-10.870378,-0.005683000000000099,-0.039449,-0.026125999999999996,0.0063704517697793,0.00307177948351,2.871136397794167
125.31328320802004,0.6096716028101874,0.573421292095316,-10.878064,-0.0024079999999996,0.015152999999999996,-0.029456999999999997,0.0045553093477051,0.0024434609527921,2.8726024569125497
126.3157894736842,0.6096717239360375,0.5734209891061578,-10.860898,-0.007951000000000302,0.034178,-0.004482,0.0028797932657906,0.0030368728984702,2.872951610029411
127.31829573934836,0.609671848901612,0.5734206840226046,-10.826022,0.0107450000000002,0.018946,0.017063,-0.0062831853071795,0.0058119464091412,2.871974225648294
128.32080200501252,0.6096719808485034,0.573420379986249,-10.797389,0.0047679999999998,-0.015548000000000001,0.026084,-0.0053232542185827,0.0065798912800187,2.8724280287071053
129.32330827067668,0.6096721133189937,0.5734200766480249,-10.788067,-0.0068319999999999995,-0.021318999999999998,-0.002931999999999999,0.0020420352248333,0.0063879050622992,2.872323361311863
130.32581453634086,0.6096722440441545,0.5734197727862022,-10.786948,-0.0066629999999997,-0.0061479999999999,-0.018335,0.0014311699866353,0.0054105206811825,2.8708573021934805
131.328320802005,0.609672369184262,0.5734194684007806,-10.770911,0.011929999999999701,0.012908,-0.017205,0.0004363323129985,0.0050090949532237,2.8675235487892463
132.33082706766916,0.6096724943243693,0.5734191647134907,-10.74455,0.005801,0.0210379999999998,0.022837,0.0018675022996339,0.0034732052114687,2.861973523940952
133.33333333333331,0.6096726253985962,0.573418863120596,-10.724792,-0.0068589999999998,0.0097300000000001,0.0034209999999999,-0.0053756140961425,0.0025132741228719,2.85790687187722
134.3358395989975,0.6096727617088108,0.5734185617022342,-10.707748,0.0019269999999998004,-0.006593000000000099,-0.002398,-0.0023038346126325,0.0015009831567152,2.857226176015649
135.33834586466165,0.6096729025568813,0.5734182602838723,-10.698246,-0.010231,-0.0207319999999998,0.0026860000000001006,0.0064053583548191,0.0002094395102394,2.8606470038962657
136.3408521303258,0.6096730427068204,0.5734179586909776,-10.690518,0.0047420000000003,-0.0075490000000001,-0.008443,0.0003141592653589,0.0006981317007976,2.8656388375431874
137.34335839598998,0.6096731800642324,0.5734176557018196,-10.683913,-0.0028900000000001,-0.0052839999999999,0.00412,-0.0010821041362364,0.0013788101090754,2.8715379980550506
138.34586466165413,0.6096733130583214,0.5734173541089248,-10.676872,0.0083199999999998,0.0055769999999999,-0.0014470000000001001,0.0037350045992678,0.00307177948351,2.876878443766765
139.34837092731829,0.6096734443070813,0.5734170537377604,-10.678092,-0.0013530000000000005,-0.0101949999999999,0.0137610000000001,0.0022514747350726,0.0034732052114687,2.8808580039008227
140.35087719298244,0.6096735715415837,0.5734167528429974,-10.687567,-0.0147189999999998,-0.011949000000000098,-0.020331,0.0071209433481368,0.0037524578917877,2.884086810657135
141.35338345864662,0.609673694761829,0.573416450377438,-10.675724,0.0008459999999999007,0.0293280000000001,-0.022109999999999998,0.0028448866807507,0.0047647488579445,2.8839123824516903
142.35588972431077,0.609673817982074,0.573416144770286,-10.634687,-0.0033860000000001007,0.0242629999999998,-0.0012049999999999006,-0.0001919862177193,0.0079761546816141,2.882777604278629
143.35839598997492,0.6096739481836362,0.5734158377668706,-10.573277,0.020188,0.013974000000000097,0.0257399999999999,-0.0084124869946126,0.0110479341651241,2.880561053581889
144.36090225563908,0.6096740853665155,0.573415531112521,-10.53453,0.009986000000000099,-0.028218000000000097,0.043559999999999995,-0.0031415926535897,0.0117286125734019,2.8808928930325703
145.36340852130326,0.60967422167673,0.5734152298686921,-10.542882,-0.003514999999999999,-0.0450609999999998,0.004514000000000004,0.0092502450355699,0.0104894288044858,2.8827254014807018
146.3659147869674,0.6096743487366996,0.5734149301956596,-10.571703,-0.0202759999999998,-0.016856999999999997,-0.054714,0.0100880030765272,0.0072082098107366,2.884121699788882
147.36842105263156,0.6096744660228254,0.5734146298244952,-10.561079,-0.0027300000000002,0.04494,-0.043323,0.0027925268031909,0.003665191429188,2.8808580039008227
148.37092731829574,0.6096745838325498,0.5734143263117384,-10.501099,0.0008120000000001008,0.0532679999999998,0.018767,-0.0024958208303518,0.0023387411976725,2.8759013211850366
149.3734335839599,0.609674714034112,0.5734140222753827,-10.431033,0.0842749999999998,0.018328000000000094,0.049375,-0.0226892802759262,0.0010995574287564,2.917335315454334
150.37593984962405,0.6096748337636988,0.5734137376121817,-10.401,0.0355560000000001,-0.337379,0.034412,0.0216595360172496,0.0066846110351383,-3.1261465769761063
151.3784461152882,0.6096748932794263,0.5734134780817219,-10.410934,0.0689389999999999,-0.18649900000000003,-0.021542000000000002,0.0953647903289701,-0.0039793506945469,-2.837224772600965
152.38095238095238,0.6096748967700848,0.5734132716092715,-10.430942,0.05888600000000019,0.035309000000000035,-0.0389949999999999,0.1219112482518039,-0.0206821516361328,-2.578147923902001
153.38345864661653,0.6096748002533771,0.5734131009160705,-10.434583,0.004383999999999694,0.12925499999999995,0.0026529999999999002,0.1647067215107049,-0.0389382956119934,-2.3591617768135387
154.38596491228068,0.6096746381122896,0.5734129625114609,-10.440082,-0.033127999999999685,0.08361900000000003,0.0247119999999999,0.0836187244630483,-0.0490612052735606,-2.1689031558009555
155.3884711779449,0.6096744393192878,0.5734128511594546,-10.460117,-0.017465000000000203,0.039920000000000094,-0.00016899999999990187,0.0422020613132229,-0.0459370659124906,-2.0005138768350053
156.39097744360902,0.609674214695413,0.5734127673836504,-10.501312,0.020308999999999994,0.010105999999999893,0.014564,0.06461208890883,-0.0467050107833681,-1.8444116285366328
157.39348370927317,0.6096739597028094,0.573412712580312,-10.583944,0.00893500000000011,-0.0113069999999999,0.004517,0.0141022603561141,-0.044296456415616,-1.7017657989579666
158.39598997493732,0.6096736722470816,0.573412693556223,-10.667705,0.004919000000000007,0.03297599999999992,-0.0625249999999999,0.0266860842629932,-0.0363203017340019,-1.5702200190758877
159.3984962406015,0.609673360880343,0.5734127106604499,-10.723291,-0.0014310000000000156,0.0663280000000001,0.010527999999999899,0.0316253660461372,-0.0318173522638565,-1.4480299195694928
160.40100250626566,0.609673038867096,0.5734127612749981,-10.785752,0.005593000000000015,0.025439999999999893,0.045033000000000004,0.020612338466053,-0.0300196631343023,-1.336276225764909
161.4035087719298,0.6096727088253344,0.5734128478433289,-10.870857,-0.015316999999999997,-0.016744999999999996,-0.025793000000000097,0.0282045207122283,-0.0235444916094034,-1.2423257629952924
162.406015037594,0.6096723711041242,0.5734129684455803,-10.926018,-0.011975000000000124,0.035826,-0.055476999999999804,0.0176976386152225,-0.0127583568320783,-1.1603126541776156
163.40852130325814,0.6096720316375847,0.5734131227326862,-10.937041,-0.01692199999999988,0.04496,0.029835999999999904,0.0158824961931484,-0.0044505895925854,-1.0929075148668193
164.4110275689223,0.609671696883434,0.5734133038978625,-10.943176,-0.037777000000000116,0.0020279999999999014,0.029994,0.00305432619099,0.0028623399732707,-1.041281077018554
165.41353383458645,0.6096713734739236,0.5734135039125948,-10.956697,-0.05261999999999989,0.027669000000000197,-0.00835,-0.0161792021659874,0.0136484747505958,-1.0035291689656047
166.41604010025063,0.6096710559985328,0.5734137164936978,-10.955102,-0.043649,-0.011079000000000096,-0.028254,-0.0062657320146596,0.0265988178003935,-0.977733254981006
167.41854636591478,0.6096707488205845,0.5734139336126567,-10.911146,-0.027255,0.007744000000000001,-0.0160339999999999,-0.0077318085863348,0.0376118453804779,-0.959198189937384
168.42105263157893,0.6096704507183482,0.5734141512552144,-10.831821,0.006947999999999899,-0.00029900000000010474,0.027674999999999898,0.0037699111843077,0.0418180888777841,-0.9455500118927608
169.4235588972431,0.609670159597429,0.5734143729120295,-10.742185,0.006170000000000002,-0.013333999999999898,0.010927000000000102,-0.0024958208303518,0.0431794456943397,-0.9387775933429556
170.42606516290726,0.6096698733634316,0.5734145998048321,-10.648252,-0.01776,-0.005802000000000102,0.009064999999999799,-0.0041887902047863,0.0429700061841005,-0.9371195131002674
171.42857142857142,0.6096695907946258,0.5734148291410958,-10.568373,-0.0291929999999999,-0.029790999999999797,0.0223430000000001,-0.0074525559060157,0.0374722190403182,-0.9406977347728288
172.43107769423557,0.6096693033388979,0.5734150556848328,-10.504257,-0.0082319999999998,-0.01806,-0.0244029999999999,-0.0114319066005628,0.0307876080051801,-0.9446418821763632
173.43358395989975,0.6096690143123737,0.5734152794360429,-10.429023,0.0197759999999997,0.036150999999999905,-0.0122940000000001,-0.0082205007768932,0.023108159296405,-0.9440485225905626
174.4360902255639,0.6096687272057119,0.5734155028381871,-10.353284,0.016581,0.0129819999999999,0.031702,-0.0030019663134302,0.012601277199399,-0.9431931192708672
175.43859649122803,0.6096684425425108,0.5734157281601936,-10.307873,-0.0137469999999998,-0.030294,0.016165,-0.0117111592808819,0.0028623399732707,-0.9473476486624376
176.44110275689223,0.6096681570066452,0.5734159545293976,-10.292553,-0.0216980000000001,-0.011079999999999698,-0.014151,-0.0134215819478363,-0.0042062434973062,-0.9531245837667836
177.4436090225564,0.6096678688527858,0.5734161793278053,-10.286792,-0.0024129999999999985,0.0172379999999998,-0.017883999999999997,-0.0074525559060157,-0.0100007366139274,-0.9568418209142664
178.44611528822054,0.609667581222525,0.5734164006355543,-10.287837,0.013562999999999999,0.0068850000000000005,0.010927000000000001,-0.0044505895925855,-0.0171216799620643,-0.9575922950393309
179.4486215538847,0.6096672923705337,0.5734166205470401,-10.309819,0.008188,-0.0150810000000001,0.008676,-0.0060388392119003,-0.0238935574598022,-0.9598261594022512
180.45112781954887,0.6096670026458779,0.573416842203855,-10.347811,-0.0070099999999999,-0.008899999999999901,-0.014355,-0.0096167641784887,-0.0283441470523877,-0.9628807997525072
181.45363408521305,0.609666710652294,0.5734170631625384,-10.381898,0.0018919999999998,0.0235800000000001,-0.020072,-0.0093200582056497,-0.0301243828894219,-0.964154855199878
182.4561403508772,0.6096664204040395,0.573417285517485,-10.418564,0.0041240000000001,0.0219489999999998,0.039296,0.0005235987755982,-0.0345226126044477,-0.963648866796432
183.45864661654133,0.6096661305048507,0.5734175066507013,-10.499253,-0.017999,-0.0547479999999997,0.017213,-0.0098087503962081,-0.0403345590135888,-0.9680643752710526
184.4611528822055,0.609665837987668,0.5734177235951273,-10.592183,0.004305999999999999,-0.009542000000000196,-0.0704229999999999,-0.0127409035395586,-0.0396189740202712,-0.9697395073805312
185.4636591478697,0.609665541630761,0.5734179419358169,-10.64059,0.0221639999999999,0.0590319999999999,-0.018744000000000097,-0.0018500490071139,-0.0360235957611629,-0.965393759716114
186.46616541353384,0.609665245797453,0.573418158356644,-10.670335,-0.0060299999999999,0.012773000000000097,0.0553569999999999,0.0013439035240356,-0.0348367718698068,-0.9633692301436778
187.468671679198,0.609664956072797,0.5734183773954652,-10.733232,-0.0093609999999999,-0.04151,0.0334330000000001,-0.0038746309394274,-0.0354999969855645,-0.9672963256804188
188.4711779448621,0.6096646679189376,0.5734185952125559,-10.835125,0.00014300000000000077,-0.028157,-0.018392000000000103,-0.0127583568320785,-0.0338419341961699,-0.9707866700251436
189.4736842105263,0.6096643719110965,0.5734188139023111,-10.934577,0.0009409999999998998,0.006803000000000104,-0.0593489999999999,-0.0078539816339744,-0.0271398698685116,-0.9712228976183872
190.47619047619045,0.6096640732852614,0.5734190299740726,-10.976368,-0.0270109999999999,0.0617969999999998,-0.031764,-0.0323758576244948,-0.0164060949687465,-0.9449561287081852
191.47869674185463,0.6096637853059348,0.5734192516308875,-10.971805,0.1674199999999998,0.05369499999999999,0.04431,0.026459191460234,-0.0074001960284559,-0.8563810007820313
192.4812030075188,0.6096635139072362,0.573419490566462,-10.984793,-0.0532709999999999,-0.011599999999999791,0.06714200000000001,0.0105766952670856,-0.0087615528450115,-0.8102166930009294
193.4837092731829,0.6096632487917227,0.5734197377050841,-11.038743,-0.039392000000000094,-0.0596610000000002,-0.0282000000000001,-0.0120602251312808,-0.004886921905584,-0.7931820526086633
194.48621553884712,0.6096629925773885,0.5734199965374123,-11.07042,-0.0439389999999999,-0.007878,-0.0757499999999999,-0.0023387411976724,0.00310668606855,-0.7944742245736692
195.48872180451127,0.6096627422971739,0.5734202546716086,-11.040062,-0.019340999999999997,0.029593000000000202,0.011430000000000003,0.0027750735106709,0.007435102613496,-0.8096233334151296
196.49122807017545,0.6096624955076176,0.5734205079188831,-10.996075,0.0036560000000000984,-0.0347810000000002,0.067274,0.0055850536063818,0.0039793506945471,-0.8401314443938956
197.4937343358396,0.6096622467981992,0.573420755406571,-10.990509,-0.0132150000000002,-0.0690829999999997,0.019205000000000003,-0.0035430183815484,0.0004886921905584,-0.87948870629283
198.49624060150376,0.6096619846497455,0.5734209981818699,-11.00853,-0.021845999999999796,-0.011164000000000202,-0.041698,-0.0151145513222708,0.0014486232791552,-0.9110967063129104
199.4987468671679,0.609661708538658,0.5734212343249178,-11.000175,0.0027429999999999954,0.05182399999999991,-0.04061,-0.0101927228316468,0.0048171087355044,-0.924867371564438
200.5012531328321,0.6096614270170495,0.5734214613922534,-10.959991,0.036076000000000004,0.052478000000000094,0.0385710000000001,-0.0039095375244672,0.0040666171571468,-0.9159836107652012
201.50375939849624,0.609661150905962,0.5734216872378587,-10.946751,0.048813999999999795,-0.013378000000000098,0.0496669999999999,0.0032288591161895,0.0001919862177195,-0.8853359432594471
202.5062656641604,0.6096608767147365,0.5734219198902478,-10.963666,0.0157280000000002,-0.0065159999999999,-0.045469,-0.0084124869946126,0.0016929693744345,-0.831265259060227
203.5087719298245,0.6096606081085645,0.5734221630146127,-10.955325,0.0203759999999997,0.0631509999999999,-0.040397999999999996,-1.7453292519943537e-05,0.0061959188445799,-0.7488510735804418
204.5112781954887,0.6096603531159608,0.5734224180072164,-10.919957,0.029277000000000206,0.05498299999999999,0.031064,0.0062831853071795,0.0065449846949787,-0.6422458043632677
205.51378446115288,0.6096601265722239,0.5734226915003103,-10.887116,0.029369999999999896,0.04786400000000021,0.0193679999999999,0.0139800873084745,0.0053058009260629,-0.5178042650283851
206.51629072681703,0.6096599366804013,0.5734229862864209,-10.868718,0.0011540000000000994,0.04722199999999968,0.008460000000000101,0.0249931148885588,0.0015533430342751,-0.3829423246609338
207.5187969924812,0.6096597904218098,0.5734233021910154,-10.869348,-0.036054,0.017774000000000206,-0.006991000000000001,0.0105417886820457,0.0,-0.2459173628448996
208.5213032581453,0.6096596933815035,0.5734236325818429,-10.875149,-0.0441019999999999,0.005946999999999897,-0.014551,0.0140499004785543,0.0013788101090754,-0.1061855524386541
209.52380952380952,0.6096596441632186,0.5734239690813226,-10.876459,-0.034923000000000495,0.009702000000000127,0.002889,0.0222354946704077,3.4906585040017646e-05,0.0354301838154848
210.52631578947367,0.6096596413706918,0.5734243054062695,-10.876857,-0.022729999999999598,0.015492999999999979,-0.001555,0.0202807259081741,-0.0015009831567149,0.17851227589398
211.52882205513785,0.6096596891927133,0.5734246385896238,-10.874658,-0.035355,0.0047479999999999745,-0.0018329999999999,0.0197047672550159,-0.001535889741755,0.3220481535779937
212.531328320802,0.6096597895491453,0.5734249633953976,-10.873114,-0.036513999999999894,-0.014165999999999956,0.0063999999999998,0.0243647963578408,-0.0010995574287564,0.4654793115068877
213.53383458646616,0.6096599377275987,0.5734252723186752,-10.876762,-0.028533000000000003,-0.019156000000000117,-0.00014899999999990008,0.0268257106031528,-0.002426007660272,0.6071651750903725
214.5363408521303,0.6096601277939543,0.5734255629159957,-10.883271,-0.02796899999999991,-0.013727999999999796,-0.0033239999999999997,0.0202807259081741,-0.0027750735106708,0.7461631443593232
215.5388471177945,0.6096603599227448,0.5734258323948321,-10.889386,-0.025864000000000303,-0.013804000000000205,0.0010069999999999999,0.026441738167714,-0.0015533430342749,0.8826479442251574
216.54135338345864,0.6096606313214435,0.5734260739484006,-10.897096,-0.026639999999999803,-0.027139999999999886,0.0034719999999999994,0.0225322006432467,0.0,1.015432558810301
217.5438596491228,0.6096609339615358,0.5734262851332401,-10.912569,-0.02173700000000009,-0.033439000000000024,0.006054000000000001,0.0207868713912524,0.0013439035240356,1.1439760233130984
218.5463659147869,0.6096612645268962,0.573426462633225,-10.934545,-0.0072440000000000004,-0.02798399999999998,-0.010959,0.0268780704807126,0.0011868238913561,1.26662044947708
219.5488721804512,0.6096616151635429,0.5734266066228884,-10.95302,0.005599000000000104,-0.034106000000000206,-0.0069119999999999,0.0228638132011257,0.0003316125578789,1.3825277476487308
220.55137844611528,0.6096619839516139,0.5734267160550325,-10.958677,-0.01330100000000009,0.0038090000000003954,-0.0073450000000001,0.014451326206513,0.0019373154697137,1.4979985564277507
221.55388471177943,0.6096623675749835,0.5734267905805915,-10.94836,0.012430999999999998,-0.03767600000000029,-0.00018299999999990026,0.0175754655675829,0.0040666171571468,1.5978139712558914
222.5563909774436,0.6096627614957956,0.5734268333411581,-10.93236,0.012580000000000091,-0.034359999999999905,0.0164789999999999,-0.0006632251157578,0.0069987703004972,1.684225292335301
223.55889724310777,0.6096631573364699,0.573426845209397,-10.92428,0.019877999999999896,-0.023024,0.007750999999999999,0.0033510321638291,0.0099309234438478,1.7590650455674024
224.56140350877192,0.6096635495119529,0.5734268308976972,-10.922153,0.027387000000000106,-0.0138930000000003,-0.008943999999999999,-0.0047996554429844,0.0118682389135615,1.8249511026571408
225.56390977443607,0.6096639359278493,0.5734267930240524,-10.915072,0.014096999999999998,-0.0051679999999994005,-0.009192,0.0026354471705114,0.0134564885328762,1.8900170644379524
226.56641604010025,0.6096643200748176,0.5734267350791212,-10.897161,0.007176999999999906,-0.004175000000000401,-0.0013289999999998997,0.0024260076602721,0.0158999494856684,1.9557112574830184
227.5689223057644,0.6096647000329959,0.5734266584591671,-10.872899,0.0005280000000000007,-0.0095319999999997,0.0078209999999999,-0.0020071286397934,0.0178721715404219,2.0206375231105
228.57142857142856,0.6096650723117252,0.5734265619424594,-10.845013,-0.003574999999999995,-0.009771000000000196,-0.0058409999999999,0.0049392817831439,0.0187099295813792,2.0814446895302274
229.5739348370927,0.60966543656194,0.5734264458780642,-10.807574,0.0018060000000000853,-0.0017110000000000042,-0.0023160000000000992,-0.0015009831567151,0.0188844625065787,2.136038553626025
230.5764411027569,0.6096657924345746,0.5734263099169156,-10.759624,0.027306999999999998,0.011456000000000105,0.002973,-0.0050090949532237,0.0191462618943778,2.180596826882733
231.57894736842104,0.6096661432457543,0.5734261582478035,-10.707626,0.025228999999999904,0.004234999999999798,0.0071460000000001,-0.0102799892942466,0.0197571271325758,2.2156257944097693
232.5814536340852,0.609666489170012,0.5734259968048476,-10.658069,0.022667000000000104,-0.004164999999999804,0.0035279999999998,-0.0030892327760299,0.0201585528605345,2.2422769720877227
233.58395989974937,0.6096668282874858,0.573425827856976,-10.614854,0.012239,-0.005173999999999998,0.007146,-0.0087266462599716,0.0184306769010602,2.2622608000368403
234.58646616541355,0.6096671604236423,0.573425652974985,-10.583997,-0.001570000000000099,0.0046149999999998,-0.0005129999999999007,-0.0041364303272265,0.0140673537710742,2.2757347942221138
235.58897243107768,0.6096674866256796,0.5734254730315391,-10.557158,0.013299999999999899,0.0163960000000001,-0.0104,-0.0074351026134958,0.0091978851580101,2.282785784773831
236.59147869674183,0.6096678103842559,0.5734252883757043,-10.526519,0.0151410000000003,0.0127200000000001,-0.0019249999999998999,-0.0135437549954759,0.0049741883681839,2.28395545207864
237.593984962406,0.6096681344918978,0.5734251018000073,-10.497464,0.014832999999999898,0.0147889999999998,0.0073089999999999,-0.0153414441250301,-1.74532925198978e-05,2.278509815372907
238.59649122807016,0.6096684619156656,0.5734249173187054,-10.480919,0.0081189999999996,0.0042900000000002,0.014744,-0.0131946891450771,-0.0041189770347065,2.2691200487169327
239.59899749373432,0.6096687926555587,0.5734247328374034,-10.480011,-0.0036409999999997,-0.0077940000000000995,-0.0095030000000001,-0.013212142437597,-0.0062657320146595,2.2599571748637177
240.6015037593985,0.6096691242681167,0.5734245499268978,-10.482639,0.022403000000000096,-0.018383,-0.008346,-0.007068583470577,-0.0095120444233689,2.24688451913994
241.60401002506265,0.6096694516918842,0.5734243719033141,-10.49161,0.0030359999999998027,0.0020700000000000995,0.006502000000000101,0.0033510321638291,-0.0169995069144246,2.232450716039117
242.6065162907268,0.6096697778939216,0.5734241980685206,-10.504867,-0.0043879999999999995,0.0209369999999998,-0.0055580000000000004,-0.0013962634015954,-0.0245044226980002,2.2204078918404786
243.60902255639093,0.6096701075866173,0.5734240299933137,-10.526801,0.0022580000000001,0.01636,0.0118799999999999,-0.0041887902047863,-0.0296182374063436,2.210668989520935
244.6115288220552,0.6096704437370313,0.5734238654087651,-10.568813,-0.010468000000000203,-0.0172789999999999,0.008745000000000102,-0.0047123889803846,-0.0296531439913836,2.2028498097522458
245.6140350877193,0.6096707812837084,0.5734237025695459,-10.63053,-0.011963999999999798,-0.0255440000000001,-0.012157000000000001,0.0013788101090755,-0.0286408530252268,2.1961302572254824
246.61654135338344,0.609671116212392,0.5734235418247218,-10.692159,0.006261,0.0022980000000003987,-0.018404,0.0038571776469074,-0.0298800367941427,2.189201369908235
247.6190476190476,0.609671449919345,0.5734233838724245,-10.745776,0.009566999999999899,0.026134999999999402,0.0026340000000001007,0.0012915436464758,-0.0322013246992953,2.1830404100085725
248.62155388471177,0.609671785895226,0.5734232259201272,-10.793927,-0.011052999999999999,0.008520000000000302,-0.0047180000000001,-0.0030019663134302,-0.0306828882500602,2.179846492384008
249.62406015037595,0.6096721260598972,0.5734230711094225,-10.83403,-0.0106569999999998,-0.014942,0.004864000000000099,0.0014660765716752,-0.0272271363311114,2.178921432973866
250.62656641604008,0.6096724644792391,0.5734229131571252,-10.873618,-0.0096560000000001,-0.0143240000000001,0.0064639999999998,0.0037524578917878,-0.0238761041672823,2.179636895794136
251.62907268170423,0.6096728009787189,0.5734227538085646,-10.915412,0.0148619999999999,0.0023930000000003003,0.0003280000000000999,-0.0020245819323134,-0.0199840199353349,2.1794972170940987
252.6315789473684,0.6096731402707255,0.5734225972525306,-10.960363,0.0133,0.0030049999999996998,-0.0005299999999999999,0.0,-0.0158126830230684,2.179584570823161
253.63408521303256,0.6096734786900675,0.5734224431399576,-11.003821,-0.006554999999999901,-0.0015329999999998,-0.008062999999999999,0.0009599310885968,-0.0123918376891596,2.180195628047577
254.63659147869672,0.6096738165858107,0.5734222918199114,-11.035054,-0.0133719999999999,8.699999999999984e-05,-0.010528,0.006457718232379,-0.0093898713757294,2.1827959417402454
255.6390977443609,0.6096741539579551,0.5734221375328056,-11.046254,-0.0155090000000001,0.0013699999999999002,-0.0029500000000000012,0.0064228116473391,-0.0051487212933831,2.1874037331385585
256.64160401002505,0.6096744934244946,0.5734219804531729,-11.039336,0.0029410000000001015,0.0036409999999999004,0.005331000000000001,0.0004188790204786,0.000628318530718,2.1923079512570296
257.64411027568923,0.6096748321929024,0.5734218205810135,-11.023148,0.011285,0.0034710000000002,0.008001,0.0008377580409572,0.006736970912698,2.197229867014116
258.6466165413533,0.6096751721830407,0.5734216601852553,-11.004137,0.0079779999999997,-0.0080860000000002,0.0057770000000001,0.0004712388980384,0.0123918376891598,2.2020645686684808
259.64912280701753,0.6096755093806522,0.5734215010112275,-10.987141,-0.0037669999999998,-0.013506999999999698,0.0041139999999999,0.0042236967898262,0.0153065375399903,2.2070560008896742
260.6516290726817,0.6096758430876051,0.5734213416626667,-10.972461,-0.013007999999999902,-0.0046230000000003005,-0.005423000000000001,0.0057421332390613,0.0150621914447111,2.211454352777748
261.65413533834584,0.6096761731293667,0.5734211809178427,-10.949298,0.0014659999999998008,0.013941000000000299,-0.009441,0.0072256631032565,0.0132295957301171,2.213286861225879
262.65664160401,0.60967650386926,0.5734210170314259,-10.912124,-0.0007489999999996996,0.0172659999999996,-0.0033779999999999,0.0028797932657906,0.0109432144100045,2.2142818210725634
263.65914786967414,0.6096768379252787,0.5734208505270152,-10.861631,0.005211999999999799,0.006061000000000099,0.0033839999999998992,-0.0019198621771937,0.0111526539202437,2.214735501958327
264.6616541353383,0.6096771732030282,0.5734206850698021,-10.809204,0.017518,-0.0074489999999997995,0.020835999999999903,-0.002460914245312,0.0128979831722382,2.213199647123157
265.6641604010025,0.6096775105751726,0.5734205204852537,-10.778434,3.699999999989996e-05,-0.0207420000000002,0.0170980000000001,0.0025481807079117,0.012636183784439,2.211367121221733
266.66666666666663,0.6096778446311913,0.573420358867765,-10.76646,-0.0020670000000001,-0.0081149999999998,-0.01561,0.0003141592653589,0.0087440995524916,2.2093949340735644
267.6691729323308,0.6096781750220187,0.5734201989956055,-10.759511,-0.004922999999999699,0.0170589999999999,-0.0085070000000001,0.005532693728822,0.0018849555921538,2.2079810602998164
268.671679197995,0.6096785048892474,0.5734200394725119,-10.749207,-0.007406000000000201,0.0187239999999999,-0.0122199999999998,0.0041713369122664,-0.0019722220547535,2.2080509607363585
269.6741854636591,0.6096788392943321,0.5734198790767535,-10.728297,0.0007670000000002002,-0.002967000000000001,0.003004999999999901,-0.0022514747350726,-0.0011868238913561,2.207893828743802
270.6766917293233,0.6096791759683449,0.5734197188555282,-10.707478,0.0033849999999999,-0.0111299999999998,0.012989,0.0033510321638291,0.0001221730476397,2.2074051365532434
271.6791979949875,0.6096795145622197,0.5734195579361712,-10.694765,0.0035499999999999,-0.0055850000000001,0.0016349999999999004,-0.0005585053606381,0.0002268928027593,2.2066023374572032
272.6817042606516,0.6096798528070287,0.5734193971913472,-10.689757,-0.003493,0.0022300000000002,-0.0004149999999999007,-0.0009250245035569,-0.0015533430342749,2.20698622262618
273.6842105263158,0.609680188084778,0.5734192367955889,-10.687292,-0.0068229999999997,0.0024809999999996,-0.012240000000000001,0.0018500490071139,-0.0032463124087094,2.2096741518472984
274.68671679198,0.6096805237115931,0.5734190751781001,-10.677423,0.0118969999999998,0.0007410000000001001,-0.0006409999999998995,-0.0004363323129985,-0.002426007660272,2.211803488441317
275.6892230576441,0.6096808614328034,0.573418914607809,-10.672699,0.0029239999999998998,-0.007177999999999799,0.0207609999999999,0.0013613568165555,-0.0012566370614357,2.2128679472988155
276.69172932330827,0.6096811967105527,0.5734187552592482,-10.687721,-0.0104509999999999,-0.0120789999999999,0.004368,0.0080983277292536,-0.0013613568165555,2.2142293564752484
277.6942355889724,0.6096815277995118,0.5734185960852204,-10.712527,-0.0098039999999999,0.0023139999999998995,-0.020063,0.0062482787221396,-0.0037699111843076,2.215974790446998
278.69674185463657,0.6096818559214111,0.5734184342931987,-10.720589,-0.0006090000000001008,0.0200459999999997,-0.028231,0.0046774823953448,-0.006736970912698,2.2160095574056977
279.69924812030075,0.6096821873594361,0.573418270406782,-10.698937,0.005984000000000201,0.0205880000000002,0.004321000000000099,-0.0011693705988362,-0.007993607974134,2.215887576344276
280.7017543859649,0.6096825250806465,0.5734181056477006,-10.665404,0.0103769999999995,0.001872999999999802,0.0257989999999998,-0.0051138147083433,-0.0057072266540214,2.216166671944962
281.70426065162906,0.6096828676887786,0.5734179421103497,-10.650334,0.011541000000000301,-0.0255299999999998,0.0291490000000001,-0.0041713369122664,-0.001169370598836,2.216411157666581
282.70676691729324,0.6096832087261145,0.5734177825872561,-10.672462,-0.0065340000000001005,-0.0340499999999998,0.003716999999999998,0.0023387411976724,0.0006108652381979,2.217545534413915
283.70927318295736,0.6096835398150735,0.5734176241113601,-10.714786,-0.007456999999999801,-0.003809000000000201,-0.030696000000000098,0.0069987703004972,-0.0020594885173532,2.21843556506597
284.71177944862154,0.6096838656680449,0.5734174649373323,-10.744024,-0.0105150000000002,0.0304819999999999,-0.0258499999999998,0.0096516707635286,-0.0061086523819799,2.219692167220821
285.7142857142857,0.6096841901247528,0.5734173020981129,-10.744767,-0.0125459999999999,0.0255850000000001,-0.009978000000000101,0.0076445421237351,-0.0060213859193802,2.219378182488387
286.71679197994985,0.6096845212137119,0.5734171369899658,-10.714046,0.014873000000000098,0.009549000000000002,0.007208000000000003,-0.0050265482457436,-0.001815142422074,2.2171790850841666
287.719298245614,0.6096848592839881,0.5734169711836868,-10.674116,0.0172449999999999,-0.011344,0.031701,-0.0093724180832095,0.0026354471705114,2.213810442548185
288.7218045112781,0.6096852003213239,0.5734168062500725,-10.656912,0.0039399999999997996,-0.0247420000000002,0.024399999999999998,-0.0023387411976724,0.00614355896702,2.21154170650681
289.72431077694233,0.6096855376934682,0.5734166449816497,-10.671421,0.0029830000000002008,-0.0169809999999996,-0.003051999999999999,0.0052883476335428,0.0062831853071796,2.209255237920235
290.7268170426065,0.6096858707022896,0.5734164875529512,-10.698444,-0.010152000000000199,0.0031389999999999994,-0.035091,0.0031590459461097,0.0037524578917877,2.2077541500437645
291.72932330827064,0.6096861995223206,0.5734163306478514,-10.701525,-0.0084209999999996,0.0222979999999996,-0.024735999999999897,0.0053756140961425,0.0001919862177195,2.207283033318774
292.7318295739348,0.6096865293895493,0.5734161719974223,-10.674167,-0.0155180000000002,0.0213450000000001,0.0063049999999998975,0.002146754979953,-0.000593411945678,2.2089585668539806
293.734335839599,0.6096868671107595,0.5734160110780653,-10.630713,0.007472000000000199,0.004547000000000103,0.021074000000000002,-0.001204277183876,0.0032463124087094,2.210494282062811
294.7368421052631,0.6096872109406222,0.5734158480643132,-10.599424,0.009969999999999701,-0.0226330000000001,0.026187000000000002,-0.0050789081233034,0.0092851516206098,2.2123096164711025
295.7393483709273,0.6096875526760898,0.5734156859232257,-10.592611,0.013094000000000099,-0.0307039999999998,0.002574,-0.0016755160819145,0.0131597825600373,2.2128679472988155
296.7418546365915,0.6096878883029049,0.5734155295417247,-10.604524,0.0032979999999997994,-0.005325,-0.013053,0.0009948376736367,0.0116587994033221,2.2132169607893366
297.7443609022556,0.6096882150285409,0.573415372636625,-10.61777,-0.0222279999999998,0.0163309999999999,-0.022081999999999997,0.0097214839336084,0.0069464104229375,2.2145609341265424
298.7468671679198,0.6096885398343146,0.5734152153824593,-10.609714,-0.014228999999999797,0.024539,-0.014658999999999901,0.0049916416607037,0.0045378560551854,2.216393704374062
299.749373433584,0.6096888698760762,0.5734150535904378,-10.57205,-0.0037090000000002017,0.017906000000000002,-0.0048910000000001,0.0031415926535897,0.0062133721370998,2.218610255070802
300.7518796992481,0.6096892072482206,0.5734148888313564,-10.509162,0.0233979999999999,-0.005563000000000002,0.017097,-0.0033510321638291,0.0123918376891598,2.2186624578687293
301.7543859649123,0.6096895488091553,0.5734147242468077,-10.457433,0.0128379999999999,-0.02614,0.045218999999999995,-0.0065275314024587,0.0167726141116655,2.2174930698166
302.7568922305764,0.6096898886247606,0.5734145621057204,-10.444069,-0.004496999999999699,-0.016458999999999998,-0.001969000000000099,-0.0003141592653589,0.0163886416762268,2.2166729396010885
303.7593984962406,0.609690223553444,0.5734144032807583,-10.44782,0.0043529999999998,0.0006569999999998972,-0.0239709999999999,0.0014660765716752,0.0141197136486341,2.2171790850841666
304.7619047619048,0.6096905523734751,0.5734142465501916,-10.447761,-0.014458,0.006452000000000202,-0.015942,0.0058643062867009,0.0116937059883621,2.218645144202549
305.7644110275689,0.6096908796227098,0.5734140887724272,-10.43043,-0.009836999999999799,0.011306999999999899,-0.012405,0.0078016217564146,0.010786134777325,2.219570203612691
306.76691729323306,0.6096912096644714,0.5734139287257347,-10.389956,-0.0016609999999999004,0.013343,0.002907,-0.0017104226669544,0.0109606677025244,2.220006431205935
307.76942355889724,0.6096915421496939,0.5734137646647851,-10.336701,-0.0017900000000001994,0.007575999999999999,0.011405000000000099,-0.0036477381366681,0.0131248759749973,2.220076331642477
308.77192982456137,0.6096918816162333,0.5734135978113086,-10.277302,0.012924000000000099,-0.0012460000000000006,0.004152999999999901,-0.0016406094968746,0.0178721715404219,2.219831985547198
309.77443609022555,0.6096922224790363,0.5734134325286284,-10.22128,0.020657999999999798,-0.015285,0.0139109999999999,-0.0067369709126981,0.0226543736908864,2.218330897670728
310.77694235588973,0.6096925600257137,0.5734132712602056,-10.188836,0.0038500000000001,-0.025584,0.0227810000000001,-0.0008028514559173,0.0218864288200089,2.215713008512491
311.77944862155385,0.6096928912892058,0.5734131124352436,-10.183502,0.0179379999999999,-0.016231000000000103,-0.018594000000000104,0.0017104226669544,0.0144338729139932,2.2338643105601848
312.78195488721803,0.6096931967218248,0.5734129609406645,-10.181894,-0.0796879999999999,-0.1881479999999998,-0.0206129999999999,-0.0080459678516938,0.0106465084371654,2.4261823677302425
313.7844611528822,0.609693445780309,0.5734127935635892,-10.156461,-0.1089519999999998,-0.129658,-0.022316,0.0472809694365263,0.0086917396749317,2.6998147038854783
314.78696741854634,0.6096936435261133,0.5734126439888724,-10.104076,0.0642389999999997,-0.025240000000000207,0.0090440000000001,0.1096590369028037,-0.0010646508437164,2.96625678966798
315.7894736842105,0.6096937616849036,0.5734124713758093,-10.057663,0.0576590000000001,0.024024000000000212,0.0470709999999999,0.1532224550325822,-0.020280725908174,-3.086754443398717
316.79197994987464,0.6096938068889313,0.5734122874181061,-10.047334,0.047373,0.041310999999999876,0.010541999999999899,0.1428203101439885,-0.036617007706841,-2.8889039368459324
317.7944862155388,0.6096937880393754,0.5734121029368042,-10.066885,0.013958000000000002,0.025209000000000037,-0.009767999999999898,0.0632332787997545,-0.0432667121569394,-2.713131845330876
318.796992481203,0.6096937192734028,0.5734119202008315,-10.120531,0.006754999999999796,0.02836800000000006,0.004063000000000001,0.0567232006898157,-0.0441219234904166,-2.55706448616425
319.7994987468672,0.6096936000674149,0.5734117444461758,-10.2003,0.0188820000000003,-0.0021869999999999945,-0.014158,0.0352905574753253,-0.0432667121569394,-2.4149422204545967
320.8020050125313,0.6096934360064652,0.5734115777672324,-10.279972,0.028026999999999802,0.017806999999999906,-0.036169,0.0253596340314776,-0.0392350015848323,-2.2866782704315063
321.8045112781955,0.6096932283122842,0.573411424527324,-10.334466,0.011713000000000098,0.04251899999999989,-0.007365,0.0312413936106985,-0.0358665161284834,-2.16899024773063
322.8070175438596,0.6096929841407219,0.5734112878680435,-10.376114,0.009104999999999905,0.023334000000000327,0.027796,0.0299498499642226,-0.0341910000465688,-2.0616877543838696
323.8095238095238,0.6096927082041672,0.5734111688365885,-10.432702,0.017420000000000088,0.010090999999999795,0.023288,0.0283965069299477,-0.0321489648217354,-1.96757963602292
324.812030075188,0.6096924005026201,0.5734110716217492,-10.520727,0.00938,-0.003962000000000021,-0.0020630000000000995,0.0234746784393237,-0.0279427213244292,-1.8881319517661648
325.8145363408521,0.6096920633050086,0.5734109967471243,-10.607515,-0.012666000000000094,0.03540299999999991,-0.0465719999999998,0.0113097335529232,-0.0192335283569775,-1.8243577605246328
326.8170426065163,0.6096917002765241,0.573410941420187,-10.663466,-0.014631999999999895,0.03373800000000021,-0.009032000000000099,0.005218534463463,-0.0105417886820455,-1.7740748771345534
327.8195488721804,0.6096913206674118,0.5734109014521472,-10.682085,-0.028829000000000007,0.020170999999999994,-0.010410000000000003,0.0053058009260627,0.0007679448708775,-1.7363059346681038
328.8220551378446,0.6096909295391265,0.5734108735268793,-10.667374,-0.017269999999999994,0.017194999999999794,0.025924000000000003,0.0087790061375314,0.0108559479474048,-1.7078399287273416
329.8245614035088,0.6096905291605961,0.5734108558990536,-10.653483,0.0022119999999999918,0.032822000000000406,0.024618,-0.0078365283414545,0.018744836166419,-1.6856041373509616
330.8270676691729,0.6096901275603352,0.5734108471724074,-10.639564,-0.0045559999999999976,0.013562999999999499,-0.025117,-0.0051138147083433,0.0268780704807127,-1.6693726974804617
331.8295739348371,0.6096897257855414,0.5734108468233415,-10.592435,-0.023328999999999996,0.0320080000000002,-0.027578,-0.0107163216072451,0.0339292006587699,-1.6612745617374254
332.83208020050125,0.6096893292467352,0.573410850488533,-10.509761,-0.0182160000000001,0.02223,0.028983999999999996,-0.0086219265048519,0.0359363292985632,-1.6589006172487406
