Time [s],Longitude [rad],Latitude [rad],Altitude [m],V North [m/s],V East [m/s],V Down [m/s],Roll [rad],Pitch [rad],Yaw [rad]
1.0025062656641603,0.6090306063823159,0.5733699958214024,-15.031984,-0.03268699999999991,-0.017806999999999906,-0.017759,0.0580671042138513,0.0032463124087094,2.282925603100208
2.0050125313283207,0.6090309229850422,0.5733698113401005,-15.020419,-0.026087000000000193,-0.011970999999999954,-0.0029289999999999993,0.0550127780228612,0.0028972465583105,2.3008502741445302
3.007518796992481,0.6090312367952417,0.5733696228445412,-15.012469,-0.028209999999999846,-0.019116000000000133,0.009333,0.0524471440224295,0.0012740903539558,2.319839142246962
4.010025062656641,0.6090315472893156,0.5733694294620602,-15.013378,-0.0364850000000001,-0.030559000000000003,0.003983,0.0546113522949025,0.0007155849933178,2.3397710466508337
5.012531328320802,0.6090318506275397,0.5733692296218608,-15.010372,-0.03932000000000002,-0.036414999999999864,-0.011936,0.0547335253425421,0.0017627825445143,2.3596502072047087
6.015037593984962,0.6090321473335125,0.5733690248947395,-14.995537,-0.032235000000000014,-0.02834100000000017,-0.007609000000000001,0.06154030942532,0.0003665191429189,2.3792153830261498
7.017543859649122,0.609032437930833,0.5733688140589658,-14.980003,-0.03035499999999991,-0.026602999999999932,0.008234000000000002,0.0608247244320023,-0.002426007660272,2.3999150752212657
8.020050125313283,0.6090327241648302,0.573368598859869,-14.97738,-0.029709999999999903,-0.026284999999999892,0.015171,0.0551524043630208,-0.0043458698374658,2.4193055435845823
9.022556390977442,0.6090330065591033,0.5733683798210479,-14.987798,-0.030513000000000012,-0.03426499999999999,0.006502,0.0539655804716646,-0.0037524578917877,2.4378933524782
10.025062656641603,0.6090332814484605,0.5733681544990414,-14.998187,-0.02907700000000002,-0.03671000000000002,-0.005235,0.0576831317784126,-0.0013613568165555,2.4562191001846294
11.027568922305765,0.6090335490074348,0.5733679262099753,-14.999371,-0.025058000000000025,-0.03263500000000019,-0.009013,0.0590444885949681,-0.0006108652381979,2.474318199434396
12.030075187969924,0.6090338104577567,0.5733676947793165,-14.99556,-0.024417000000000133,-0.028891,0.00041600000000000014,0.0585208898193698,-0.0015184364492351,2.4914575072219054
13.032581453634084,0.6090340668466239,0.5733674582872029,-14.993573,-0.028985999999999956,-0.030269999999999797,0.002065,0.0534943415736261,-0.0038397243543875,2.5096263847351663
14.035087719298245,0.6090343178249703,0.5733672167336343,-14.991753,-0.028197000000000028,-0.03201300000000007,-0.005487,0.0508588944031147,-0.0044680428851053,2.5271494555186043
15.037593984962406,0.6090345632182631,0.573366972736605,-14.984133,-0.01991799999999988,-0.026766999999999985,-0.0058390000000000004,0.0503352956275164,-0.0037000980142278,2.543956941308725
16.040100250626566,0.6090348032010353,0.57336672542345,-14.972924,-0.020550000000000068,-0.025514999999999954,0.001269000000000001,0.0509985207432743,-0.0037350045992678,2.562824107602416
17.042606516290725,0.6090350374242209,0.5733664739215047,-14.967067,-0.022110999999999992,-0.029869000000000145,0.009713,0.0525693170700692,-0.0044156830075456,2.5828604001488484
18.045112781954884,0.6090352672840833,0.5733662203251645,-14.973227,-0.019055000000000044,-0.04130100000000003,0.012443,0.0523598775598299,-0.0046251225177849,2.6026000041757342
19.047619047619047,0.6090354880682337,0.5733659635872315,-14.992296,-0.020024000000000042,-0.054463999999999846,0.010858000000000001,0.0549255115602615,-0.0049043751981039,2.621850933465354
20.050125313283207,0.6090356978568098,0.5733657028350412,-15.010488,-0.025219999999999798,-0.054632000000000014,-0.01359,0.056932640200055,-0.0031590459461097,2.640700524293478
21.052631578947366,0.6090358978715422,0.5733654375449949,-15.00728,-0.027809000000000195,-0.037058000000000035,-0.024575,0.0573166126354937,-0.0027576202181509,2.658659822670159
22.05513784461153,0.6090360924757537,0.5733651671934937,-14.98033,-0.02036099999999985,-0.012798000000000087,-0.019542,0.0500560429471973,-0.0036477381366681,2.675328013732678
23.05764411027569,0.609036285334636,0.5733648945730646,-14.947333,-0.012863000000000069,-0.008024999999999949,0.008382,0.0464257581030491,-0.0076969020012949,2.692013239208696
24.06015037593985,0.6090364774953867,0.5733646210799709,-14.937602,-0.009783000000000097,-0.025971999999999884,0.03246,0.0430223660616602,-0.0101229096615671,2.7115608395645703
25.062656641604008,0.6090366640710837,0.5733643460160807,-14.960608,-0.015059999999999851,-0.055222000000000104,0.027552999999999998,0.0440521103203368,-0.0097389372261282,2.732661870221182
26.065162907268167,0.6090368373822785,0.5733640686832625,-14.999724,-0.018159999999999954,-0.0716,0.002156000000000005,0.047385689191646,-0.0065449846949787,2.7524539562986745
27.06766917293233,0.6090369967308391,0.5733637873361871,-15.024611,-0.016207000000000082,-0.055393000000000026,-0.025792000000000002,0.0556236432610592,-0.0023561944901921,2.7705879446801887
28.07017543859649,0.6090371463055562,0.5733635037201836,-15.021322,-0.014396000000000075,-0.024687000000000014,-0.024898,0.0502305758723968,-0.0010297442586766,2.786644938891951
29.07268170426065,0.6090372929132133,0.5733632183588511,-15.000422,-0.01492799999999983,-0.01383599999999996,-0.008968999999999998,0.0426034870411815,-0.0028099800957108,2.802946418825333
30.07518796992481,0.6090374377755411,0.5733629309031232,-14.979829,-0.006720000000000059,-0.018032999999999966,0.008575,0.0427431133813411,-0.0051487212933831,2.819823665425656
31.07769423558897,0.609037580718007,0.5733626436219283,-14.976529,-0.005731000000000153,-0.037109999999999976,0.023582,0.0435983247148183,-0.0075049157835755,2.838620791656465
32.08020050125313,0.6090377151083592,0.5733623549444701,-14.996542,-0.014989999999999837,-0.058150000000000035,0.017164,0.0467922772459679,-0.0067195176201781,2.8585875851920823
33.08270676691729,0.6090378371068741,0.573362063299952,-15.016864,-0.014614000000000127,-0.05745600000000006,-0.015673,0.0497942435593982,-0.0030368728984699,2.8781524992141363
34.08521303258145,0.609037949157012,0.5733617699101048,-15.016158,-0.003630000000000022,-0.0346209999999999,-0.020662,0.0466351976132884,-0.0011868238913561,2.895204453272584
35.08771929824561,0.6090380559711622,0.5733614756475929,-15.002531,-0.0003130000000000077,-0.020790000000000086,0.0002509999999999995,0.0448375084837343,-0.0031241393610697,2.912134164470221
36.09022556390977,0.6090381577238576,0.5733611817341467,-15.000869,-0.0064670000000000005,-0.03365600000000002,0.01952,0.0412072236395861,-0.0052359877559828,2.930826623305788
37.092731829573935,0.6090382514480384,0.573360887122569,-15.01688,-0.008272999999999975,-0.049935999999999925,0.011372,0.0400727596257897,-0.0043982297150255,2.94944930387786
38.095238095238095,0.6090383378418365,0.5733605921619256,-15.036191,-0.0034520000000000106,-0.051722000000000046,-0.005963999999999999,0.0411897703470661,-0.0013613568165555,2.9666757035950435
39.097744360902254,0.6090384135891259,0.5733602961540843,-15.043929,-0.001498999999999917,-0.04215799999999997,-0.015666,0.0456578132321716,0.0020245819323134,2.982348934810878
40.100250626566414,0.6090384823550984,0.5733599987499799,-15.033247,-0.0032609999999999584,-0.02846599999999999,-0.016132999999999998,0.0467224640758882,0.0026354471705114,2.9980043287617573
41.10275689223057,0.6090385455360173,0.5733597004732107,-15.012148,-0.0026060000000001082,-0.02253900000000003,-0.004179000000000002,0.0388510291493937,0.001535889741755,3.0146197934275727
42.10526315789473,0.6090386052262777,0.5733594030691062,-14.997652,-0.0022560000000000358,-0.02821399999999996,0.015177,0.0378038315981971,-0.0011868238913561,3.0319508430867064
43.10776942355889,0.6090386602041493,0.573359104792337,-15.004164,0.0012570000000000636,-0.03870300000000004,0.022385000000000002,0.0414341164423453,-0.0021991148575128,3.0494217110722177
44.11027568922306,0.6090387076771049,0.5733588066901008,-15.026598,0.006118000000000068,-0.047691999999999984,0.009329999999999998,0.0405614518163482,-0.0001745329251994,3.0668052253286664
45.11278195488722,0.609038744678085,0.5733585110313254,-15.050299,0.009619000000000044,-0.04628399999999999,-0.004739999999999998,0.0432318055718995,0.0031241393610699,3.0832814127201726
46.11528822055138,0.609038772777886,0.5733582164197477,-15.064054,0.0027759999999998897,-0.046030000000000015,-0.013079,0.0460417856676104,0.006457718232379,3.0992159022717383
47.11779448621554,0.6090387925001065,0.5733579219827029,-15.05583,-0.0017399999999998528,-0.03559799999999999,-0.031901,0.044924774946334,0.0095469510084089,3.113894173640888
48.1203007518797,0.6090388069863394,0.5733576268475263,-15.018169,0.0036049999999998583,-0.01505999999999999,-0.020418999999999996,0.0396015207277513,0.0071383966406568,3.1279442137457827
49.122807017543856,0.6090388199017758,0.5733573329340803,-14.979611,0.00560700000000014,-0.008261000000000004,0.017782999999999997,0.0383797902513553,0.0013089969389958,-3.140021927076168
50.125313283208015,0.6090388307228172,0.5733570393697002,-14.974154,0.002989999999999826,-0.032711000000000004,0.040694,0.0350113047950062,-0.0021118483949131,-3.120526512064929
51.127819548872175,0.6090388347370744,0.5733567473761163,-15.002182,0.005295999999999967,-0.059301999999999994,0.020314999999999996,0.0380481776934763,-0.0001221730476395,-3.0998268373231066
52.130325814536334,0.609038826359494,0.5733564557315983,-15.028143,0.014351000000000003,-0.061001,-0.021425999999999997,0.0406312649864279,0.0056374134839416,-3.08192000354374
53.1328320802005,0.6090388073354052,0.5733561670541399,-15.023611,0.01669300000000007,-0.034805,-0.02893,0.0386066830541145,0.0077667151713747,-3.06732906845036
54.13533834586466,0.6090387811554664,0.573355880122011,-14.999362,0.007553000000000143,-0.01863100000000001,-0.007999,0.0420624349730633,0.0059690260418205,-3.0530870246744537
55.13784461152882,0.6090387530556655,0.5733555947606783,-14.978013,0.0012259999999999494,-0.02257199999999998,0.011966000000000001,0.0370533400198396,0.0017627825445143,-3.0380422865222627
56.14035087719298,0.609038721290673,0.5733553100974773,-14.971979,0.006294000000000022,-0.03623800000000002,0.013666,0.0342259066316087,-0.0007504915783576,-3.022229498779439
57.14285714285714,0.6090386813226333,0.5733550257833422,-14.974561,0.013773999999999953,-0.03648699999999999,0.0029570000000000004,0.0350287580875262,-0.0011868238913561,-3.0073245964069173
58.1453634085213,0.6090386362931386,0.573354743738135,-14.977333,0.0121389999999999,-0.026999999999999996,-0.0026750000000000003,0.0350462113800461,-0.0018500490071138,-2.9929605715695886
59.14786967418546,0.6090385855040572,0.5733544634382571,-14.976932,0.009036999999999962,-0.021046999999999982,-0.0016549999999999998,0.0324805773796144,-0.0018500490071138,-2.978805864069452
60.15037593984962,0.6090385313988506,0.5733541852327743,-14.974681,0.00940300000000005,-0.025321000000000038,-0.000496,0.0360585023462028,-0.0015882496193146,-2.962521959601638
61.15288220551378,0.6090384715340571,0.5733539075508904,-14.978398,0.014582000000000095,-0.03701199999999999,0.011031,0.0369660735572398,-0.0014486232791552,-2.9452431127404317
62.15538847117794,0.6090384053860785,0.5733536335341979,-14.993147,0.019994000000000067,-0.046348,0.008804000000000001,0.0359188760060432,-0.0005235987755982,-2.928313401542794
63.1578947368421,0.609038329289723,0.5733533628336308,-15.007009,0.019780999999999826,-0.041783000000000015,-0.013793,0.0383274303737954,0.0025656340004316,-2.913582927375717
64.16040100250626,0.6090382458629848,0.5733530947510577,-14.997587,0.01389600000000013,-0.019618999999999998,-0.026584,0.0375769387954379,0.0032114058236696,-2.9009467610445703
65.16290726817043,0.6090381599927855,0.5733528298100773,-14.96892,0.0071309999999999985,-0.0039859999999999896,-0.007530000000000002,0.0333183354205717,-5.23598775596934e-05,-2.8880661089918043
66.16541353383458,0.6090380735989877,0.5733525641709651,-14.95074,0.0034919999999998286,-0.015625999999999973,0.026962,0.0291819050933451,-0.0047996554429843,-2.873056259971361
67.16791979949875,0.6090379838890642,0.5733522992299847,-14.961367,0.012437000000000031,-0.038825,0.021912,0.0280648943720688,-0.0050265482457436,-2.856091938894656
68.1704260651629,0.6090378864996918,0.5733520367324652,-14.981762,0.028615000000000057,-0.04498800000000003,-0.0032179999999999986,0.0319220720189762,-0.0019024088846737,-2.83947619497616
69.17293233082707,0.6090377812563379,0.5733517794709335,-14.989488,0.030715000000000048,-0.024143000000000026,-0.01618,0.0343480796792484,0.0,-2.825216837534074
70.17543859649122,0.609037671475128,0.5733515274453894,-14.989313,0.015430000000000055,-0.014425999999999939,0.00152,0.0327074701823737,-0.0011170107212763,-2.8120570898806214
71.17794486215539,0.6090375589013912,0.5733512780378393,-14.995277,0.005846000000000018,-0.025741000000000014,0.008237,0.0336150413934107,-0.0017802358370342,-2.796925015452661
72.18045112781954,0.609037440568068,0.5733510286302892,-15.002972,0.010558999999999985,-0.036197000000000035,-0.008065,0.0346971455296472,0.0002967059728391,-2.78163607083153
73.1829573934837,0.6090373171732899,0.5733507793972721,-14.994215,0.01976599999999995,-0.016634999999999955,-0.021935,0.0301069295969021,0.0010995574287564,-2.77023880901662
74.18546365914787,0.6090371915095837,0.5733505301642549,-14.978161,0.005506999999999929,-0.011751999999999985,0.027686,-0.0095644043009289,-0.007347836150896,-2.690843851156567
75.18796992481202,0.609037048392585,0.5733502990826619,-14.985567,0.21102599999999994,-0.17783300000000002,-0.012487,0.0365297412442413,0.0137357412131955,-2.466342306552169
76.19047619047619,0.6090368852043,0.573350102733121,-14.985934,0.326357,-0.24332699999999996,0.006459,0.0973893722612836,0.0080459678516939,-2.201209427148173
77.19298245614034,0.6090366937416811,0.5733499618850504,-14.980705,0.33877400000000013,-0.185017,-0.01619,0.1208291441155674,-0.003665191429188,-1.964350550013928
78.19548872180451,0.609036458471298,0.5733498807272401,-14.965029,0.31534899999999993,-0.09632400000000008,0.0012250000000000004,0.1410051502686219,-0.0117809724509616,-1.760844827618831
79.19799498746866,0.6090361944029821,0.5733498526274392,-14.955139,0.28751000000000004,-0.050866999999999996,0.019445999999999998,0.1300793891511373,-0.0163188285061468,-1.574147655664699
80.20050125313283,0.6090359219570859,0.5733498678118037,-14.963557,0.27035,-0.027017999999999986,0.00043099999999999996,0.1044928623169005,-0.0099309234438476,-1.3910974015424853
81.203007518797,0.6090356495111895,0.5733499226151422,-14.964013,0.268517,0.030977000000000032,-0.010232999999999999,0.0972846525061639,-0.0049916416607036,-1.1991287592886766
82.20551378446115,0.6090353884099335,0.5733500170374547,-14.954226,0.26481099999999996,0.09881499999999988,-0.0044989999999999995,0.0992219679758776,-0.0037350045992678,-1.0025347501709885
83.20802005012531,0.6090351501724905,0.5733501486352804,-14.955606,0.252124,0.140069,0.022643,0.0999550062617152,-0.0087964594300513,-0.8092744595509488
84.21052631578947,0.6090349384640523,0.5733503177576849,-14.984254,0.21287900000000004,0.14817500000000017,0.017874,0.1072330292425316,-0.0061784655520598,-0.625945127281342
85.21303258145363,0.6090347574734088,0.5733505196922793,-15.012027,0.18302700000000005,0.16702899999999987,-0.010754000000000003,0.082780966422091,-0.0021118483949131,-0.4436107374051261
86.21553884711778,0.6090346106912187,0.5733507472832138,-15.015059,0.1375979999999999,0.21481300000000003,-0.029557,0.1023810139219873,0.0029496064358705,-0.2581343534495943
87.21804511278195,0.6090345056223977,0.5733509937237042,-14.991899,0.10040899999999997,0.26232300000000003,-0.014516999999999999,0.0846833753067648,-0.0026179938779913,-0.066688751466023
88.22055137844612,0.6090344513426581,0.5733512546504274,-14.978536,0.11029,0.286508,0.017640999999999997,0.0389732021970333,-0.0039269908169872,0.0949110047234516
89.22305764411027,0.6090344462812032,0.5733515337285747,-14.987113,0.11676799999999998,0.208565,0.01978,0.0711570736038088,0.0013264502315157,0.1761909879888275
90.22556390977444,0.6090344831076505,0.5733518342742719,-14.997791,0.11371700000000007,0.122097,-0.011087,0.0034208453339088,0.0091280719879303,0.2002067184962695
91.2280701754386,0.6090345482084315,0.5733521566365848,-14.994107,0.1107229999999999,0.07139199999999998,-0.017563,0.0042586033748661,0.0158999494856684,0.1984264826592353
92.23057644110276,0.609034621861326,0.5733524896454061,-14.970752,0.0224359999999999,0.029049000000000047,-0.018509000000000005,-0.0103672557568463,0.0206996049286527,0.1901710752973022
93.23308270676692,0.6090346935943582,0.5733528252722212,-14.935671,0.008341000000000154,0.013153999999999999,-0.006079000000000001,-0.0175754655675828,0.0216071761396898,0.1837133570649231
94.23558897243107,0.6090347634075283,0.5733531567102462,-14.89899,0.00018999999999991246,0.0025259999999999727,-3.9999999999970615e-06,-0.0091280719879303,0.0190415421392582,0.1801179788058148
95.23809523809524,0.6090348285083094,0.5733534834358822,-14.863251,-0.05973899999999999,8.299999999999974e-05,0.0038750000000000034,-0.0205076187109333,0.0164060949687467,0.1761735346963076
96.2406015037594,0.6090348866277735,0.5733537836325134,-14.82804,-0.23597199999999985,-0.06703100000000001,-0.0013850000000000043,-0.072919856148323,0.0179943445880617,0.0784001899995853
97.24310776942356,0.6090349201380951,0.5733540571256073,-14.802001,-0.07075900000000002,-0.17113,0.011511,0.0293215314335047,0.014782938764392,-0.1019623094344342
98.24561403508773,0.6090349450963034,0.5733543091511513,-14.785659,0.0011140000000000594,-0.252121,0.009380000000000001,0.079098321700383,0.0181339709282211,-0.3118556227325648
99.24812030075188,0.6090349131567782,0.5733545625729587,-14.753945,-0.05636900000000011,-0.274206,-0.026906,0.0253072741539177,0.0209963109014919,-0.5256930834342298
100.25062656641605,0.609034827112046,0.573354813551305,-14.705444,-0.12942399999999998,-0.23881799999999997,-0.002035999999999996,0.0039095375244672,0.005532693728822,-0.7343996950140518
101.2531328320802,0.609034691674496,0.5733550414913053,-14.677965,-0.18086199999999986,-0.22576399999999996,0.029866999999999998,-0.0213628300444105,-0.0095818575934487,-0.9365091191009686
102.25563909774436,0.6090345124291819,0.5733552374917803,-14.684317,-0.21311600000000008,-0.21494800000000014,0.022781,-0.0004712388980384,-0.0134739418253961,-1.133207533814511
103.25814536340852,0.6090342946120912,0.5733553978875386,-14.684748,-0.22707100000000002,-0.16485299999999992,-0.016549,-0.0113271868454431,-0.0107686814848049,-1.3290681206739263
104.26065162907268,0.6090340504405288,0.5733555202351193,-14.659601,-0.255691,-0.08527299999999993,-0.019857,0.0051138147083433,-0.013491395117916,-1.5245100554056663
105.26315789473684,0.609033795796991,0.5733556031382586,-14.645322,-0.279966,-0.027986999999999984,0.024761000000000002,0.0235968514869633,-0.0178721715404219,-1.723355504351843
106.265664160401,0.6090335404553214,0.5733556413609693,-14.660561,-0.283083,0.0003799999999998249,0.0201,0.0132645023151569,-0.0166329877715059,-1.924469706792688
107.26817042606515,0.6090332922695018,0.5733556364740474,-14.674423,-0.28010100000000004,0.056699000000000055,-0.013049000000000002,0.0322013246992953,-0.0132645023151567,-2.125392167361907
108.27067669172932,0.609033058569915,0.573355588128427,-14.671499,-0.29242799999999997,0.10707700000000009,0.0015009999999999997,-0.0008726646259971,-0.0179419847105015,-2.315476080916365
109.27318295739347,0.6090328418000219,0.5733554902154561,-14.686975,-0.286995,0.07863699999999985,0.03153,-0.0163711883837068,-0.0272794962086713,-2.4272644020533094
110.27568922305764,0.6090326323605116,0.5733553540797744,-14.737137,-0.18788499999999997,-0.008813999999999877,0.020339999999999997,0.0485376064979623,-0.0292342649709049,-2.4518211497222846
111.2781954887218,0.6090324203030075,0.5733551788487175,-14.788016,-0.12120699999999995,-0.06892000000000009,-0.009981999999999998,0.0387986692718339,-0.0308748744677795,-2.43682861436802
112.28070175438596,0.6090321960281986,0.5733549910512901,-14.827151,-0.017006999999999994,-0.02455099999999999,-0.012200999999999997,0.0046425758103049,-0.0327598300599334,-2.413389069406539
113.28320802005013,0.6090319598851508,0.5733548083153174,-14.854643,-0.0018770000000001286,0.007009999999999961,-0.010315000000000005,0.0080285145591739,-0.0327249234748936,-2.400438656543572
114.28571428571428,0.6090317274072945,0.5733546318625299,-14.881861,-0.007325999999999944,0.025144000000000055,0.012942000000000002,0.0076270888312152,-0.0339466539512895,-2.3981872167150837
115.28822055137844,0.6090314994672942,0.5733544594239998,-14.938151,0.0016289999999998805,0.0013259999999999383,0.034882,-0.0012740903539558,-0.0329343629851328,-2.4001595434895924
116.2907268170426,0.6090312697819645,0.5733542897779966,-15.018694,0.014985000000000026,-0.024356999999999962,0.003588999999999995,-0.0003316125578789,-0.0248709418409192,-2.4031614748964376
117.29323308270676,0.6090310366059766,0.5733541225754542,-15.074862,0.01593100000000014,-0.007703000000000015,-0.044515,-0.007068583470577,-0.0141895268187137,-2.405918903128371
118.29573934837092,0.6090308023827908,0.5733539579909057,-15.082431,0.0009349999999999081,0.026250000000000107,-0.041925000000000004,-0.0058992128717408,-0.0086219265048519,-2.4090952627406605
119.29824561403508,0.6090305739191919,0.5733537927082255,-15.064931,-0.008081000000000005,0.034580000000000055,-0.007792999999999998,-0.0010122909661567,-0.008883725892651,-2.4105788973246103
120.30075187969923,0.6090303536586402,0.5733536260292821,-15.059927,-0.0011239999999999029,0.020212999999999814,0.028644999999999997,-0.0022689280275926,-0.0120776784238008,-2.410456671917094
121.3032581453634,0.6090301363651484,0.5733534600484701,-15.092065,0.010540999999999912,-0.008962999999999832,0.036638000000000004,0.0020594885173533,-0.0117984257434815,-2.409758644936051
122.30576441102755,0.609029915406465,0.5733532949403228,-15.141959,0.014469999999999983,-0.02422600000000008,-0.006315000000000001,-0.0041713369122664,-0.0041887902047863,-2.4090779490744807
123.30827067669172,0.6090296899099257,0.5733531327992355,-15.158047,0.01366299999999998,0.0008360000000000589,-0.053324,-0.0055676003138619,0.0051836278784231,-2.4099682415259225
124.31077694235589,0.609029465286051,0.5733529727525429,-15.122059,0.0066910000000000025,0.031142000000000003,-0.039840999999999994,-0.0043807764225057,0.0070511301780571,-2.4124987769550974
125.31328320802004,0.609029248167092,0.5733528132294494,-15.072729,-0.005650999999999851,0.03475600000000001,0.015268999999999998,-0.001221730476396,0.0014486232791552,-2.4148897558572817
126.3157894736842,0.6090290378549172,0.573352653008224,-15.060925,-0.01020500000000002,0.0045800000000000285,0.047826,0.0010297442586766,-0.0040317105721068,-2.4156229337694595
127.31829573934836,0.6090288270191435,0.5733524912162025,-15.085353,0.00579099999999988,-0.017676000000000025,0.012322999999999999,-0.0021118483949131,-0.0014311699866353,-2.4155182663742174
128.32080200501252,0.6090286128672443,0.5733523297732466,-15.095118,0.022612000000000076,-0.002012000000000125,-0.034751,-0.0043284165449459,0.0036477381366681,-2.415936918501893
129.32330827067668,0.609028398889878,0.5733521767078711,-15.070399,0.06287799999999999,0.06301600000000018,-0.02556,0.0303687289847013,0.0045902159327451,-2.484266698343811
130.32581453634086,0.6090282076017919,0.5733520222462324,-15.03897,-0.10767799999999994,0.16671799999999992,0.018727,0.1083674932563279,0.000925024503557,-2.676584493714482
131.328320802005,0.6090280451116387,0.5733518574871509,-15.020288,-0.178334,0.23956199999999994,0.0015970000000000012,0.0799884396189001,0.0122696646415201,-2.8845579273821262
132.33082706766916,0.6090279257311179,0.5733516672462624,-14.984983,-0.12926700000000002,0.25567500000000004,-0.020547000000000003,0.0336499479784506,0.0116064395257624,-3.0638904033047885
133.33333333333331,0.6090278697060488,0.5733514485565072,-14.942895,-0.08841500000000013,0.283987,0.0022050000000000056,0.0406836248639878,0.0022863813201126,3.0601555906917377
134.3358395989975,0.6090278718004439,0.5733512129370582,-14.9131,-0.057008999999999865,0.276308,0.015718999999999997,0.0322536845768552,-0.0043807764225056,2.921523931126196
135.33834586466165,0.6090279260801836,0.5733509712089568,-14.90675,-0.011159000000000141,0.24286999999999997,0.024879,0.0374373124552783,-0.0092502450355698,2.799193768947328
136.3408521303258,0.6090280225968913,0.573350735065909,-14.916914,0.07944600000000013,0.18370200000000003,0.008187,0.0157777764380287,-0.0126361837844388,2.698401109364411
137.34335839598998,0.6090281477369985,0.5733505121873635,-14.928957,0.07891899999999996,0.14473499999999995,-0.005363,0.0108559479474047,-0.0139451807234345,2.621868508930922
138.34586466165413,0.6090282962645179,0.5733503064130447,-14.930021,0.07162200000000007,0.11777800000000005,-0.0117,0.0229859862487653,-0.0153414441250301,2.5647788589113576
139.34837092731829,0.609028463990659,0.5733501123324319,-14.925156,0.06315199999999987,0.09317200000000003,0.002284,0.0199491133502951,-0.0164759081388263,2.523728627637988
140.35087719298244,0.6090286458539671,0.5733499268039325,-14.931687,0.05549800000000005,0.061033000000000004,0.019896999999999998,0.0203156324932139,-0.0164933614313462,2.494616553168016
141.35338345864662,0.609028835222191,0.5733497493039474,-14.959875,0.044103,0.02897599999999989,0.018439,0.028605946440187,-0.0141546202336739,2.475400513010143
142.35588972431077,0.6090290263357441,0.5733495773890162,-14.997324,0.031187000000000076,0.012330000000000174,-0.003609000000000001,0.0328820031075731,-0.0111701072127636,2.4629560885506203
143.35839598997492,0.6090292176238301,0.5733494100119408,-15.021357,0.01747399999999999,0.014612999999999987,-0.021162,0.0323409510394549,-0.0089360857702109,2.4554688878589523
144.36090225563908,0.6090294110063112,0.5733492429839315,-15.019314,0.006096999999999797,0.02498099999999992,-0.025661,0.0302465559370617,-0.0077667151713747,2.451210214670916
145.36340852130326,0.6090296096247801,0.5733490756068563,-14.999239,-0.00012799999999990597,0.027330000000000076,-0.008206,0.0226892802759262,-0.0083601271170528,2.449831491828303
146.3659147869674,0.6090298143519013,0.5733489073571164,-14.982904,0.005184999999999995,0.016608999999999874,0.013574,0.019373154697137,-0.0100356431989674,2.449796340897168
147.36842105263156,0.6090300211734176,0.5733487408527057,-14.988319,0.012737999999999916,-0.0010989999999999611,0.024506,0.0189717289691783,-0.011676252695842,2.4514195494614004
148.37092731829574,0.6090302255514731,0.573348576791756,-15.016088,0.012642000000000042,-0.014977999999999936,0.016488999999999997,0.022759093446006,-0.0108035880698449,2.454072589550772
149.3734335839599,0.6090304260898042,0.5733484141270697,-15.051203,0.0010110000000000952,-0.017559000000000102,-0.001568,0.0315730061685774,-0.0081681408993334,2.457301396307084
150.37593984962405,0.6090306219157463,0.573348250240653,-15.074291,-0.010487000000000135,-0.010089000000000015,-0.019005999999999995,0.0350287580875261,-0.0043982297150255,2.4600588419923097
151.3784461152882,0.6090308165199578,0.5733480842598411,-15.07334,-0.01222399999999979,0.005101000000000022,-0.022455,0.0299847565492625,-0.0020245819323134,2.4618916296931217
152.38095238095238,0.6090310128694987,0.5733479160101012,-15.052644,-0.010572000000000026,0.011419000000000068,-0.014816000000000001,0.0247836753783194,-0.0022514747350725,2.4756971840763966
153.38345864661653,0.6090312113134346,0.5733477454914333,-15.026306,-0.01148400000000005,-0.004637000000000002,0.002450000000000001,0.0275412955964705,-0.0030368728984699,2.5096263847351663
154.38596491228068,0.6090314104555024,0.5733475730529032,-15.011755,-0.023635000000000073,-0.03656199999999998,0.016714,0.0269129770657525,-0.0044505895925854,2.562213172551048
155.3884711779449,0.6090316012199896,0.5733473969491816,-15.018614,-0.04598900000000006,-0.07357100000000005,0.020673,0.0358490628359635,-0.0053581608036226,2.6306473579888205
156.39097744360902,0.6090317740075855,0.5733472121188139,-15.040242,-0.07609299999999997,-0.102186,0.009488,0.047682395164485,-0.0055850536063817,2.710496380707071
157.39348370927317,0.6090319246295001,0.5733470145475426,-15.063406,-0.08695900000000001,-0.11811899999999997,-0.004983999999999999,0.05537929716578,-0.0048520153205442,2.7960698739323533
158.39598997493732,0.6090320515149366,0.5733468017919068,-15.074085,-0.07358200000000004,-0.12498799999999999,-0.017707,0.0516268392739922,-0.0032114058236694,2.885517736297675
159.3984962406015,0.6090321520459016,0.5733465769934991,-15.068042,-0.048235999999999946,-0.12834900000000005,-0.009961000000000001,0.0563392282543769,-0.0037699111843076,2.9784394147397038
160.40100250626566,0.6090322281422569,0.5733463452137744,-15.059615,-0.036175999999999986,-0.14248,0.006752,0.0580321976288114,-0.0066147978650583,3.075723892712942
161.4035087719298,0.6090322766624101,0.5733461090707267,-15.064117,-0.032133999999999885,-0.165994,0.012372999999999999,0.058154370676451,-0.007958701389094,-3.106930275018846
162.406015037594,0.6090322934175708,0.5733458697860861,-15.081097,-0.019532000000000105,-0.17957299999999998,0.007182000000000001,0.0567930138598954,-0.0062657320146595,-3.0062422828311703
163.40852130325814,0.6090322742189491,0.5733456284070505,-15.0991,0.0036920000000000286,-0.17686900000000003,-0.003106000000000001,0.0551174977779809,-0.002460914245312,-2.9078230441381625
164.4110275689223,0.6090322215100057,0.5733453899950749,-15.111312,0.03509999999999991,-0.162974,-0.004567,0.0529009296279481,0.0008726646259973,-2.8128949177347486
165.41353383458645,0.6090321387813992,0.5733451578662843,-15.124987,0.052078999999999986,-0.160694,0.005665000000000002,0.0515395728113925,0.0030019663134304,-2.721369799400289
166.41604010025063,0.6090320263821953,0.5733449363840022,-15.141735,0.062006000000000006,-0.15939199999999998,-0.0025190000000000004,0.0551524043630208,0.0063704517697793,-2.6349235891891323
167.41854636591478,0.6090318865813222,0.5733447264208932,-15.149457,0.07220800000000005,-0.13611099999999998,-0.014785000000000001,0.048607419668042,0.0102974425867665,-2.556121990914881
168.42105263157893,0.6090317221713067,0.573344528500556,-15.140631,0.08067100000000016,-0.11107100000000003,-0.013649,0.042760566673861,0.0127059969545186,-2.4843540520728737
169.4235588972431,0.6090315383881365,0.573344344193787,-15.119608,0.07940399999999981,-0.08902900000000002,-0.011382,0.0406661715714678,0.0131772358525572,-2.4186948877858945
170.42606516290726,0.609031341165931,0.5733441719297898,-15.091737,0.07387300000000008,-0.06814699999999996,-0.0014850000000000002,0.0382401639111957,0.0125489173218393,-2.3594757789992644
171.42857142857142,0.6090311338208159,0.5733440113594986,-15.072596,0.07274199999999997,-0.06568799999999997,0.018999000000000002,0.0339466539512897,0.010506882097006,-2.3055973602704443
172.43107769423557,0.6090309132111984,0.5733438619593146,-15.077564,0.07144400000000006,-0.07929699999999995,0.01823,0.0317126325087369,0.0116238928182823,-2.2578628670277867
173.43358395989975,0.6090306800352103,0.573343723380172,-15.0808,0.07237300000000002,-0.058031000000000166,-0.020041999999999997,0.028605946440187,0.0170344134994646,-2.2180518020700406
174.4360902255639,0.6090304369108456,0.5733435959711366,-15.057763,0.06413999999999997,-0.022311999999999887,-0.023235,0.0300196631343024,0.0189891822616983,-2.1861468691843204
175.43859649122803,0.6090301894231576,0.5733434785104781,-15.021129,0.049699999999999966,-0.019035000000000135,-0.003914000000000001,0.0339641072438096,0.016004669240788,-2.159530964610549
176.44110275689223,0.6090299408882721,0.5733433680311364,-14.984213,0.03522000000000003,-0.021884999999999932,7.499999999999868e-05,0.0288502925354662,0.0123394778115999,-2.1380810600897564
177.4436090225564,0.6090296911316562,0.5733432617405848,-14.946496,0.02763799999999994,-0.011989999999999945,-0.0001789999999999986,0.0282219740047483,0.0088139127225714,-2.121098884294804
178.44611528822054,0.6090294377098489,0.5733431582425603,-14.917095,0.02779100000000001,-0.010947999999999958,0.018206,0.03077015471266,0.0028274333882307,-2.1058443052066456
179.4486215538847,0.6090291818445804,0.5733430589333258,-14.910115,0.030055000000000054,-0.022664000000000017,0.021446,0.0283790536374277,-0.0017453292519942,-2.092929305074201
180.45112781954887,0.6090289223141208,0.5733429648600792,-14.915112,0.030054999999999943,-0.02353000000000005,0.00016299999999999995,0.0254294472015573,-0.0020245819323134,-2.082422056458052
181.45363408521305,0.6090286587694036,0.5733428756737543,-14.909483,0.021206000000000058,-0.006416999999999895,-0.017714,0.0235444916094035,-0.0012740903539558,-2.075807310952871
182.4561403508772,0.6090283943520219,0.5733427882327587,-14.890089,0.008380999999999972,0.008194999999999952,-0.004284,0.0213977366294504,-0.0038746309394273,-2.0710948347060243
183.45864661654133,0.6090281320290354,0.573342701315362,-14.876261,0.0031440000000000357,0.0011680000000000579,0.013225999999999998,0.026145032194875,-0.0088662726001311,-2.066766400707785
184.4611528822055,0.6090278704041804,0.57334261527063,-14.871539,0.013743999999999978,-0.007297000000000109,0.00024600000000000056,0.0236143047794832,-0.0109781209950443,-2.0610592438669344
185.4636591478697,0.6090276080811938,0.5733425318438916,-14.864232,0.01962799999999998,-0.001614999999999922,-0.00166,0.0238586508747624,-0.0130725160974374,-2.0558586339348888
186.46616541353384,0.6090273448855427,0.5733424503370157,-14.865592,0.00852200000000003,-0.006020000000000136,0.019627,0.0241902634326414,-0.016894787159305,-2.051599698947464
187.468671679198,0.6090270790718976,0.5733423710990676,-14.889564,0.010047999999999946,-0.021585999999999883,0.019074,0.0176801853227025,-0.0173136661797836,-2.046345821566649
188.47117794486212,0.6090268090694624,0.5733422932573831,-14.914772,0.019333000000000045,-0.016226000000000074,-0.01793,0.0143116998663535,-0.0128630765871982,-2.041023230573181
189.4736842105263,0.6090265381943624,0.5733422178591593,-14.910464,0.015073000000000003,0.01775799999999994,-0.03009,0.0186924762888592,-0.0112399203828434,-2.037549920641958
190.47619047619045,0.6090262713335197,0.5733421445553307,-14.895964,-0.0012690000000000201,0.02155499999999999,0.013779000000000001,0.0206472450510929,-0.0159348560707082,-2.033745067966026
191.47869674185463,0.6090260076142698,0.5733420710769692,-14.911988,0.00020599999999998397,-0.012279999999999847,0.037388,0.0228114533235658,-0.0187797427514588,-2.0262224370905426
192.4812030075188,0.609025741277026,0.5733419986458053,-14.952392,0.020143999999999995,-0.028028000000000164,0.005080000000000001,0.0213628300444105,-0.0145385926691126,-2.016675800241398
193.4837092731829,0.6090254700528602,0.5733419283090364,-14.976597,0.025769000000000042,-0.007755999999999874,-0.032471,0.020909044438892,-0.0076619954162551,-2.0077571503104146
194.48621553884712,0.6090251963852336,0.5733418623355906,-14.969893,0.012687999999999977,0.012095999999999885,-0.020838,0.0220086018676484,-0.0066497044500983,-2.0002520949004987
195.48872180451127,0.6090249251610677,0.573341798805606,-14.959326,0.005167000000000033,0.0007510000000001682,0.010768,0.0227241868609661,-0.0102101761241668,-1.990931827255339
196.49122807017545,0.6090246537623691,0.5733417361482857,-14.965289,0.013385999999999953,-0.014073000000000002,0.014672,0.0193033415270572,-0.0113446401379631,-1.9788368177120657
197.4937343358396,0.6090243809674071,0.5733416743636303,-14.976966,0.022799000000000014,-0.00510300000000008,-0.002831,0.0210661240715715,-0.0090408055253305,-1.9654677527214224
198.49624060150376,0.609024107823379,0.5733416172913637,-14.984947,0.021894999999999998,0.005467000000000111,0.0006969999999999997,0.0215897228471698,-0.0079412480965741,-1.9518888118882256
199.4987468671679,0.6090238345048181,0.5733415638842886,-15.001505,0.020267000000000035,-0.007867000000000068,0.013670000000000002,0.025534166956677,-0.0083950337020926,-1.937699494509023
200.5012531328321,0.6090235599645268,0.5733415137933391,-15.025873,0.020731,-0.019192000000000098,-0.0034500000000000017,0.0212057504117311,-0.0049741883681837,-1.9232135060635644
201.50375939849624,0.609023281933577,0.5733414668439821,-15.031295,0.023103999999999958,-0.005682999999999883,-0.030397,0.0190066355542182,0.0,-1.9081509306464175
202.5062656641604,0.6090230028554297,0.5733414239088827,-15.008049,0.025287000000000004,0.01300699999999999,-0.018552,0.0243298897728009,-0.0002268928027591,-1.8930015425522773
203.50877192982452,0.609022726395276,0.5733413849880403,-14.985167,0.021248000000000017,0.006507999999999958,0.019968,0.0305083553248608,-0.005811946409141,-1.8776425578682645
204.5112781954887,0.609022451331386,0.5733413488597248,-14.99321,0.018562999999999996,-0.013857000000000008,0.031913,0.0259006860995958,-0.0085346600422522,-1.8609922040707016
205.51378446115288,0.609022173649502,0.5733413162220676,-15.023263,0.024158999999999986,-0.018998999999999988,0.006731000000000001,0.0201236462754946,-0.0050789081233033,-1.843643578946
206.51629072681703,0.6090218909061632,0.5733412879477338,-15.045138,0.031147000000000008,-0.006361999999999979,-0.018996,0.0208217779762923,0.000593411945678,-1.826085880830203
207.5187969924812,0.6090216085118901,0.5733412645603219,-15.042137,0.02868000000000001,0.009806999999999899,-0.024966000000000002,0.0251327412287183,0.003717551306748,-1.8097495292183652
208.5213032581453,0.6090213283865452,0.5733412451871671,-15.021601,0.017491999999999994,0.012313000000000018,-0.0069749999999999986,0.0265639112153537,0.0023212879051526,-1.7942856153397235
209.52380952380952,0.6090210503555954,0.5733412284320063,-15.006926,0.016803,-0.0039359999999999395,0.016073999999999998,0.0259879525621955,-0.0016580627893945,-1.7779497873266614
210.52631578947367,0.6090207716265139,0.5733412144693723,-15.008389,0.027847999999999998,-0.013673999999999964,0.011575,0.0233175988066442,-0.0026354471705114,-1.760583307483712
211.52882205513785,0.6090204911521031,0.5733412045209956,-15.014697,0.030629000000000003,-0.003775000000000084,-0.0009300000000000003,0.0206996049286527,-0.0011170107212763,-1.7433047224218945
212.531328320802,0.6090202084087641,0.5733411994595407,-15.020802,0.022592,0.0035320000000000906,0.001437,0.0227067335684462,-5.23598775596934e-05,-1.7256767224438256
213.53383458646616,0.6090199260144913,0.5733411984123432,-15.028449,0.018201000000000002,-0.0011609999999999676,-0.00022399999999999937,0.022148228207808,0.0006108652381979,-1.7080492635178262
214.5363408521303,0.6090196434456853,0.5733411999831395,-15.030293,0.026528,9.599999999987396e-05,-0.011077,0.0236666646570431,0.0024260076602722,-1.6898454794195248
215.5388471177945,0.60901936209861,0.5733412067899236,-15.018519,0.031401,0.007633000000000001,-0.012427,0.0283441470523879,0.00307177948351,-1.6716763401068755
216.54135338345864,0.609019081973265,0.573341217436432,-15.000999,0.027755000000000002,0.00750099999999998,0.0039310000000000005,0.0255516202491969,0.0009773843811169,-1.6544323649241248
217.5438596491228,0.6090188046404469,0.5733412327953294,-14.995403,0.021905999999999995,-0.0012559999999999238,0.017599,0.0244869694054804,-0.0017627825445141,-1.6380960133122884
218.54636591478692,0.6090185255622994,0.5733412509467537,-15.008586,0.019899000000000014,-0.008612999999999982,0.013395,0.0223227611330074,-0.001815142422074,-1.6212887893215555
219.54887218045116,0.6090182445642899,0.5733412727633693,-15.023545,0.025137999999999994,-0.002091000000000065,-0.009767,0.0206821516361328,0.001570796326795,-1.6035558776021497
220.55137844611528,0.6090179649625437,0.5733412984197093,-15.02289,0.027624999999999983,0.011301999999999923,-0.015975,0.0214500965070103,0.003717551306748,-1.5860503822842795
221.55388471177943,0.6090176862334622,0.5733413284393725,-15.011901,0.02701400000000001,0.010528000000000093,-0.0032630000000000003,0.0243647963578408,0.0027052603405912,-1.5692426346947717
222.5563909774436,0.6090174097733086,0.5733413628223587,-15.002104,0.022148,0.002147000000000121,0.004084999999999999,0.0244869694054804,0.0007504915783576,-1.5537270590702692
223.55889724310777,0.6090171338367539,0.5733413996488059,-14.995863,0.020035999999999998,0.00023499999999998522,0.000699,0.0226369203983664,0.0003316125578789,-1.53833346450719
224.56140350877192,0.6090168587728638,0.5733414410131092,-14.988906,0.025472999999999996,0.009993999999999836,0.0009130000000000006,0.0240331837999619,0.0008726646259973,-1.5218745907818634
225.56390977443607,0.6090165852797701,0.573341485868071,-14.99287,0.027544999999999986,0.003503000000000034,0.021192,0.0260926723173152,-0.0008028514559172,-1.505503611837666
226.56641604010025,0.6090163107394787,0.5733415347372901,-15.016395,0.019255999999999995,-0.014048999999999978,0.008267,0.0178198116628621,0.0005585053606382,-1.4905286519489702
227.5689223057644,0.609016034628391,0.5733415867481018,-15.023907,0.01910500000000004,0.0023519999999999097,-0.038295,0.0116413461108021,0.0061086523819802,-1.4747510151372811
228.57142857142856,0.6090157597390339,0.5733416419005061,-14.989409,0.026085999999999998,0.03199700000000005,-0.031935,0.0246615023306798,0.0058817595792208,-1.4585366271335731
229.5739348370927,0.6090154906092632,0.5733417012417007,-14.95015,0.027559999999999973,0.020318999999999976,0.023417999999999998,0.0347495054072071,-0.0020420352248333,-1.4437363747030023
230.5764411027569,0.6090152251446839,0.5733417638990209,-14.949646,0.019886000000000015,-0.012308999999999903,0.041169,0.0237015712420829,-0.0071034900556168,-1.4302277531853689
231.57894736842104,0.609014956713045,0.5733418307451311,-14.973453,0.01774300000000001,-0.012785999999999964,0.002201999999999999,0.0120427718387608,-0.0037350045992678,-1.4160554876729576
232.5814536340852,0.6090146861870109,0.5733418995111037,-14.983235,0.01765899999999998,0.010931999999999942,-0.02246,0.0191637151868977,0.0001570796326795,-1.4005915737943149
233.58395989974937,0.6090144160100427,0.5733419719422677,-14.976499,0.023789000000000005,0.017603000000000035,-0.006132,0.0234746784393237,-0.0004188790204786,-1.384691973374496
234.58646616541355,0.6090141498473318,0.5733420475150244,-14.969205,0.021342000000000028,0.006268999999999858,0.0009840000000000005,0.0226543736908864,-0.0025481807079117,-1.3706768224013497
235.58897243107768,0.6090138857790159,0.5733421265784394,-14.957204,0.019946999999999937,0.007878000000000052,-0.010501,0.0241553568476015,-0.0032114058236694,-1.3562952046451608
236.59147869674183,0.6090136245032269,0.5733422096561117,-14.937422,0.025886000000000076,0.013822000000000001,-0.001167999999999999,0.0254992603716371,-0.005811946409141,-1.3409367610132166
237.593984962406,0.6090133644491684,0.5733422972716402,-14.925459,0.02469599999999994,0.009392999999999985,0.014528,0.0270176968208722,-0.009529497715889,-1.3266947172373096
238.59649122807016,0.6090131063149721,0.5733423882032942,-14.930552,0.017187000000000063,0.005294000000000132,0.017735,0.0219038821125288,-0.0118333323285215,-1.31351739411829
239.59899749373432,0.6090128488789074,0.5733424812293434,-14.950907,0.00893199999999994,0.00020599999999992846,0.009147,0.01844813019358,-0.0109083078249645,-1.3005323539229623
240.6015037593985,0.6090125914428426,0.5733425749535243,-14.971241,0.013792000000000026,0.002534999999999954,-0.008494,0.0176976386152225,-0.0081157810217735,-1.285836489634952
241.60401002506265,0.6090123347049098,0.5733426718192978,-14.974317,0.028475000000000028,0.01076800000000011,-0.022510000000000002,0.0216246294322097,-0.0055850536063817,-1.269517713488683
242.6065162907268,0.6090120802359047,0.5733427723502627,-14.953902,0.03012899999999996,0.01841999999999988,-0.020875,0.0263195651200744,-0.0058468529941808,-1.2543334188095028
243.60902255639093,0.6090118303047558,0.5733428793389458,-14.922924,0.01970800000000006,0.02175600000000011,0.0030629999999999998,0.0247662220857995,-0.0097214839336083,-1.2404929752944809
244.61152882205516,0.609011584911463,0.5733429887710899,-14.913248,0.012862999999999958,0.010959999999999859,0.035357,0.0223751210105673,-0.0153763507100699,-1.2276821015052086
245.6140350877193,0.6090113402163019,0.573343100472162,-14.943796,0.013979999999999992,-0.005946000000000007,0.035158,0.0186750229963393,-0.0160570291183477,-1.2139460635860406
246.61654135338344,0.609011092728614,0.5733432135694976,-14.988261,0.014604999999999979,-0.005341999999999958,-0.010087000000000006,0.0161966554585073,-0.0099832833214075,-1.1988666981014904
247.6190476190476,0.6090108443682615,0.5733433282376293,-15.001949,0.01679799999999998,0.016530000000000156,-0.042865,0.0188844625065786,-0.0042411500823462,-1.1821292698275452
248.62155388471177,0.6090106007202979,0.5733434465709527,-14.978702,0.028335,0.03075799999999984,-0.02111,0.0276460153515901,-0.0048345620280241,-1.164518845315044
249.62406015037595,0.609010364402717,0.5733435697911979,-14.956819,0.02695700000000001,0.0164740000000001,0.022572000000000002,0.0282743338823081,-0.0099658300288876,-1.1494741246161455
250.62656641604008,0.6090101303540644,0.5733436965021015,-14.963168,0.012799000000000005,-0.002047000000000132,0.023748,0.0185353966561797,-0.0118507856210414,-1.135755121110477
251.62907268170423,0.6090098959563459,0.5733438253074004,-14.982009,0.012962000000000029,0.003618000000000121,-0.0014590000000000002,0.014748032179352,-0.0086393797973718,-1.1202571209515435
252.6315789473684,0.6090096620822262,0.573343956905226,-14.991415,0.021040999999999976,0.01947399999999999,-0.011455,0.0234572251468037,-0.0056897733615015,-1.103292241369478
253.63408521303256,0.6090094310006332,0.5733440912955784,-14.992904,0.022295999999999982,0.021047999999999956,-0.00372,0.0265813645078736,-0.0054628805587422,-1.08660701589346
254.63659147869672,0.609009204980495,0.5733442279548588,-14.99399,0.015979999999999994,0.012947000000000042,0.001838,0.0232652389290844,-0.0061784655520598,-1.0719638780021532
255.6390977443609,0.6090089803566203,0.5733443677557319,-14.995123,0.011660000000000004,0.0045679999999999055,-0.002672,0.0204552588333735,-0.0061610122595399,-1.0575476678201894
256.64160401002505,0.6090087578271407,0.5733445101745989,-14.99063,0.01755300000000004,0.012166000000000121,-0.007457000000000001,0.0212406569967709,-0.0054454272662223,-1.040914627688806
257.64411027568923,0.6090085368684575,0.5733446555605256,-14.982938,0.02481599999999995,0.02067399999999986,0.004777,0.0258832328070759,-0.0066671577426182,-1.0232163258484672
258.6466165413533,0.6090083194004327,0.5733448042625778,-14.988199,0.02345200000000003,0.012115000000000098,0.015727,0.0234223185617639,-0.0080459678516937,-1.0073342834409245
259.64912280701753,0.6090081042013358,0.5733449568043545,-15.000723,0.011048999999999976,0.00827700000000009,-0.004226000000000001,0.0174183859349034,-0.0059515727493006,-0.9923417655399532
260.6516290726817,0.6090078924928976,0.5733451107423945,-15.002519,0.006601000000000079,0.02047599999999994,-0.012372000000000001,0.0201934594455743,-0.0038397243543875,-0.9758136546032
261.65413533834584,0.6090076834024531,0.5733452653785662,-14.999836,0.01341099999999995,0.017406000000000033,0.004343,0.0289026524130261,-0.0055152404363019,-0.9592855436664458
262.65664160401,0.6090074774536014,0.5733454224581989,-15.004773,0.02453800000000006,0.007191999999999865,0.006893000000000001,0.0241379035550815,-0.0064751715248989,-0.942617352603927
263.65914786967414,0.6090072722028813,0.5733455837266217,-15.008554,0.025253999999999888,0.012426000000000048,-0.008311,0.0201236462754946,-0.0045902159327451,-0.925634897556294
264.6616541353383,0.609007070093754,0.5733457504055653,-15.001483,0.017635999999999985,0.02569599999999994,-0.008598999999999999,0.019669860669976,-0.0031415926535898,-0.9084963926202408
265.6641604010025,0.609006871824351,0.5733459183062394,-14.996871,0.008230000000000182,0.02084700000000006,0.012665,0.0224274808881271,-0.0047298422729045,-0.8922468536853981
266.66666666666663,0.6090066773946723,0.5733460867305122,-15.00744,0.005703999999999931,0.002502999999999922,0.012111,0.0206472450510929,-0.0055850536063817,-0.8763824041967151
267.6691729323308,0.6090064831395265,0.5733462569001142,-15.017333,0.01349200000000006,0.005246000000000084,-0.012718,0.0174707458124632,-0.0033859387488688,-0.8585972722260912
268.671679197995,0.6090062895825125,0.5733464295131773,-15.00834,0.024818999999999924,0.02728900000000012,-0.018819999999999996,0.0225671072282866,-0.0023038346126325,-0.8388052036018901
269.6741854636591,0.6090061023086838,0.5733466057914317,-14.992429,0.02558299999999991,0.034499999999999864,0.006349999999999998,0.0285710398551471,-0.0046600291028247,-0.8203921021663974
270.6766917293233,0.6090059221907049,0.5733467864330093,-14.993543,0.015954000000000024,0.017632000000000092,0.023153,0.0226718269834063,-0.0070162235930171,-0.8045095361600798
271.6791979949875,0.6090057460869834,0.5733469696925808,-15.012502,0.007473999999999981,0.004774999999999974,0.008026000000000002,0.0145560459616327,-0.0052883476335428,-0.7886269876070532
272.6817042606516,0.609005569808729,0.5733471529521522,-15.027456,0.005380000000000162,0.01149699999999998,-0.014255,0.0181165176357011,-0.0014660765716751,-0.7707901938905686
273.6842105263158,0.6090053956248695,0.5733473370843882,-15.026309,0.011428999999999911,0.022719000000000045,-0.013318,0.0254294472015573,3.4906585040017646e-05,-0.7518359356672024
274.68671679198,0.6090052251062017,0.5733475231364865,-15.017003,0.019368000000000052,0.02182099999999998,-0.002589,0.0272794962086713,-0.0011868238913561,-0.7336316454234189
275.6892230576441,0.6090050598235215,0.5733477123301775,-15.008083,0.022194999999999965,0.019770999999999983,0.0013279999999999993,0.0218864288200088,-0.0021467549799529,-0.7160212209109188
276.69172932330827,0.6090048982060328,0.5733479060617245,-15.002882,0.018186999999999953,0.02312599999999998,0.00555,0.0212406569967709,-0.0019547687622336,-0.6985157255930476
277.6942355889724,0.6090047404282685,0.5733481022367324,-15.007839,0.010399999999999965,0.017615999999999965,0.013128,0.0205599785884932,-0.0023736477827123,-0.6819876146562945
278.69674185463657,0.6090045861411625,0.5733482999825367,-15.023202,0.004601999999999995,0.01101300000000005,0.0041849999999999995,0.0182735972683806,-0.0008028514559172,-0.6653716263917037
279.69924812030075,0.6090044330757872,0.573348497204742,-15.032792,0.00510900000000003,0.01710299999999998,-0.013005,0.0200189265203749,0.0017976891295541,-0.6472381616089653
280.7017543859649,0.609004284024669,0.5733486952996122,-15.027813,0.011225999999999958,0.028518000000000043,-0.010750000000000001,0.026145032194875,0.0026529004630313,-0.6284229188605209
281.70426065162906,0.6090041398604727,0.573348896536075,-15.02094,0.019380000000000175,0.022579999999999933,0.007000000000000001,0.028920105705546,0.0008901179185172,-0.6109877428582129
282.70676691729324,0.6090039993614681,0.5733491007395974,-15.02192,0.017807999999999824,0.00952300000000006,0.0038459999999999996,0.0189368223841384,0.0010646508437166,-0.5948777429970672
283.70927318295736,0.609003862004056,0.573349307212048,-15.017941,0.00978800000000013,0.014614000000000016,-0.012790000000000001,0.0142418866962737,0.0029321531433506,-0.5772673359378591
284.71177944862154,0.6090037277882364,0.5733495149062289,-15.001942,0.004666000000000059,0.029683999999999933,-0.007579000000000001,0.0215722695546499,0.0024783675378319,-0.558732253440944
285.7142857142857,0.6090035996810694,0.573349722425877,-14.991171,0.0091699999999999,0.032016000000000044,0.017150000000000002,0.0278729081543494,-0.0006283185307178,-0.5410344926526742
286.71679197994985,0.6090034761117583,0.5733499320399201,-15.003901,0.01231099999999996,0.015112000000000014,0.024954999999999998,0.0233001455141243,-0.0019547687622336,-0.5248904065112375
287.719298245614,0.6090033553349741,0.5733501435738255,-15.029767,0.007524000000000086,0.00036199999999997345,-0.0024530000000000003,0.0161792021659874,0.0008203047484374,-0.5085716303649674
288.7218045112781,0.609003234209124,0.5733503575511918,-15.035313,0.004202000000000039,0.010453000000000046,-0.034131999999999996,0.018133970928221,0.0049043751981041,-0.4897041848185958
289.72431077694233,0.609003115177669,0.5733505713540252,-15.0045,0.011366999999999905,0.035134,-0.029482,0.0266511776779534,0.0049916416607038,-0.469371483005298
290.7268170426065,0.6090030026039323,0.5733507869021879,-14.963316,0.017784000000000022,0.04411799999999999,0.010072000000000005,0.0294437044811443,3.4906585040017646e-05,-0.450574374227782
291.72932330827064,0.609002900327638,0.5733510054174101,-14.950592,0.012513999999999914,0.02674299999999996,0.038742,0.0233175988066442,-0.0048171087355042,-0.4350231066200758
292.7318295739348,0.6090028027637329,0.5733512258524947,-14.972772,0.0017610000000001236,0.003094999999999959,0.022636999999999997,0.0168424272817452,-0.0046251225177849,-0.4202052787239368
293.734335839599,0.609002704501696,0.5733514468111779,-14.998657,-0.0011780000000001234,0.0025500000000000522,-0.013058,0.0155159770502295,-0.0014311699866353,-0.4031887373960129
294.7368421052631,0.6090026057160604,0.5733516674207954,-15.001756,0.007889000000000035,0.019724999999999993,-0.024127999999999997,0.0230383461263251,0.000628318530718,-0.3840773646333828
295.7393483709273,0.609002510595616,0.5733518890776104,-14.984801,0.012772999999999923,0.027849999999999986,-0.013283000000000001,0.0254992603716371,0.0003665191429189,-0.3647385580159252
296.7418546365915,0.6090024196639621,0.5733521133524193,-14.960125,0.010463000000000111,0.02863199999999999,-0.0028119999999999985,0.0231430658814448,-0.0014486232791552,-0.346133714708808
297.7443609022556,0.6090023369353555,0.5733523393725575,-14.938181,0.005317999999999934,0.030413000000000023,0.007945999999999998,0.0221831347928479,-0.004607669225265,-0.3281568408665596
298.7468671679198,0.6090022608390001,0.5733525660908273,-14.931205,0.005877000000000132,0.026588999999999974,0.020013000000000003,0.0230034395412852,-0.0086742863824118,-0.3112271296689209
299.749373433584,0.609002188756902,0.5733527933326958,-14.946429,0.006799999999999917,0.01267700000000005,0.018952999999999998,0.0188670092140587,-0.0100181899064473,-0.2952572099335405
300.7518796992481,0.6090021177220014,0.573353021621762,-14.970001,0.003770000000000051,0.004377999999999993,-0.0037659999999999985,0.0151669111998307,-0.0073303828583761,-0.2782577204724082
301.7543859649123,0.6090020473852326,0.5733532507834929,-14.975613,0.0013209999999999056,0.017520999999999953,-0.027401000000000002,0.0185353966561797,-0.0042935099599059,-0.2589194374537265
302.7568922305764,0.6090019814117869,0.5733534797706907,-14.955273,0.0067150000000000265,0.03739400000000004,-0.018297,0.0283266937598679,-0.0050963614158234,-0.2388306803099784
303.7593984962406,0.6090019215469935,0.5733537106777508,-14.93127,0.016164999999999985,0.03440399999999999,0.010343999999999999,0.028605946440187,-0.0087964594300513,-0.2209065503177252
304.7619047619048,0.6090018684889843,0.5733539440282717,-14.92529,0.012226999999999988,0.016683999999999977,0.020277,0.0214151899219704,-0.0116937059883619,-0.2047097377795846
305.7644110275689,0.6090018196197652,0.5733541796477207,-14.935552,0.005854999999999944,0.01270300000000002,0.008853,0.0182735972683806,-0.0121300383013605,-0.1873608334022034
306.76691729323306,0.6090017714486778,0.5733544159653015,-14.94957,0.008050000000000113,0.01924300000000001,0.0006479999999999993,0.0257959663444761,-0.0120427718387607,-0.1693317742153202
307.76942355889724,0.6090017264191832,0.5733546533300797,-14.961593,0.013180999999999887,0.021202,-0.0032359999999999993,0.0253072741539177,-0.0114668131856026,-0.1509357246466199
308.77192982456137,0.6090016852294128,0.573354893138319,-14.966424,0.013586000000000098,0.016934000000000005,-0.011111000000000001,0.0225845605208066,-0.0100705497840072,-0.1325407397287626
309.77443609022555,0.6090016480538998,0.5733551353900191,-14.958019,0.010772999999999922,0.021398,-0.013245999999999999,0.0238062909972026,-0.0094596845458092,-0.1128354663282629
310.77694235588973,0.6090016155907756,0.5733553793870486,-14.942326,0.00774700000000017,0.03271099999999999,5.10000000000007e-05,0.0275238423039505,-0.010751228192285,-0.0929038411770728
311.77944862155385,0.6090015888872381,0.5733556239076768,-14.935168,0.0059589999999998255,0.03365,0.014887999999999998,0.0287630260728665,-0.0130376095123976,-0.0734606289637611
312.78195488721803,0.6090015696886163,0.5733558691264367,-14.945598,0.007585000000000175,0.023555999999999994,0.016437,0.025848326222036,-0.0146433124242324,-0.0556062772350023
313.7844611528822,0.6090015536315873,0.57335611574146,-14.964819,0.011520999999999892,0.01456700000000001,0.0001339999999999987,0.023055799418845,-0.0143291531588733,-0.0377865353853102
314.78696741854634,0.6090015408906837,0.5733563635782137,-14.976321,0.013001999999999958,0.015387999999999999,-0.012449,0.0249582083035189,-0.012601277199399,-0.019041594499136
315.7894736842105,0.6090015300696423,0.573356615080159,-14.974117,0.01241800000000004,0.023043999999999995,-0.01184,0.0254643537865972,-0.0112573736753633,0.0010471975511965
316.79197994987464,0.6090015236119242,0.5733568674547689,-14.964498,0.005624999999999991,0.029615,-0.0031210000000000005,0.0246615023306798,-0.0110479341651239,0.0214675497995302
317.7944862155388,0.6090015239609899,0.5733571210511091,-14.958439,-0.0018559999999998578,0.035491,0.010171000000000001,0.0310319541004591,-0.0127932634171183,0.0423416876533824
318.796992481203,0.6090015314659057,0.5733573744729166,-14.967453,0.0005549999999998612,0.030647999999999998,0.01839,0.0327249234748936,-0.0146607657167523,0.0616973890579995
319.7994987468672,0.6090015436832105,0.5733576275456581,-14.991165,0.009565000000000046,0.018039000000000006,0.007336000000000002,0.0289899188756258,-0.0143116998663535,0.0805120383944984
320.8020050125313,0.6090015590421078,0.5733578827127946,-15.008071,0.013449000000000044,0.016561999999999993,-0.019984000000000002,0.0262322986574747,-0.0115540796482023,0.1006705912550329
321.8045112781955,0.6090015791133944,0.5733581392761947,-14.998731,0.00815100000000002,0.03489400000000001,-0.025801,0.0311017672705389,-0.0101927228316467,0.1222254075171629
322.8070175438596,0.6090016045952014,0.573358397584924,-14.976484,0.004027000000000003,0.04647399999999999,0.0032130000000000006,0.0347844119922469,-0.0120427718387607,0.1432217184186546
323.8095238095238,0.6090016395017863,0.5733586567663179,-14.97282,0.0029009999999998204,0.030541000000000013,0.029409,0.0307352481276201,-0.0145211393765927,0.1611637031291564
324.812030075188,0.6090016785971616,0.573358915598646,-14.997595,0.0006390000000000562,0.0063620000000000065,0.019378,0.0214500965070103,-0.0136833813356354,0.179419847105017
325.8145363408521,0.6090017176925369,0.5733591740819083,-15.024353,-0.0005929999999998437,0.007661999999999974,-0.016391,0.0262322986574747,-0.0107861347773248,0.2000321855710701
326.8170426065163,0.6090017588823072,0.5733594318670387,-15.023436,0.0013439999999997898,0.03859600000000002,-0.031366000000000005,0.0362504885639222,-0.0092327917430499,0.222826185602116
327.8195488721804,0.6090018091477897,0.573359690350301,-15.000475,0.005309000000000008,0.059962000000000015,-0.006043,0.0382925237887555,-0.0111177473352037,0.2442064863923391
328.8220551378446,0.609001871630577,0.5733599511024912,-14.990047,0.007365000000000066,0.039966,0.027485000000000002,0.0321838714067754,-0.0137706477982351,0.2624102530373474
329.8245614035088,0.6090019409201481,0.5733602127273462,-15.009885,0.0073030000000000594,0.0046119999999999495,0.024592000000000003,0.0199665666428151,-0.0133692220702765,0.2799507945665979
330.8270676691729,0.6090020089879891,0.5733604750503327,-15.039308,0.001474999999999893,-0.003228999999999982,-0.007676000000000002,0.0192684349420174,-0.0095120444233689,0.3001791605972121
331.8295739348371,0.6090020751359677,0.5733607373733193,-15.046836,-0.007008999999999821,0.026534000000000002,-0.030033999999999998,0.0325678438422141,-0.006422811647339,0.3240901888028271
