Time [s],Longitude [rad],Latitude [rad],Altitude [m],V North [m/s],V East [m/s],V Down [m/s],Roll [rad],Pitch [rad],Yaw [rad]
2.0050125313283207,0.6090309229850422,0.5733698113401005,-15.020419,0.006599999999999797,0.005835999999999999,0.0148300000000001,0.0550127780228612,0.0028972465583105,2.3008502741445302
3.007518796992481,0.6090312367952417,0.5733696228445412,-15.012469,-0.0021229999999997015,-0.0071450000000002015,0.0122619999999999,0.0524471440224295,0.0012740903539558,2.319839142246962
4.010025062656641,0.6090315472893156,0.5733694294620602,-15.013378,-0.0082750000000003,-0.011442999999999898,-0.005349999999999999,0.0546113522949025,0.0007155849933178,2.3397710466508337
5.012531328320802,0.6090318506275397,0.5733692296218608,-15.010372,-0.0028349999999999,-0.005855999999999802,-0.015919000000000003,0.0547335253425421,0.0017627825445143,2.3596502072047087
6.015037593984962,0.6090321473335125,0.5733690248947395,-14.995537,0.007085000000000001,0.008073999999999703,0.004327,0.06154030942532,0.0003665191429189,2.3792153830261498
7.017543859649122,0.609032437930833,0.5733688140589658,-14.980003,0.0018800000000001003,0.0017380000000001977,0.015843,0.0608247244320023,-0.002426007660272,2.3999150752212657
8.020050125313283,0.6090327241648302,0.573368598859869,-14.97738,0.0006449999999999997,0.00031800000000009945,0.0069370000000000005,0.0551524043630208,-0.0043458698374658,2.4193055435845823
9.022556390977442,0.6090330065591033,0.5733683798210479,-14.987798,-0.0008030000000000988,-0.007980000000000098,-0.008669,0.0539655804716646,-0.0037524578917877,2.4378933524782
10.025062656641603,0.6090332814484605,0.5733681544990414,-14.998187,0.0014359999999999998,-0.0024450000000001,-0.011737000000000001,0.0576831317784126,-0.0013613568165555,2.4562191001846294
11.027568922305765,0.6090335490074348,0.5733679262099753,-14.999371,0.004018999999999998,0.004074999999999898,-0.003778,0.0590444885949681,-0.0006108652381979,2.474318199434396
12.030075187969924,0.6090338104577567,0.5733676947793165,-14.99556,0.0006409999999999021,0.0037440000000001014,0.009429,0.0585208898193698,-0.0015184364492351,2.4914575072219054
13.032581453634084,0.6090340668466239,0.5733674582872029,-14.993573,-0.004568999999999802,-0.0013789999999997,0.001649,0.0534943415736261,-0.0038397243543875,2.5096263847351663
14.035087719298245,0.6090343178249703,0.5733672167336343,-14.991753,0.0007889999999999009,-0.0017430000000002999,-0.007552,0.0508588944031147,-0.0044680428851053,2.5271494555186043
15.037593984962406,0.6090345632182631,0.573366972736605,-14.984133,0.0082790000000002,0.005246000000000101,-0.0003519999999999999,0.0503352956275164,-0.0037000980142278,2.543956941308725
16.040100250626566,0.6090348032010353,0.57336672542345,-14.972924,-0.0006320000000001984,0.0012519999999999996,0.007108,0.0509985207432743,-0.0037350045992678,2.562824107602416
17.042606516290725,0.6090350374242209,0.5733664739215047,-14.967067,-0.0015609999999999027,-0.0043540000000002015,0.008444,0.0525693170700692,-0.0044156830075456,2.5828604001488484
18.045112781954884,0.6090352672840833,0.5733662203251645,-14.973227,0.0030559999999999025,-0.011431999999999897,0.00273,0.0523598775598299,-0.0046251225177849,2.6026000041757342
19.047619047619047,0.6090354880682337,0.5733659635872315,-14.992296,-0.0009690000000000011,-0.0131629999999998,-0.0015849999999999996,0.0549255115602615,-0.0049043751981039,2.621850933465354
20.050125313283207,0.6090356978568098,0.5733657028350412,-15.010488,-0.005195999999999701,-0.0001680000000002027,-0.024447999999999998,0.056932640200055,-0.0031590459461097,2.640700524293478
21.052631578947366,0.6090358978715422,0.5733654375449949,-15.00728,-0.0025890000000004,0.017574,-0.010985,0.0573166126354937,-0.0027576202181509,2.658659822670159
22.05513784461153,0.6090360924757537,0.5733651671934937,-14.98033,0.007448000000000302,0.02426,0.005032999999999999,0.0500560429471973,-0.0036477381366681,2.675328013732678
23.05764411027569,0.609036285334636,0.5733648945730646,-14.947333,0.0074979999999998,0.0047730000000001,0.027924,0.0464257581030491,-0.0076969020012949,2.692013239208696
24.06015037593985,0.6090364774953867,0.5733646210799709,-14.937602,0.0030799999999999994,-0.0179469999999999,0.024078000000000002,0.0430223660616602,-0.0101229096615671,2.7115608395645703
25.062656641604008,0.6090366640710837,0.5733643460160807,-14.960608,-0.005276999999999799,-0.029250000000000297,-0.004907000000000102,0.0440521103203368,-0.0097389372261282,2.732661870221182
26.065162907268167,0.6090368373822785,0.5733640686832625,-14.999724,-0.003100000000000099,-0.0163779999999999,-0.0253969999999999,0.047385689191646,-0.0065449846949787,2.7524539562986745
27.06766917293233,0.6090369967308391,0.5733637873361871,-15.024611,0.0019529999999998993,0.016207,-0.027948,0.0556236432610592,-0.0023561944901921,2.7705879446801887
28.07017543859649,0.6090371463055562,0.5733635037201836,-15.021322,0.0018109999999999984,0.030705999999999997,0.000893999999999999,0.0502305758723968,-0.0010297442586766,2.786644938891951
29.07268170426065,0.6090372929132133,0.5733632183588511,-15.000422,-0.0005319999999998,0.0108510000000001,0.0159290000000001,0.0426034870411815,-0.0028099800957108,2.802946418825333
30.07518796992481,0.6090374377755411,0.5733629309031232,-14.979829,0.0082079999999998,-0.004196999999999999,0.0175439999999999,0.0427431133813411,-0.0051487212933831,2.819823665425656
31.07769423558897,0.609037580718007,0.5733626436219283,-14.976529,0.0009889999999999005,-0.019077,0.015007,0.0435983247148183,-0.0075049157835755,2.838620791656465
32.08020050125313,0.6090377151083592,0.5733623549444701,-14.996542,-0.009258999999999701,-0.0210400000000001,-0.006418,0.0467922772459679,-0.0067195176201781,2.8585875851920823
33.08270676691729,0.6090378371068741,0.573362063299952,-15.016864,0.0003759999999997012,0.0006940000000000002,-0.032837,0.0497942435593982,-0.0030368728984699,2.8781524992141363
34.08521303258145,0.609037949157012,0.5733617699101048,-15.016158,0.0109840000000001,0.0228350000000001,-0.004989,0.0466351976132884,-0.0011868238913561,2.895204453272584
35.08771929824561,0.6090380559711622,0.5733614756475929,-15.002531,0.003317,0.013830999999999902,0.0209129999999999,0.0448375084837343,-0.0031241393610697,2.912134164470221
36.09022556390977,0.6090381577238576,0.5733611817341467,-15.000869,-0.006154,-0.012865999999999999,0.0192690000000001,0.0412072236395861,-0.0052359877559828,2.930826623305788
37.092731829573935,0.6090382514480384,0.573360887122569,-15.01688,-0.0018059999999999006,-0.0162799999999999,-0.008147999999999999,0.0400727596257897,-0.0043982297150255,2.94944930387786
38.095238095238095,0.6090383378418365,0.5733605921619256,-15.036191,0.0048209999999999,-0.0017860000000001,-0.0173359999999999,0.0411897703470661,-0.0013613568165555,2.9666757035950435
39.097744360902254,0.6090384135891259,0.5733602961540843,-15.043929,0.0019530000000001003,0.0095640000000001,-0.0097020000000001,0.0456578132321716,0.0020245819323134,2.982348934810878
40.100250626566414,0.6090384823550984,0.5733599987499799,-15.033247,-0.001762,0.013691999999999996,-0.0004669999999999015,0.0467224640758882,0.0026354471705114,2.9980043287617573
41.10275689223057,0.6090385455360173,0.5733597004732107,-15.012148,0.0006549999999997998,0.005926999999999901,0.0119539999999999,0.0388510291493937,0.001535889741755,3.0146197934275727
42.10526315789473,0.6090386052262777,0.5733594030691062,-14.997652,0.0003500000000000998,-0.005674999999999899,0.019355999999999998,0.0378038315981971,-0.0011868238913561,3.0319508430867064
43.10776942355889,0.6090386602041493,0.573359104792337,-15.004164,0.0035130000000000005,-0.010489000000000102,0.007207999999999999,0.0414341164423453,-0.0021991148575128,3.0494217110722177
44.11027568922306,0.6090387076771049,0.5733588066901008,-15.026598,0.004861,-0.0089889999999999,-0.0130550000000001,0.0405614518163482,-0.0001745329251994,3.0668052253286664
45.11278195488722,0.609038744678085,0.5733585110313254,-15.050299,0.0035010000000000006,0.0014079999999999995,-0.014069999999999798,0.0432318055718995,0.0031241393610699,3.0832814127201726
46.11528822055138,0.609038772777886,0.5733582164197477,-15.064054,-0.006843000000000201,0.00025399999999990014,-0.0083390000000001,0.0460417856676104,0.006457718232379,3.0992159022717383
47.11779448621554,0.6090387925001065,0.5733579219827029,-15.05583,-0.0045159999999996,0.010432000000000101,-0.018822,0.044924774946334,0.0095469510084089,3.113894173640888
48.1203007518797,0.6090388069863394,0.5733576268475263,-15.018169,0.0053449999999996,0.020538,0.0114820000000001,0.0396015207277513,0.0071383966406568,3.1279442137457827
49.122807017543856,0.6090388199017758,0.5733573329340803,-14.979611,0.0020020000000002995,0.006798999999999901,0.0382019999999998,0.0383797902513553,0.0013089969389958,-3.140021927076168
50.125313283208015,0.6090388307228172,0.5733570393697002,-14.974154,-0.0026170000000002996,-0.02445,0.0229110000000001,0.0350113047950062,-0.0021118483949131,-3.120526512064929
51.127819548872175,0.6090388347370744,0.5733567473761163,-15.002182,0.0023060000000000996,-0.026590999999999906,-0.020379000000000102,0.0380481776934763,-0.0001221730476395,-3.0998268373231066
52.130325814536334,0.609038826359494,0.5733564557315983,-15.028143,0.0090550000000001,-0.0016990000000000963,-0.0417409999999998,0.0406312649864279,0.0056374134839416,-3.08192000354374
53.1328320802005,0.6090388073354052,0.5733561670541399,-15.023611,0.0023420000000000003,0.026195999999999997,-0.007504000000000101,0.0386066830541145,0.0077667151713747,-3.06732906845036
54.13533834586466,0.6090387811554664,0.573355880122011,-14.999362,-0.009139999999999898,0.016174,0.020931,0.0420624349730633,0.0059690260418205,-3.0530870246744537
55.13784461152882,0.6090387530556655,0.5733555947606783,-14.978013,-0.0063270000000002005,-0.0039409999999998994,0.019964999999999997,0.0370533400198396,0.0017627825445143,-3.0380422865222627
56.14035087719298,0.609038721290673,0.5733553100974773,-14.971979,0.0050680000000001,-0.013666000000000098,0.0017000000000000001,0.0342259066316087,-0.0007504915783576,-3.022229498779439
57.14285714285714,0.6090386813226333,0.5733550257833422,-14.974561,0.007479999999999899,-0.0002489999999999021,-0.010709,0.0350287580875262,-0.0011868238913561,-3.0073245964069173
58.1453634085213,0.6090386362931386,0.573354743738135,-14.977333,-0.0016349999999999993,0.009487000000000002,-0.005632,0.0350462113800461,-0.0018500490071138,-2.9929605715695886
59.14786967418546,0.6090385855040572,0.5733544634382571,-14.976932,-0.0031020000000000006,0.005953,0.0010200000000000998,0.0324805773796144,-0.0018500490071138,-2.978805864069452
60.15037593984962,0.6090385313988506,0.5733541852327743,-14.974681,0.0003660000000001006,-0.004274000000000101,0.0011589999999999001,0.0360585023462028,-0.0015882496193146,-2.962521959601638
61.15288220551378,0.6090384715340571,0.5733539075508904,-14.978398,0.005179,-0.0116909999999999,0.011526999999999999,0.0369660735572398,-0.0014486232791552,-2.945243112740432
62.15538847117794,0.6090384053860785,0.5733536335341979,-14.993147,0.005412000000000002,-0.009336000000000101,-0.002227,0.0359188760060432,-0.0005235987755982,-2.928313401542794
63.1578947368421,0.609038329289723,0.5733533628336308,-15.007009,-0.0002130000000002026,0.004565,-0.022597,0.0383274303737954,0.0025656340004316,-2.913582927375717
64.16040100250626,0.6090382458629848,0.5733530947510577,-14.997587,-0.0058849999999996995,0.0221640000000001,-0.012791,0.0375769387954379,0.0032114058236696,-2.9009467610445703
65.16290726817043,0.6090381599927855,0.5733528298100773,-14.96892,-0.0067650000000002,0.015633,0.019054,0.0333183354205717,-5.23598775596934e-05,-2.8880661089918043
66.16541353383458,0.6090380735989877,0.5733525641709651,-14.95074,-0.0036390000000000996,-0.011640000000000001,0.034492,0.0291819050933451,-0.0047996554429843,-2.873056259971361
67.16791979949875,0.6090379838890642,0.5733522992299847,-14.961367,0.0089450000000002,-0.023199000000000098,-0.005049999999999999,0.0280648943720688,-0.0050265482457436,-2.856091938894656
68.1704260651629,0.6090378864996918,0.5733520367324652,-14.981762,0.016178,-0.006163000000000002,-0.025129999999999902,0.0319220720189762,-0.0019024088846737,-2.83947619497616
69.17293233082707,0.6090377812563379,0.5733517794709335,-14.989488,0.0020999999999999977,0.020845,-0.0129620000000001,0.0343480796792484,0.0,-2.825216837534074
70.17543859649122,0.609037671475128,0.5733515274453894,-14.989313,-0.015285,0.0097170000000001,0.0177,0.0327074701823737,-0.0011170107212763,-2.8120570898806214
71.17794486215539,0.6090375589013912,0.5733512780378393,-14.995277,-0.009583999999999999,-0.0113150000000001,0.006716999999999999,0.0336150413934107,-0.0017802358370342,-2.796925015452661
72.18045112781954,0.609037440568068,0.5733510286302892,-15.002972,0.0047129999999999,-0.010456,-0.016301999999999997,0.0346971455296472,0.0002967059728391,-2.78163607083153
73.1829573934837,0.6090373171732899,0.5733507793972721,-14.994215,0.009207000000000002,0.0195620000000001,-0.01387,0.0301069295969021,0.0010995574287564,-2.77023880901662
74.18546365914787,0.6090371915095837,0.5733505301642549,-14.978161,-0.014259,0.004883,0.049621,-0.0095644043009289,-0.007347836150896,-2.690843851156567
75.18796992481202,0.609037048392585,0.5733502990826619,-14.985567,0.205519,-0.1660810000000001,-0.040173,0.0365297412442413,0.0137357412131955,-2.466342306552169
76.19047619047619,0.6090368852043,0.573350102733121,-14.985934,0.1153310000000001,-0.06549399999999991,0.018946,0.0973893722612836,0.0080459678516939,-2.201209427148173
77.19298245614034,0.6090366937416811,0.5733499618850504,-14.980705,0.012417000000000067,0.05830999999999992,-0.022649,0.1208291441155674,-0.003665191429188,-1.964350550013928
78.19548872180451,0.609036458471298,0.5733498807272401,-14.965029,-0.023425000000000196,0.08869299999999998,0.017415,0.1410051502686219,-0.0117809724509616,-1.760844827618831
79.19799498746866,0.6090361944029821,0.5733498526274392,-14.955139,-0.02783899999999989,0.04545700000000011,0.0182209999999999,0.1300793891511373,-0.0163188285061468,-1.574147655664699
80.20050125313283,0.6090359219570859,0.5733498678118037,-14.963557,-0.01716000000000001,0.023849,-0.019015,0.1044928623169005,-0.0099309234438476,-1.3910974015424853
81.203007518797,0.6090356495111895,0.5733499226151422,-14.964013,-0.0018329999999999735,0.0579949999999999,-0.0106639999999998,0.0972846525061639,-0.0049916416607036,-1.1991287592886766
82.20551378446115,0.6090353884099335,0.5733500170374547,-14.954226,-0.003706000000000098,0.0678379999999998,0.005734,0.0992219679758776,-0.0037350045992678,-1.0025347501709885
83.20802005012531,0.6090351501724905,0.5733501486352804,-14.955606,-0.012686999999999893,0.04125400000000019,0.0271419999999999,0.0999550062617152,-0.0087964594300513,-0.8092744595509488
84.21052631578947,0.6090349384640523,0.5733503177576849,-14.984254,-0.039245,0.008106000000000113,-0.004768999999999999,0.1072330292425316,-0.0061784655520598,-0.625945127281342
85.21303258145363,0.6090347574734088,0.5733505196922793,-15.012027,-0.029852000000000017,0.018853999999999677,-0.028628,0.082780966422091,-0.0021118483949131,-0.4436107374051261
86.21553884711778,0.6090346106912187,0.5733507472832138,-15.015059,-0.04542900000000011,0.047784000000000215,-0.018803,0.1023810139219873,0.0029496064358705,-0.2581343534495943
87.21804511278195,0.6090345056223977,0.5733509937237042,-14.991899,-0.037188999999999986,0.04750999999999997,0.0150400000000001,0.0846833753067648,-0.0026179938779913,-0.066688751466023
88.22055137844612,0.6090344513426581,0.5733512546504274,-14.978536,0.009881000000000098,0.024185000000000012,0.0321579999999998,0.0389732021970333,-0.0039269908169872,0.0949110047234516
89.22305764411027,0.6090344462812032,0.5733515337285747,-14.987113,0.0064779999999999005,-0.07794299999999998,0.002139000000000099,0.0711570736038088,0.0013264502315157,0.1761909879888275
90.22556390977444,0.6090344831076505,0.5733518342742719,-14.997791,-0.003050999999999901,-0.086468,-0.030867,0.0034208453339088,0.0091280719879303,0.2002067184962695
91.2280701754386,0.6090345482084315,0.5733521566365848,-14.994107,-0.002994000000000094,-0.0507050000000001,-0.006475999999999999,0.0042586033748661,0.0158999494856684,0.1984264826592353
92.23057644110276,0.609034621861326,0.5733524896454061,-14.970752,-0.088287,-0.0423429999999999,-0.0009460000000000024,-0.0103672557568463,0.0206996049286527,0.1901710752973022
93.23308270676692,0.6090346935943582,0.5733528252722212,-14.935671,-0.0140949999999998,-0.015895000000000097,0.01243,-0.0175754655675828,0.0216071761396898,0.1837133570649231
94.23558897243107,0.6090347634075283,0.5733531567102462,-14.89899,-0.0081510000000002,-0.010628,0.006075000000000003,-0.0091280719879303,0.0190415421392582,0.1801179788058148
95.23809523809524,0.6090348285083094,0.5733534834358822,-14.863251,-0.0599289999999998,-0.0024429999999999,0.003878999999999997,-0.0205076187109333,0.0164060949687467,0.1761735346963076
96.2406015037594,0.6090348866277735,0.5733537836325134,-14.82804,-0.1762329999999999,-0.067114,-0.00526,-0.072919856148323,0.0179943445880617,0.0784001899995853
97.24310776942356,0.6090349201380951,0.5733540571256073,-14.802001,0.16521299999999978,-0.10409900000000001,0.012896000000000001,0.0293215314335047,0.014782938764392,-0.1019623094344342
98.24561403508773,0.6090349450963034,0.5733543091511513,-14.785659,0.071873,-0.08099099999999998,-0.002131000000000001,0.079098321700383,0.0181339709282211,-0.3118556227325648
99.24812030075188,0.6090349131567782,0.5733545625729587,-14.753945,-0.057483000000000097,-0.02208500000000002,-0.036286,0.0253072741539177,0.0209963109014919,-0.5256930834342298
100.25062656641605,0.609034827112046,0.573354813551305,-14.705444,-0.0730549999999998,0.035388000000000114,0.0248700000000001,0.0039095375244672,0.005532693728822,-0.7343996950140518
101.2531328320802,0.609034691674496,0.5733550414913053,-14.677965,-0.0514379999999999,0.013053999999999982,0.0319029999999998,-0.0213628300444105,-0.0095818575934487,-0.9365091191009686
102.25563909774436,0.6090345124291819,0.5733552374917803,-14.684317,-0.0322540000000002,0.010815999999999798,-0.007085999999999901,-0.0004712388980384,-0.0134739418253961,-1.133207533814511
103.25814536340852,0.6090342946120912,0.5733553978875386,-14.684748,-0.013954999999999995,0.05009500000000022,-0.039330000000000004,-0.0113271868454431,-0.0107686814848049,-1.3290681206739263
104.26065162907268,0.6090340504405288,0.5733555202351193,-14.659601,-0.028620000000000007,0.07957999999999998,-0.0033079999999999984,0.0051138147083433,-0.013491395117916,-1.5245100554056663
105.26315789473684,0.609033795796991,0.5733556031382586,-14.645322,-0.02427499999999999,0.057286000000000004,0.044618,0.0235968514869633,-0.0178721715404219,-1.723355504351843
106.265664160401,0.6090335404553214,0.5733556413609693,-14.660561,-0.003116999999999981,0.0283669999999997,-0.0046609999999999985,0.0132645023151569,-0.0166329877715059,-1.924469706792688
107.26817042606515,0.6090332922695018,0.5733556364740474,-14.674423,0.0029819999999999847,0.0563190000000002,-0.033149,0.0322013246992953,-0.0132645023151567,-2.125392167361907
108.27067669172932,0.609033058569915,0.573355588128427,-14.671499,-0.012326999999999921,0.050378000000000006,0.0145499999999999,-0.0008726646259971,-0.0179419847105015,-2.315476080916365
109.27318295739347,0.6090328418000219,0.5733554902154561,-14.686975,0.00543299999999991,-0.0284400000000002,0.030029000000000104,-0.0163711883837068,-0.0272794962086713,-2.4272644020533094
110.27568922305764,0.6090326323605116,0.5733553540797744,-14.737137,0.09911000000000009,-0.0874509999999996,-0.011190000000000103,0.0485376064979623,-0.0292342649709049,-2.4518211497222846
111.2781954887218,0.6090324203030075,0.5733551788487175,-14.788016,0.06667800000000002,-0.060106000000000194,-0.0303219999999998,0.0387986692718339,-0.0308748744677795,-2.43682861436802
112.28070175438596,0.6090321960281986,0.5733549910512901,-14.827151,0.1042,0.044369000000000096,-0.0022189999999999988,0.0046425758103049,-0.0327598300599334,-2.413389069406539
113.28320802005013,0.6090319598851508,0.5733548083153174,-14.854643,0.0151299999999998,0.0315609999999998,0.0018859999999999,0.0080285145591739,-0.0327249234748936,-2.400438656543572
114.28571428571428,0.6090317274072945,0.5733546318625299,-14.881861,-0.0054489999999998,0.0181340000000001,0.023257,0.0076270888312152,-0.0339466539512895,-2.398187216715084
115.28822055137844,0.6090314994672942,0.5733544594239998,-14.938151,0.008954999999999701,-0.0238180000000001,0.02194,-0.0012740903539558,-0.0329343629851328,-2.4001595434895924
116.2907268170426,0.6090312697819645,0.5733542897779966,-15.018694,0.0133560000000002,-0.0256829999999998,-0.031293000000000105,-0.0003316125578789,-0.0248709418409192,-2.4031614748964376
117.29323308270676,0.6090310366059766,0.5733541225754542,-15.074862,0.0009460000000001013,0.016653999999999898,-0.0481039999999999,-0.007068583470577,-0.0141895268187137,-2.405918903128371
118.29573934837092,0.6090308023827908,0.5733539579909057,-15.082431,-0.014996000000000202,0.0339530000000001,0.002590000000000002,-0.0058992128717408,-0.0086219265048519,-2.4090952627406605
119.29824561403508,0.6090305739191919,0.5733537927082255,-15.064931,-0.009015999999999899,0.0083299999999999,0.0341320000000001,-0.0010122909661567,-0.008883725892651,-2.4105788973246103
120.30075187969923,0.6090303536586402,0.5733536260292821,-15.059927,0.006957000000000099,-0.014367000000000199,0.0364379999999998,-0.0022689280275926,-0.0120776784238008,-2.410456671917094
121.3032581453634,0.6090301363651484,0.5733534600484701,-15.092065,0.011664999999999799,-0.029175999999999598,0.007993000000000097,0.0020594885173533,-0.0117984257434815,-2.409758644936051
122.30576441102755,0.609029915406465,0.5733532949403228,-15.141959,0.003929,-0.015263000000000202,-0.042953,-0.0041713369122664,-0.0041887902047863,-2.4090779490744807
123.30827067669172,0.6090296899099257,0.5733531327992355,-15.158047,-0.0008070000000000004,0.025062,-0.047009,-0.0055676003138619,0.0051836278784231,-2.4099682415259225
124.31077694235589,0.609029465286051,0.5733529727525429,-15.122059,-0.006971999999999899,0.030306,0.013483000000000106,-0.0043807764225057,0.0070511301780571,-2.4124987769550974
125.31328320802004,0.609029248167092,0.5733528132294494,-15.072729,-0.012341999999999801,0.0036140000000000026,0.0551099999999998,-0.001221730476396,0.0014486232791552,-2.4148897558572817
126.3157894736842,0.6090290378549172,0.573352653008224,-15.060925,-0.0045540000000002,-0.030176,0.0325570000000001,0.0010297442586766,-0.0040317105721068,-2.4156229337694595
127.31829573934836,0.6090288270191435,0.5733524912162025,-15.085353,0.015995999999999802,-0.022256,-0.035503000000000104,-0.0021118483949131,-0.0014311699866353,-2.4155182663742174
128.32080200501252,0.6090286128672443,0.5733523297732466,-15.095118,0.0168210000000002,0.0156639999999999,-0.047073999999999894,-0.0043284165449459,0.0036477381366681,-2.415936918501893
129.32330827067668,0.609028398889878,0.5733521767078711,-15.070399,0.040265999999999906,0.0650280000000002,0.009190999999999998,0.0303687289847013,0.0045902159327451,-2.484266698343811
130.32581453634086,0.6090282076017919,0.5733520222462324,-15.03897,-0.17055599999999982,0.1037019999999998,0.044287,0.1083674932563279,0.000925024503557,-2.676584493714482
131.328320802005,0.6090280451116387,0.5733518574871509,-15.020288,-0.0706560000000001,0.07284399999999999,-0.01713,0.0799884396189001,0.0122696646415201,-2.8845579273821262
132.33082706766916,0.6090279257311179,0.5733516672462624,-14.984983,0.049067,0.0161130000000001,-0.022144,0.0336499479784506,0.0116064395257624,-3.0638904033047885
133.33333333333331,0.6090278697060488,0.5733514485565072,-14.942895,0.04085199999999989,0.028312000000000004,0.022751999999999998,0.0406836248639878,0.0022863813201126,3.0601555906917377
134.3358395989975,0.6090278718004439,0.5733512129370582,-14.9131,0.0314060000000003,-0.007678999999999991,0.0135139999999999,0.0322536845768552,-0.0043807764225056,2.921523931126196
135.33834586466165,0.6090279260801836,0.5733509712089568,-14.90675,0.045849999999999703,-0.033438000000000107,0.009160000000000099,0.0374373124552783,-0.0092502450355698,2.799193768947328
136.3408521303258,0.6090280225968913,0.573350735065909,-14.916914,0.0906050000000002,-0.05916799999999989,-0.016692,0.0157777764380287,-0.0126361837844388,2.698401109364411
137.34335839598998,0.6090281477369985,0.5733505121873635,-14.928957,-0.000527000000000194,-0.03896700000000011,-0.01355,0.0108559479474047,-0.0139451807234345,2.621868508930922
138.34586466165413,0.6090282962645179,0.5733503064130447,-14.930021,-0.007296999999999901,-0.026956999999999898,-0.006337000000000001,0.0229859862487653,-0.0153414441250301,2.5647788589113576
139.34837092731829,0.609028463990659,0.5733501123324319,-14.925156,-0.0084700000000002,-0.02460599999999999,0.013984,0.0199491133502951,-0.0164759081388263,2.523728627637988
140.35087719298244,0.6090286458539671,0.5733499268039325,-14.931687,-0.007653999999999807,-0.03213900000000001,0.0176129999999999,0.0203156324932139,-0.0164933614313462,2.494616553168016
141.35338345864662,0.609028835222191,0.5733497493039474,-14.959875,-0.011394999999999995,-0.032057000000000196,-0.0014579999999999003,0.028605946440187,-0.0141546202336739,2.475400513010143
142.35588972431077,0.6090290263357441,0.5733495773890162,-14.997324,-0.012916000000000004,-0.016645999999999703,-0.022048,0.0328820031075731,-0.0111701072127636,2.4629560885506203
143.35839598997492,0.6090292176238301,0.5733494100119408,-15.021357,-0.0137130000000001,0.002282999999999801,-0.017553,0.0323409510394549,-0.0089360857702109,2.4554688878589523
144.36090225563908,0.6090294110063112,0.5733492429839315,-15.019314,-0.0113770000000002,0.010367999999999999,-0.0044989999999999995,0.0302465559370617,-0.0077667151713747,2.451210214670916
145.36340852130326,0.6090296096247801,0.5733490756068563,-14.999239,-0.0062249999999996,0.002349000000000101,0.017455,0.0226892802759262,-0.0083601271170528,2.449831491828303
146.3659147869674,0.6090298143519013,0.5733489073571164,-14.982904,0.0053129999999998,-0.010721000000000199,0.02178,0.019373154697137,-0.0100356431989674,2.449796340897168
147.36842105263156,0.6090300211734176,0.5733487408527057,-14.988319,0.007553000000000001,-0.0177079999999997,0.010932,0.0189717289691783,-0.011676252695842,2.4514195494614004
148.37092731829574,0.6090302255514731,0.573348576791756,-15.016088,-9.599999999989998e-05,-0.013878999999999999,-0.0080170000000001,0.022759093446006,-0.0108035880698449,2.454072589550772
149.3734335839599,0.6090304260898042,0.5733484141270697,-15.051203,-0.011631,-0.0025810000000001995,-0.0180569999999999,0.0315730061685774,-0.0081681408993334,2.457301396307084
150.37593984962405,0.6090306219157463,0.573348250240653,-15.074291,-0.0114980000000001,0.007470000000000098,-0.0174379999999999,0.0350287580875261,-0.0043982297150255,2.4600588419923097
151.3784461152882,0.6090308165199578,0.5733480842598411,-15.07334,-0.0017369999999996,0.01519,-0.003449000000000098,0.0299847565492625,-0.0020245819323134,2.4618916296931217
152.38095238095238,0.6090310128694987,0.5733479160101012,-15.052644,0.0016519999999997006,0.006318000000000001,0.007639,0.0247836753783194,-0.0022514747350725,2.4756971840763966
153.38345864661653,0.6090312113134346,0.5733477454914333,-15.026306,-0.0009119999999999996,-0.016056,0.017266,0.0275412955964705,-0.0030368728984699,2.5096263847351663
154.38596491228068,0.6090314104555024,0.5733475730529032,-15.011755,-0.012151,-0.0319249999999999,0.014263999999999999,0.0269129770657525,-0.0044505895925854,2.562213172551048
155.3884711779449,0.6090316012199896,0.5733473969491816,-15.018614,-0.022354000000000002,-0.0370090000000001,0.003959000000000001,0.0358490628359635,-0.0053581608036226,2.6306473579888205
156.39097744360902,0.6090317740075855,0.5733472121188139,-15.040242,-0.030103999999999895,-0.028615,-0.011185,0.047682395164485,-0.0055850536063817,2.710496380707071
157.39348370927317,0.6090319246295001,0.5733470145475426,-15.063406,-0.010866000000000098,-0.015932999999999906,-0.0144719999999999,0.05537929716578,-0.0048520153205442,2.7960698739323533
158.39598997493732,0.6090320515149366,0.5733468017919068,-15.074085,0.013377,-0.006869,-0.0127230000000001,0.0516268392739922,-0.0032114058236694,2.885517736297675
159.3984962406015,0.6090321520459016,0.5733465769934991,-15.068042,0.025346000000000098,-0.003361000000000086,0.007746000000000001,0.0563392282543769,-0.0037699111843076,2.978439414739704
160.40100250626566,0.6090322281422569,0.5733463452137744,-15.059615,0.012059999999999994,-0.014131000000000005,0.016713,0.0580321976288114,-0.0066147978650583,3.075723892712942
161.4035087719298,0.6090322766624101,0.5733461090707267,-15.064117,0.004042000000000101,-0.023514000000000007,0.0056209999999998995,0.058154370676451,-0.007958701389094,-3.106930275018846
162.406015037594,0.6090322934175708,0.5733458697860861,-15.081097,0.0126019999999997,-0.013578999999999897,-0.0051909999999999,0.0567930138598954,-0.0062657320146595,-3.0062422828311703
163.40852130325814,0.6090322742189491,0.5733456284070505,-15.0991,0.023224000000000102,0.002703999999999901,-0.010288,0.0551174977779809,-0.002460914245312,-2.9078230441381625
164.4110275689223,0.6090322215100057,0.5733453899950749,-15.111312,0.0314079999999999,0.01389499999999999,-0.001461,0.0529009296279481,0.0008726646259973,-2.8128949177347486
165.41353383458645,0.6090321387813992,0.5733451578662843,-15.124987,0.016979,0.0022800000000000042,0.010232,0.0515395728113925,0.0030019663134304,-2.721369799400289
166.41604010025063,0.6090320263821953,0.5733449363840022,-15.141735,0.009927000000000095,0.0013020000000001086,-0.008184,0.0551524043630208,0.0063704517697793,-2.6349235891891323
167.41854636591478,0.6090318865813222,0.5733447264208932,-15.149457,0.010201999999999996,0.023280999999999996,-0.012265999999999999,0.048607419668042,0.0102974425867665,-2.556121990914881
168.42105263157893,0.6090317221713067,0.573344528500556,-15.140631,0.00846300000000011,0.025039999999999896,0.0011359999999999999,0.042760566673861,0.0127059969545186,-2.4843540520728737
169.4235588972431,0.6090315383881365,0.573344344193787,-15.119608,-0.0012670000000003095,0.022042000000000006,0.002267,0.0406661715714678,0.0131772358525572,-2.4186948877858945
170.42606516290726,0.609031341165931,0.5733441719297898,-15.091737,-0.0055309999999998,0.020882000000000095,0.009897,0.0382401639111957,0.0125489173218393,-2.3594757789992644
171.42857142857142,0.6090311338208159,0.5733440113594986,-15.072596,-0.0011310000000000903,0.002459000000000003,0.020484,0.0339466539512897,0.010506882097006,-2.3055973602704443
172.43107769423557,0.6090309132111984,0.5733438619593146,-15.077564,-0.0012979999999999103,-0.013608999999999996,-0.0007689999999999989,0.0317126325087369,0.0116238928182823,-2.2578628670277867
173.43358395989975,0.6090306800352103,0.573343723380172,-15.0808,0.0009290000000000131,0.021265999999999792,-0.0382719999999999,0.028605946440187,0.0170344134994646,-2.2180518020700406
174.4360902255639,0.6090304369108456,0.5733435959711366,-15.057763,-0.008233000000000101,0.035719000000000306,-0.0031930000000000985,0.0300196631343024,0.0189891822616983,-2.1861468691843204
175.43859649122803,0.6090301894231576,0.5733434785104781,-15.021129,-0.014440000000000008,0.0032769999999997003,0.019320999999999998,0.0339641072438096,0.016004669240788,-2.159530964610549
176.44110275689223,0.6090299408882721,0.5733433680311364,-14.984213,-0.014479999999999896,-0.0028499999999998006,0.003988999999999999,0.0288502925354662,0.0123394778115999,-2.1380810600897564
177.4436090225564,0.6090296911316562,0.5733432617405848,-14.946496,-0.0075820000000001025,0.009895000000000001,-0.0002539999999998987,0.0282219740047483,0.0088139127225714,-2.121098884294804
178.44611528822054,0.6090294377098489,0.5733431582425603,-14.917095,0.00015300000000010097,0.0010419999999999995,0.0183849999999999,0.03077015471266,0.0028274333882307,-2.1058443052066456
179.4486215538847,0.6090291818445804,0.5733430589333258,-14.910115,0.0022639999999999987,-0.0117160000000001,0.00324,0.0283790536374277,-0.0017453292519942,-2.092929305074201
180.45112781954887,0.6090289223141208,0.5733429648600792,-14.915112,-9.71445146547012e-17,-0.0008659999999999987,-0.0212830000000001,0.0254294472015573,-0.0020245819323134,-2.082422056458052
181.45363408521305,0.6090286587694036,0.5733428756737543,-14.909483,-0.008848999999999902,0.017113000000000197,-0.0178769999999999,0.0235444916094035,-0.0012740903539558,-2.075807310952871
182.4561403508772,0.6090283943520219,0.5733427882327587,-14.890089,-0.012825000000000098,0.0146119999999997,0.013430000000000001,0.0213977366294504,-0.0038746309394273,-2.0710948347060243
183.45864661654133,0.6090281320290354,0.573342701315362,-14.876261,-0.005236999999999901,-0.0070269999999999005,0.0175099999999999,0.026145032194875,-0.0088662726001311,-2.066766400707785
184.4611528822055,0.6090278704041804,0.57334261527063,-14.871539,0.010599999999999901,-0.008465000000000101,-0.0129799999999999,0.0236143047794832,-0.0109781209950443,-2.0610592438669344
185.4636591478697,0.6090276080811938,0.5733425318438916,-14.864232,0.005883999999999999,0.005682000000000201,-0.0019060000000000001,0.0238586508747624,-0.0130725160974374,-2.0558586339348888
186.46616541353384,0.6090273448855427,0.5733424503370157,-14.865592,-0.011105999999999899,-0.0044050000000002,0.021287,0.0241902634326414,-0.016894787159305,-2.051599698947464
187.468671679198,0.6090270790718976,0.5733423710990676,-14.889564,0.0015259999999999007,-0.0155659999999997,-0.0005529999999999979,0.0176801853227025,-0.0173136661797836,-2.046345821566649
188.4711779448621,0.6090268090694624,0.5733422932573831,-14.914772,0.009285000000000099,0.005359999999999799,-0.037004,0.0143116998663535,-0.0128630765871982,-2.041023230573181
189.4736842105263,0.6090265381943624,0.5733422178591593,-14.910464,-0.00426,0.0339839999999999,-0.012159999999999997,0.0186924762888592,-0.0112399203828434,-2.037549920641958
190.47619047619045,0.6090262713335197,0.5733421445553307,-14.895964,-0.016342,0.0037970000000000018,0.043869,0.0206472450510929,-0.0159348560707082,-2.033745067966026
191.47869674185463,0.6090260076142698,0.5733420710769692,-14.911988,0.0014749999999999,-0.0338349999999997,0.023608999999999998,0.0228114533235658,-0.0187797427514588,-2.0262224370905426
192.4812030075188,0.609025741277026,0.5733419986458053,-14.952392,0.019938,-0.015748000000000303,-0.032307999999999996,0.0213628300444105,-0.0145385926691126,-2.016675800241398
193.4837092731829,0.6090254700528602,0.5733419283090364,-14.976597,0.005625000000000099,0.0202720000000003,-0.037551,0.020909044438892,-0.0076619954162551,-2.0077571503104146
194.48621553884712,0.6090251963852336,0.5733418623355906,-14.969893,-0.0130810000000001,0.0198519999999996,0.011633000000000001,0.0220086018676484,-0.0066497044500983,-2.0002520949004987
195.48872180451127,0.6090249251610677,0.573341798805606,-14.959326,-0.007520999999999901,-0.011344999999999699,0.031605999999999995,0.0227241868609661,-0.0102101761241668,-1.990931827255339
196.49122807017545,0.6090246537623691,0.5733417361482857,-14.965289,0.0082189999999999,-0.014824000000000101,0.0039039999999999995,0.0193033415270572,-0.0113446401379631,-1.9788368177120657
197.4937343358396,0.6090243809674071,0.5733416743636303,-14.976966,0.0094130000000001,0.00897,-0.017502999999999998,0.0210661240715715,-0.0090408055253305,-1.9654677527214224
198.49624060150376,0.609024107823379,0.5733416172913637,-14.984947,-0.0009040000000000992,0.0105700000000001,0.0035279999999999,0.0215897228471698,-0.0079412480965741,-1.9518888118882256
199.4987468671679,0.6090238345048181,0.5733415638842886,-15.001505,-0.0016279999999999004,-0.013334000000000101,0.012973000000000099,0.025534166956677,-0.0083950337020926,-1.937699494509023
200.5012531328321,0.6090235599645268,0.5733415137933391,-15.025873,0.00046399999999999914,-0.011325,-0.01712,0.0212057504117311,-0.0049741883681837,-1.9232135060635644
201.50375939849624,0.609023281933577,0.5733414668439821,-15.031295,0.0023729999999998995,0.013509000000000201,-0.026947,0.0190066355542182,0.0,-1.9081509306464173
202.5062656641604,0.6090230028554297,0.5733414239088827,-15.008049,0.0021830000000001015,0.0186899999999997,0.011845000000000001,0.0243298897728009,-0.0002268928027591,-1.8930015425522773
203.5087719298245,0.609022726395276,0.5733413849880403,-14.985167,-0.004039000000000001,-0.0064990000000000004,0.03852,0.0305083553248608,-0.005811946409141,-1.8776425578682645
204.5112781954887,0.609022451331386,0.5733413488597248,-14.99321,-0.0026850000000001005,-0.0203649999999999,0.011944999999999997,0.0259006860995958,-0.0085346600422522,-1.8609922040707016
205.51378446115288,0.609022173649502,0.5733413162220676,-15.023263,0.005596,-0.005141999999999902,-0.025181999999999996,0.0201236462754946,-0.0050789081233033,-1.843643578946
206.51629072681703,0.6090218909061632,0.5733412879477338,-15.045138,0.006988000000000102,0.012637000000000002,-0.025727,0.0208217779762923,0.000593411945678,-1.826085880830203
207.5187969924812,0.6090216085118901,0.5733412645603219,-15.042137,-0.0024670000000000004,0.0161689999999997,-0.00597,0.0251327412287183,0.003717551306748,-1.8097495292183647
208.5213032581453,0.6090213283865452,0.5733412451871671,-15.021601,-0.0111880000000001,0.002506000000000199,0.017991000000000097,0.0265639112153537,0.0023212879051526,-1.7942856153397235
209.52380952380952,0.6090210503555954,0.5733412284320063,-15.006926,-0.0006889999999999015,-0.0162489999999999,0.0230489999999998,0.0259879525621955,-0.0016580627893945,-1.7779497873266614
210.52631578947367,0.6090207716265139,0.5733412144693723,-15.008389,0.011044999999999902,-0.009738,-0.004498999999999901,0.0233175988066442,-0.0026354471705114,-1.760583307483712
211.52882205513785,0.6090204911521031,0.5733412045209956,-15.014697,0.0027810000000000994,0.0098989999999999,-0.012505,0.0206996049286527,-0.0011170107212763,-1.7433047224218945
212.531328320802,0.6090202084087641,0.5733411994595407,-15.020802,-0.008036999999999999,0.007307,0.002367,0.0227067335684462,-5.23598775596934e-05,-1.7256767224438256
213.53383458646616,0.6090199260144913,0.5733411984123432,-15.028449,-0.0043910000000000025,-0.0046929999999999,-0.0016609999999999,0.022148228207808,0.0006108652381979,-1.7080492635178262
214.5363408521303,0.6090196434456853,0.5733411999831395,-15.030293,0.008327000000000001,0.001256999999999774,-0.0108530000000001,0.0236666646570431,0.0024260076602722,-1.6898454794195248
215.5388471177945,0.60901936209861,0.5733412067899236,-15.018519,0.004872999999999999,0.007537000000000126,-0.0013500000000000005,0.0283441470523879,0.00307177948351,-1.6716763401068755
216.54135338345864,0.609019081973265,0.573341217436432,-15.000999,-0.003646,-0.00013200000000009992,0.016358,0.0255516202491969,0.0009773843811169,-1.6544323649241248
217.5438596491228,0.6090188046404469,0.5733412327953294,-14.995403,-0.005849000000000097,-0.0087569999999998,0.013668,0.0244869694054804,-0.0017627825445141,-1.6380960133122884
218.5463659147869,0.6090185255622994,0.5733412509467537,-15.008586,-0.0020069999999999012,-0.007357000000000001,-0.004203999999999999,0.0223227611330074,-0.001815142422074,-1.6212887893215555
219.5488721804512,0.6090182445642899,0.5733412727633693,-15.023545,0.0052389999999999,0.0065219999999999,-0.023162000000000002,0.0206821516361328,0.001570796326795,-1.6035558776021497
220.55137844611528,0.6090179649625437,0.5733412984197093,-15.02289,0.0024869999999999996,0.013392999999999902,-0.006208,0.0214500965070103,0.003717551306748,-1.5860503822842795
221.55388471177943,0.6090176862334622,0.5733413284393725,-15.011901,-0.0006109999999998998,-0.0007739999999999015,0.012712,0.0243647963578408,0.0027052603405912,-1.5692426346947717
222.5563909774436,0.6090174097733086,0.5733413628223587,-15.002104,-0.004865999999999999,-0.008380999999999899,0.0073479999999999,0.0244869694054804,0.0007504915783576,-1.5537270590702692
223.55889724310777,0.6090171338367539,0.5733413996488059,-14.995863,-0.0021120000000001,-0.0019120000000001998,-0.0033859999999999004,0.0226369203983664,0.0003316125578789,-1.53833346450719
224.56140350877192,0.6090168587728638,0.5733414410131092,-14.988906,0.005436999999999997,0.0097589999999999,0.000214,0.0240331837999619,0.0008726646259973,-1.5218745907818634
225.56390977443607,0.6090165852797701,0.573341485868071,-14.99287,0.002072000000000001,-0.0064909999999998,0.020279,0.0260926723173152,-0.0008028514559172,-1.505503611837666
226.56641604010025,0.6090163107394787,0.5733415347372901,-15.016395,-0.008288999999999998,-0.0175519999999999,-0.012924999999999999,0.0178198116628621,0.0005585053606382,-1.4905286519489702
227.5689223057644,0.609016034628391,0.5733415867481018,-15.023907,-0.0001509999999999012,0.0164009999999998,-0.046562000000000006,0.0116413461108021,0.0061086523819802,-1.4747510151372811
228.57142857142856,0.6090157597390339,0.5733416419005061,-14.989409,0.0069809999999999005,0.0296450000000001,0.0063600000000000045,0.0246615023306798,0.0058817595792208,-1.4585366271335731
229.5739348370927,0.6090154906092632,0.5733417012417007,-14.95015,0.0014739999999999996,-0.011678000000000098,0.0553529999999999,0.0347495054072071,-0.0020420352248333,-1.4437363747030023
230.5764411027569,0.6090152251446839,0.5733417638990209,-14.949646,-0.0076739999999999,-0.032627999999999796,0.017751000000000097,0.0237015712420829,-0.0071034900556168,-1.4302277531853689
231.57894736842104,0.609014956713045,0.5733418307451311,-14.973453,-0.0021430000000000025,-0.000477,-0.0389670000000001,0.0120427718387608,-0.0037350045992678,-1.4160554876729576
232.5814536340852,0.6090146861870109,0.5733418995111037,-14.983235,-8.400000000009789e-05,0.023717999999999802,-0.0246619999999999,0.0191637151868977,0.0001570796326795,-1.4005915737943149
233.58395989974937,0.6090144160100427,0.5733419719422677,-14.976499,0.006130000000000101,0.0066710000000001005,0.016328000000000002,0.0234746784393237,-0.0004188790204786,-1.384691973374496
234.58646616541355,0.6090141498473318,0.5733420475150244,-14.969205,-0.0024470000000000013,-0.011334000000000202,0.007116000000000001,0.0226543736908864,-0.0025481807079117,-1.3706768224013497
235.58897243107768,0.6090138857790159,0.5733421265784394,-14.957204,-0.001395000000000101,0.0016090000000001997,-0.011485,0.0241553568476015,-0.0032114058236694,-1.3562952046451608
236.59147869674183,0.6090136245032269,0.5733422096561117,-14.937422,0.0059390000000001004,0.005944,0.0093330000000001,0.0254992603716371,-0.005811946409141,-1.3409367610132166
237.593984962406,0.6090133644491684,0.5733422972716402,-14.925459,-0.0011900000000001007,-0.0044290000000000995,0.015695999999999898,0.0270176968208722,-0.009529497715889,-1.3266947172373096
238.59649122807016,0.6090131063149721,0.5733423882032942,-14.930552,-0.007508999999999898,-0.0040989999999998,0.0032070000000000015,0.0219038821125288,-0.0118333323285215,-1.31351739411829
239.59899749373432,0.6090128488789074,0.5733424812293434,-14.950907,-0.0082550000000001,-0.0050880000000002,-0.008588,0.01844813019358,-0.0109083078249645,-1.3005323539229623
240.6015037593985,0.6090125914428426,0.5733425749535243,-14.971241,0.0048600000000001,0.0023290000000000003,-0.017641,0.0176976386152225,-0.0081157810217735,-1.285836489634952
241.60401002506265,0.6090123347049098,0.5733426718192978,-14.974317,0.014683,0.0082330000000002,-0.014015999999999999,0.0216246294322097,-0.0055850536063817,-1.269517713488683
242.6065162907268,0.6090120802359047,0.5733427723502627,-14.953902,0.0016539999999998986,0.007651999999999701,0.0016349999999999976,0.0263195651200744,-0.0058468529941808,-1.2543334188095028
243.60902255639093,0.6090118303047558,0.5733428793389458,-14.922924,-0.010420999999999899,0.0033360000000003005,0.0239379999999999,0.0247662220857995,-0.0097214839336083,-1.2404929752944809
244.6115288220552,0.609011584911463,0.5733429887710899,-14.913248,-0.006845000000000099,-0.010796000000000302,0.0322940000000001,0.0223751210105673,-0.0153763507100699,-1.2276821015052086
245.6140350877193,0.6090113402163019,0.573343100472162,-14.943796,0.001117,-0.0169059999999998,-0.0001989999999999978,0.0186750229963393,-0.0160570291183477,-1.2139460635860406
246.61654135338344,0.609011092728614,0.5733432135694976,-14.988261,0.0006249999999999988,0.0006040000000001001,-0.045245,0.0161966554585073,-0.0099832833214075,-1.1988666981014904
247.6190476190476,0.6090108443682615,0.5733433282376293,-15.001949,0.0021930000000000005,0.021872,-0.032778,0.0188844625065786,-0.0042411500823462,-1.1821292698275452
248.62155388471177,0.6090106007202979,0.5733434465709527,-14.978702,0.0115370000000001,0.0142279999999997,0.021755,0.0276460153515901,-0.0048345620280241,-1.164518845315044
249.62406015037595,0.609010364402717,0.5733435697911979,-14.956819,-0.0013780000000000008,-0.0142839999999997,0.043682,0.0282743338823081,-0.0099658300288876,-1.1494741246161455
250.62656641604008,0.6090101303540644,0.5733436965021015,-14.963168,-0.014157999999999999,-0.0185210000000002,0.001176,0.0185353966561797,-0.0118507856210414,-1.135755121110477
251.62907268170423,0.6090098959563459,0.5733438253074004,-14.982009,0.00016299999999999995,0.005665000000000199,-0.025206999999999997,0.014748032179352,-0.0086393797973718,-1.1202571209515435
252.6315789473684,0.6090096620822262,0.573343956905226,-14.991415,0.0080789999999999,0.0158559999999998,-0.009996,0.0234572251468037,-0.0056897733615015,-1.103292241369478
253.63408521303256,0.6090094310006332,0.5733440912955784,-14.992904,0.0012549999999999992,0.001573999999999999,0.007735,0.0265813645078736,-0.0054628805587422,-1.08660701589346
254.63659147869672,0.609009204980495,0.5733442279548588,-14.99399,-0.006315999999999999,-0.0081009999999999,0.0055580000000000004,0.0232652389290844,-0.0061784655520598,-1.0719638780021532
255.6390977443609,0.6090089803566203,0.5733443677557319,-14.995123,-0.0043199999999999,-0.0083790000000001,-0.00451,0.0204552588333735,-0.0061610122595399,-1.0575476678201894
256.64160401002505,0.6090087578271407,0.5733445101745989,-14.99063,0.005892999999999999,0.0075980000000002,-0.004785,0.0212406569967709,-0.0054454272662223,-1.040914627688806
257.64411027568923,0.6090085368684575,0.5733446555605256,-14.982938,0.0072629999999999015,0.0085079999999997,0.012234,0.0258832328070759,-0.0066671577426182,-1.0232163258484672
258.6466165413533,0.6090083194004327,0.5733448042625778,-14.988199,-0.0013639999999999,-0.0085589999999998,0.010950000000000001,0.0234223185617639,-0.0080459678516937,-1.0073342834409245
259.64912280701753,0.6090081042013358,0.5733449568043545,-15.000723,-0.012403000000000101,-0.003838000000000001,-0.019953000000000002,0.0174183859349034,-0.0059515727493006,-0.9923417655399532
260.6516290726817,0.6090078924928976,0.5733451107423945,-15.002519,-0.004447999999999899,0.012198999999999901,-0.008146,0.0201934594455743,-0.0038397243543875,-0.9758136546032
261.65413533834584,0.6090076834024531,0.5733452653785662,-14.999836,0.0068099999999999,-0.003069999999999899,0.016715,0.0289026524130261,-0.0055152404363019,-0.9592855436664458
262.65664160401,0.6090074774536014,0.5733454224581989,-15.004773,0.0111270000000001,-0.010214000000000202,0.00255,0.0241379035550815,-0.0064751715248989,-0.942617352603927
263.65914786967414,0.6090072722028813,0.5733455837266217,-15.008554,0.0007159999999998001,0.005234000000000199,-0.015204,0.0201236462754946,-0.0045902159327451,-0.925634897556294
264.6616541353383,0.609007070093754,0.5733457504055653,-15.001483,-0.007617999999999903,0.0132699999999999,-0.00028799999999989945,0.019669860669976,-0.0031415926535898,-0.9084963926202408
265.6641604010025,0.609006871824351,0.5733459183062394,-14.996871,-0.009405999999999798,-0.0048489999999998985,0.0212639999999999,0.0224274808881271,-0.0047298422729045,-0.8922468536853981
266.66666666666663,0.6090066773946723,0.5733460867305122,-15.00744,-0.0025260000000002,-0.0183440000000001,-0.0005539999999999989,0.0206472450510929,-0.0055850536063817,-0.8763824041967151
267.6691729323308,0.6090064831395265,0.5733462569001142,-15.017333,0.0077880000000001,0.0027430000000001,-0.024829,0.0174707458124632,-0.0033859387488688,-0.8585972722260912
268.671679197995,0.6090062895825125,0.5733464295131773,-15.00834,0.0113269999999999,0.0220430000000001,-0.006101999999999899,0.0225671072282866,-0.0023038346126325,-0.8388052036018901
269.6741854636591,0.6090061023086838,0.5733466057914317,-14.992429,0.0007640000000000008,0.0072109999999997,0.0251699999999998,0.0285710398551471,-0.0046600291028247,-0.8203921021663974
270.6766917293233,0.6090059221907049,0.5733467864330093,-14.993543,-0.009628999999999902,-0.016867999999999803,0.0168030000000001,0.0226718269834063,-0.0070162235930171,-0.8045095361600798
271.6791979949875,0.6090057460869834,0.5733469696925808,-15.012502,-0.008480000000000099,-0.012857000000000098,-0.015127,0.0145560459616327,-0.0052883476335428,-0.7886269876070532
272.6817042606516,0.609005569808729,0.5733471529521522,-15.027456,-0.0020939999999998,0.006722,-0.022281000000000002,0.0181165176357011,-0.0014660765716751,-0.7707901938905686
273.6842105263158,0.6090053956248695,0.5733473370843882,-15.026309,0.006048999999999799,0.0112220000000001,0.0009370000000000003,0.0254294472015573,3.4906585040017646e-05,-0.7518359356672024
274.68671679198,0.6090052251062017,0.5733475231364865,-15.017003,0.0079390000000001,-0.0008980000000001001,0.010728999999999999,0.0272794962086713,-0.0011868238913561,-0.7336316454234189
275.6892230576441,0.6090050598235215,0.5733477123301775,-15.008083,0.002826999999999899,-0.0020499999999999997,0.0039169999999999,0.0218864288200088,-0.0021467549799529,-0.7160212209109188
276.69172932330827,0.6090048982060328,0.5733479060617245,-15.002882,-0.004007999999999998,0.0033550000000000003,0.004222000000000101,0.0212406569967709,-0.0019547687622336,-0.6985157255930476
277.6942355889724,0.6090047404282685,0.5733481022367324,-15.007839,-0.0077870000000000005,-0.005510000000000001,0.0075780000000000005,0.0205599785884932,-0.0023736477827123,-0.6819876146562945
278.69674185463657,0.6090045861411625,0.5733482999825367,-15.023202,-0.005798000000000001,-0.006602999999999899,-0.0089430000000001,0.0182735972683806,-0.0008028514559172,-0.6653716263917037
279.69924812030075,0.6090044330757872,0.573348497204742,-15.032792,0.0005070000000001003,0.006089999999999899,-0.0171899999999999,0.0200189265203749,0.0017976891295541,-0.6472381616089653
280.7017543859649,0.609004284024669,0.5733486952996122,-15.027813,0.006116999999999899,0.011415000000000102,0.002255,0.026145032194875,0.0026529004630313,-0.6284229188605209
281.70426065162906,0.6090041398604727,0.573348896536075,-15.02094,0.0081540000000002,-0.005938000000000103,0.01775,0.028920105705546,0.0008901179185172,-0.6109877428582129
282.70676691729324,0.6090039993614681,0.5733491007395974,-15.02192,-0.0015720000000002989,-0.013056999999999899,-0.0031540000000001003,0.0189368223841384,0.0010646508437166,-0.5948777429970672
283.70927318295736,0.609003862004056,0.573349307212048,-15.017941,-0.0080199999999997,0.005091,-0.0166359999999999,0.0142418866962737,0.0029321531433506,-0.5772673359378591
284.71177944862154,0.6090037277882364,0.5733495149062289,-15.001942,-0.0051220000000001,0.015069999999999901,0.0052109999999999995,0.0215722695546499,0.0024783675378319,-0.558732253440944
285.7142857142857,0.6090035996810694,0.573349722425877,-14.991171,0.0045039999999999004,0.0023320000000001014,0.024728999999999998,0.0278729081543494,-0.0006283185307178,-0.5410344926526742
286.71679197994985,0.6090034761117583,0.5733499320399201,-15.003901,0.0031409999999999997,-0.016904000000000002,0.007804999999999902,0.0233001455141243,-0.0019547687622336,-0.5248904065112375
287.719298245614,0.6090033553349741,0.5733501435738255,-15.029767,-0.0047869999999999,-0.0147500000000001,-0.0274079999999999,0.0161792021659874,0.0008203047484374,-0.5085716303649674
288.7218045112781,0.609003234209124,0.5733503575511918,-15.035313,-0.0033220000000000003,0.0100910000000001,-0.0316789999999999,0.018133970928221,0.0049043751981041,-0.4897041848185958
289.72431077694233,0.609003115177669,0.5733505713540252,-15.0045,0.0071649999999999,0.024680999999999998,0.004649999999999897,0.0266511776779534,0.0049916416607038,-0.469371483005298
290.7268170426065,0.6090030026039323,0.5733507869021879,-14.963316,0.0064170000000001014,0.008983999999999902,0.039554,0.0294437044811443,3.4906585040017646e-05,-0.450574374227782
291.72932330827064,0.609002900327638,0.5733510054174101,-14.950592,-0.005270000000000101,-0.017375,0.02867,0.0233175988066442,-0.0048171087355042,-0.4350231066200758
292.7318295739348,0.6090028027637329,0.5733512258524947,-14.972772,-0.010752999999999801,-0.023648,-0.0161050000000001,0.0168424272817452,-0.0046251225177849,-0.4202052787239368
293.734335839599,0.609002704501696,0.5733514468111779,-14.998657,-0.0029390000000002,-0.0005449999999998997,-0.0356949999999999,0.0155159770502295,-0.0014311699866353,-0.4031887373960129
294.7368421052631,0.6090026057160604,0.5733516674207954,-15.001756,0.0090670000000001,0.0171749999999999,-0.0110699999999999,0.0230383461263251,0.000628318530718,-0.3840773646333828
295.7393483709273,0.609002510595616,0.5733518890776104,-14.984801,0.004883999999999901,0.008125,0.0108449999999999,0.0254992603716371,0.0003665191429189,-0.3647385580159252
296.7418546365915,0.6090024196639621,0.5733521133524193,-14.960125,-0.0023099999999998,0.0007820000000000014,0.0104710000000001,0.0231430658814448,-0.0014486232791552,-0.346133714708808
297.7443609022556,0.6090023369353555,0.5733523393725575,-14.938181,-0.005145000000000201,0.0017810000000000985,0.010757999999999799,0.0221831347928479,-0.004607669225265,-0.3281568408665596
298.7468671679198,0.6090022608390001,0.5733525660908273,-14.931205,0.0005590000000002,-0.003824000000000098,0.0120670000000001,0.0230034395412852,-0.0086742863824118,-0.3112271296689209
299.749373433584,0.609002188756902,0.5733527933326958,-14.946429,0.0009229999999997998,-0.0139119999999999,-0.001060000000000099,0.0188670092140587,-0.0100181899064473,-0.2952572099335405
300.7518796992481,0.6090021177220014,0.573353021621762,-14.970001,-0.0030299999999999,-0.008299000000000101,-0.022718999999999802,0.0151669111998307,-0.0073303828583761,-0.2782577204724082
301.7543859649123,0.6090020473852326,0.5733532507834929,-14.975613,-0.0024490000000001,0.013143000000000002,-0.023635000000000097,0.0185353966561797,-0.0042935099599059,-0.2589194374537265
302.7568922305764,0.6090019814117869,0.5733534797706907,-14.955273,0.0053940000000001,0.019873000000000095,0.009103999999999998,0.0283266937598679,-0.0050963614158234,-0.2388306803099784
303.7593984962406,0.6090019215469935,0.5733537106777508,-14.93127,0.009449999999999903,-0.0029900000000000967,0.028640999999999903,0.028605946440187,-0.0087964594300513,-0.2209065503177252
304.7619047619048,0.6090018684889843,0.5733539440282717,-14.92529,-0.003938000000000002,-0.01772,0.0099330000000001,0.0214151899219704,-0.0116937059883619,-0.2047097377795846
305.7644110275689,0.6090018196197652,0.5733541796477207,-14.935552,-0.006371999999999999,-0.0039809999999998995,-0.011424,0.0182735972683806,-0.0121300383013605,-0.1873608334022034
306.76691729323306,0.6090017714486778,0.5733544159653015,-14.94957,0.0021950000000002003,0.006539999999999999,-0.0082050000000001,0.0257959663444761,-0.0120427718387607,-0.1693317742153202
307.76942355889724,0.6090017264191832,0.5733546533300797,-14.961593,0.0051309999999997,0.001958999999999999,-0.0038839999999998,0.0253072741539177,-0.0114668131856026,-0.1509357246466199
308.77192982456137,0.6090016852294128,0.573354893138319,-14.966424,0.00040500000000020034,-0.0042679999999999975,-0.007875000000000099,0.0225845605208066,-0.0100705497840072,-0.1325407397287626
309.77443609022555,0.6090016480538998,0.5733551353900191,-14.958019,-0.0028130000000001,0.004463999999999999,-0.002134999999999901,0.0238062909972026,-0.0094596845458092,-0.1128354663282629
310.77694235588973,0.6090016155907756,0.5733553793870486,-14.942326,-0.0030259999999998006,0.0113129999999999,0.013296999999999901,0.0275238423039505,-0.010751228192285,-0.0929038411770728
311.77944862155385,0.6090015888872381,0.5733556239076768,-14.935168,-0.0017880000000002998,0.0009390000000000995,0.014836999999999899,0.0287630260728665,-0.0130376095123976,-0.0734606289637611
312.78195488721803,0.6090015696886163,0.5733558691264367,-14.945598,0.0016260000000003,-0.0100940000000001,0.0015490000000001006,0.025848326222036,-0.0146433124242324,-0.0556062772350023
313.7844611528822,0.6090015536315873,0.57335611574146,-14.964819,0.0039359999999997,-0.0089889999999999,-0.0163030000000001,0.023055799418845,-0.0143291531588733,-0.0377865353853102
314.78696741854634,0.6090015408906837,0.5733563635782137,-14.976321,0.0014810000000001003,0.0008209999999998999,-0.0125829999999999,0.0249582083035189,-0.012601277199399,-0.019041594499136
315.7894736842105,0.6090015300696423,0.573356615080159,-14.974117,-0.0005839999999999006,0.007656000000000001,0.0006090000000000002,0.0254643537865972,-0.0112573736753633,0.0010471975511965
316.79197994987464,0.6090015236119242,0.5733568674547689,-14.964498,-0.0067930000000001,0.006571000000000098,0.008719,0.0246615023306798,-0.0110479341651239,0.0214675497995302
317.7944862155388,0.6090015239609899,0.5733571210511091,-14.958439,-0.0074809999999997,0.005876000000000003,0.013292,0.0310319541004591,-0.0127932634171183,0.0423416876533824
318.796992481203,0.6090015314659057,0.5733573744729166,-14.967453,0.0024109999999996,-0.004843000000000101,0.008219,0.0327249234748936,-0.0146607657167523,0.0616973890579995
319.7994987468672,0.6090015436832105,0.5733576275456581,-14.991165,0.0090100000000002,-0.012608999999999902,-0.011054000000000001,0.0289899188756258,-0.0143116998663535,0.0805120383944984
320.8020050125313,0.6090015590421078,0.5733578827127946,-15.008071,0.0038839999999999986,-0.0014770000000000998,-0.027319999999999997,0.0262322986574747,-0.0115540796482023,0.1006705912550329
321.8045112781955,0.6090015791133944,0.5733581392761947,-14.998731,-0.005297999999999999,0.0183320000000001,-0.005817000000000003,0.0311017672705389,-0.0101927228316467,0.1222254075171629
322.8070175438596,0.6090016045952014,0.573358397584924,-14.976484,-0.004124,0.011579999999999896,0.029014,0.0347844119922469,-0.0120427718387607,0.1432217184186546
323.8095238095238,0.6090016395017863,0.5733586567663179,-14.97282,-0.0011260000000002002,-0.0159329999999999,0.026196,0.0307352481276201,-0.0145211393765927,0.1611637031291564
324.812030075188,0.6090016785971616,0.573358915598646,-14.997595,-0.0022619999999997998,-0.024179,-0.010031000000000002,0.0214500965070103,-0.0136833813356354,0.179419847105017
325.8145363408521,0.6090017176925369,0.5733591740819083,-15.024353,-0.0012319999999998,0.0012999999999999002,-0.035768999999999995,0.0262322986574747,-0.0107861347773248,0.2000321855710701
326.8170426065163,0.6090017588823072,0.5733594318670387,-15.023436,0.0019369999999994999,0.0309340000000001,-0.014974999999999999,0.0362504885639222,-0.0092327917430499,0.222826185602116
327.8195488721804,0.6090018091477897,0.573359690350301,-15.000475,0.0039650000000003,0.021366000000000003,0.025323,0.0382925237887555,-0.0111177473352037,0.2442064863923391
328.8220551378446,0.609001871630577,0.5733599511024912,-14.990047,0.0020559999999999997,-0.019996,0.033528,0.0321838714067754,-0.0137706477982351,0.2624102530373474
329.8245614035088,0.6090019409201481,0.5733602127273462,-15.009885,-6.200000000000042e-05,-0.0353540000000001,-0.0028929999999999997,0.0199665666428151,-0.0133692220702765,0.2799507945665979
330.8270676691729,0.6090020089879891,0.5733604750503327,-15.039308,-0.005828000000000199,-0.0078409999999998,-0.032268,0.0192684349420174,-0.0095120444233689,0.3001791605972121
331.8295739348371,0.6090020751359677,0.5733607373733193,-15.046836,-0.0084839999999996,0.029762999999999897,-0.022357999999999902,0.0325678438422141,-0.006422811647339,0.3240901888028271
