Time [s],Longitude [rad],Latitude [rad],Altitude [m],V North [m/s],V East [m/s],V Down [m/s],Roll [rad],Pitch [rad],Yaw [rad]
2.0050125313283207,0.6090221158791038,0.5733254998738532,-14.970488,0.0013879999999998997,0.005377000000000201,-0.018184999999999903,0.0226543736908864,-0.0034033920413889,-1.7576687472592216
3.007518796992481,0.6090218338338966,0.5733254887037459,-14.97616,-0.0065019999999999,0.0145929999999997,-0.013826,0.0247313155007596,-0.0014311699866353,-1.7493783285924942
4.010025062656641,0.6090215526613542,0.573325479278968,-14.976945,0.0023929999999999993,-0.0029369999999999006,0.01179,0.0279601746169491,-0.0019896753472734,-1.7404247720764705
5.012531328320802,0.6090212735832068,0.5733254721231181,-14.987248,0.0033690000000000005,-0.014445,0.0094939999999999,0.029845130209103,-0.0030543261909901,-1.7314712330137392
6.015037593984962,0.6090209915379996,0.5733254675852621,-15.00188,-0.001622000000000002,-0.003928999999999999,-0.0176049999999998,0.0246964089157197,-0.0013089969389956,-1.7240010667355712
7.017543859649122,0.6090207079219961,0.5733254654908669,-14.999354,-0.0061579999999999985,0.015557999999999999,-0.0181830000000001,0.0218166156499291,0.0015882496193149,-1.7174214547082332
8.020050125313283,0.609020425702256,0.5733254649672681,-14.977769,-0.004173000000000099,0.011966000000000001,0.018207,0.0282394272972682,-3.49065850397956e-05,-1.7108066917497586
9.022556390977442,0.609020145925977,0.5733254647927352,-14.968408,0.0047200000000001,-0.0182840000000001,0.031584,0.0286932129027867,-0.0044854961776252,-1.7030398544053371
10.025062656641603,0.609019865800632,0.5733254668871304,-14.982142,0.010027999999999999,-0.014140999999999801,-0.015850999999999997,0.0246615023306798,-0.0037524578917877,-1.6946801810738903
11.027568922305765,0.6090195821846286,0.5733254721231181,-14.990502,-0.0027659999999999976,0.0182759999999999,-0.026798000000000002,0.0217817090648892,-8.726646259971105e-05,-1.6880297435855047
12.030075187969924,0.6090192997903557,0.5733254796280339,-14.985023,-0.011225000000000101,0.0138129999999999,0.012756,0.0217293491873294,-0.0007853981633973,-1.6827066115399707
13.032581453634084,0.6090190187923461,0.5733254885292132,-14.988314,-0.0022049999999999006,-0.0157539999999998,0.021574,0.0235095850243636,-0.0032114058236694,-1.6770692329626142
14.035087719298245,0.6090187386670012,0.573325498128524,-15.003877,0.010239999999999999,-0.011854,-0.014756000000000099,0.0218166156499291,-0.0017627825445141,-1.669599607736513
15.037593984962406,0.609018456447261,0.5733255098222299,-15.009744,0.0017169999999999998,0.011574999999999901,-0.0235889999999998,0.022130774915288,0.0020420352248333,-1.6628974910489778
16.040100250626566,0.6090181745765868,0.5733255239593968,-14.992584,-0.006742000000000099,0.0173949999999999,0.002672999999999901,0.0247487687932795,0.0023212879051526,-1.6573996689986104
17.042606516290725,0.6090178974183016,0.5733255387946955,-14.974202,-0.007028999999999901,-0.0079789999999999,0.033679,0.0260228591472354,-0.0023212879051524,-1.652093588819867
18.045112781954884,0.6090176202600164,0.5733255545026589,-14.98043,0.0047159999999999,-0.0203919999999999,0.011082999999999999,0.0243822496503607,-0.0051312680008632,-1.6457930723932157
19.047619047619047,0.6090173406582703,0.5733255721304843,-15.005327,0.0122330000000001,-0.0037500000000001005,-0.0196890000000001,0.0226718269834063,-0.002426007660272,-1.638480038107604
20.050125313283207,0.609017056518668,0.5733255925508365,-15.023818,-0.0042630000000001,0.014453,-0.024817999999999802,0.0192858882345373,0.0027052603405912,-1.6325635464762682
21.052631578947366,0.6090167732517304,0.5733256148910508,-15.017469,-0.0103939999999999,0.016855,-0.0071700000000001,0.0212930168743308,0.004642575810305,-1.6273277856130877
22.05513784461153,0.6090164938245173,0.5733256389765946,-14.996727,-0.0012949999999999997,-0.0019230000000000982,0.0243960000000001,0.0258657795145559,0.0012566370614359,-1.6217601678459337
23.05764411027569,0.6090162182370283,0.5733256621894737,-14.988646,0.0016359999999999999,-0.0188009999999998,0.020105999999999898,0.0249407550109989,-0.0028099800957108,-1.6151102539563251
24.06015037593985,0.6090159417768748,0.5733256855768856,-14.995121,0.005765999999999999,-0.0053180000000001,-0.013168,0.0221656815003279,-0.0021816615649927,-1.6075010722032357
25.062656641604008,0.6090156621751287,0.5733257112332256,-14.998347,0.004724999999999901,0.0125799999999999,-0.013940999999999999,0.0227416401534861,0.0003316125578789,-1.5992452808688669
26.065162907268167,0.6090153825733825,0.5733257402056913,-14.999577,0.0009270000000000979,-3.999999999980018e-05,0.013381,0.0241553568476015,1.74532925198978e-05,-1.5910070650000654
27.06766917293233,0.6090151031461692,0.5733257717961507,-15.007377,-0.0010470000000000982,-0.01117,-0.004638,0.0204901654184134,-0.000279252680319,-1.5834671204584023
28.07017543859649,0.6090148228462914,0.5733258054810052,-15.001662,-0.0042399999999999,0.0157499999999998,-0.028187,0.0198967534727353,0.0020943951023932,-1.5762595389661966
29.07268170426065,0.6090145455134732,0.5733258407366562,-14.972239,-0.0033890000000001003,0.015975999999999997,0.0168010000000001,0.026755897433073,-6.981317007981325e-05,-1.5691036192198498
30.07518796992481,0.609014270973182,0.5733258772140375,-14.954742,-0.0030229999999999,-0.020736999999999797,0.0396609999999999,0.0294262511886244,-0.0060213859193802,-1.5624537053302414
31.07769423558897,0.609013997480088,0.5733259136914188,-14.968463,0.005705000000000001,-0.0176600000000001,-0.005315,0.0221831347928479,-0.0070162235930171,-1.554948388120937
32.08020050125313,0.6090137194491383,0.5733259527867941,-14.994272,0.011787999999999898,0.0048020000000002,-0.024098,0.019390607989657,-0.0031241393610697,-1.5463964493190911
33.08270676691729,0.6090134391492604,0.5733259955473607,-15.007955,-0.0014019999999998999,0.0109529999999996,-0.019343,0.02153736296961,0.0007330382858377,-1.5387350647680738
34.08521303258145,0.6090131595475141,0.5733260407513884,-14.993689,-0.011343999999999998,0.0160330000000002,-0.012158000000000002,0.0191288086018578,0.0024783675378319,-1.5323818219447196
35.08771929824561,0.6090128855308217,0.5733260880498112,-14.958989,-0.009883,0.0076989999999999,0.027661,0.0268431638956727,-0.0019896753472734,-1.5267966461652895
36.09022556390977,0.6090126153538534,0.5733261346501021,-14.943324,0.0005789999999999988,-0.0256609999999998,0.040201,0.0307876080051799,-0.0090058989402905,-1.520216510539176
37.092731829573935,0.6090123439551548,0.5733261807267944,-14.964643,0.013525,-0.022836000000000103,-0.009427000000000102,0.0223925743030872,-0.0091280719879303,-1.5124326213279613
38.095238095238095,0.6090120666223366,0.5733262297705464,-14.989747,0.010159,0.014585000000000101,-0.0443559999999998,0.017540558982543,-0.0028448866807506,-1.503287322940314
39.097744360902254,0.6090117877187222,0.5733262830030886,-14.986523,-0.0055000000000000986,0.0289079999999998,-0.011820000000000098,0.020001473227855,0.0007155849933178,-1.4952062216107775
40.100250626566414,0.609011512480299,0.5733263392026905,-14.966877,-0.012522,0.0011840000000001016,0.0286130000000001,0.0274191225488309,-0.0025481807079117,-1.4886260859846634
41.10275689223057,0.6090112430014626,0.5733263961004241,-14.958023,-0.00032300000000000037,-0.02034299999999997,0.0176169999999998,0.0273318560862311,-0.0066846110351381,-1.481592688351807
42.10526315789473,0.6090109742207578,0.5733264531726906,-14.962423,0.005133000000000099,-0.008298000000000132,-0.0107069999999999,0.0231779724664846,-0.0076619954162551,-1.474018116477784
43.10776942355889,0.6090107026475262,0.5733265123393524,-14.965701,0.0057779999999998995,0.006308000000000201,-0.012915,0.0216420827247296,-0.0064053583548191,-1.4659194396826791
44.11027568922306,0.6090104302016299,0.5733265730768102,-14.960368,-0.0010049999999998983,0.0084959999999998,-0.0013350000000000002,0.0232303323440445,-0.0064402649398589,-1.4584498144565798
45.11278195488722,0.6090101591519971,0.5733266367813279,-14.951184,-0.003844000000000101,0.004427000000000201,0.008355,0.0242426233102012,-0.0080634211442136,-1.4516427685744135
46.11528822055138,0.6090098901967594,0.5733267024057078,-14.949724,-0.0008809999999998992,-0.004532000000000201,0.016016,0.0259006860995958,-0.0111526539202437,-1.445254915871992
47.11779448621554,0.6090096212415216,0.5733267694263511,-14.967608,-0.0010090000000001,-0.0157649999999997,-7.700000000009782e-05,0.0219911485751285,-0.0117809724509616,-1.4392856978439534
48.1203007518797,0.6090093514136192,0.5733268378432578,-14.985818,-0.0058929999999999,0.0026639999999996996,-0.0341079999999999,0.018762289458939,-0.0075223690760954,-1.4328802696759646
49.122807017543856,0.6090090814111839,0.5733269071328291,-14.977863,0.006318999999999899,0.022779,-0.007607000000000003,0.0216071761396898,-0.004886921905584,-1.42506175313239
50.125313283208015,0.6090088143758083,0.5733269778186638,-14.960362,0.0095190000000001,5.200000000020119e-05,0.032909,0.0281172542496286,-0.008237954069413,-1.4176086387210136
51.127819548872175,0.6090085497838938,0.5733270521696899,-14.962897,-0.004666000000000101,-0.0173500000000001,0.017883,0.0251676478137582,-0.0114319066005628,-1.4116745890774036
52.130325814536334,0.6090082846683805,0.573327128964177,-14.9838,-0.013533999999999899,-0.004338,-0.016730000000000002,0.0185877565337396,-0.0100356431989674,-1.406420694243296
53.1328320802005,0.6090080183311367,0.5733272055841312,-15.002748,-0.003281,0.006176999999999801,-0.018702999999999997,0.021223203704251,-0.0066322511575784,-1.3999114015315195
54.13533834586466,0.6090077518193597,0.5733272809823549,-15.008589,0.0134379999999999,0.0048290000000001995,-0.0016539999999999003,0.0238586508747624,-0.0044854961776252,-1.3910100478134233
55.13784461152882,0.6090074872274452,0.5733273591731054,-15.005397,0.010327000000000001,-0.0004159999999999997,0.0067919999999999005,0.027087509990952,-0.0043458698374658,-1.3819867304871978
56.14035087719298,0.6090072233336623,0.5733274401563826,-15.000713,-0.005195999999999902,-0.0032880000000001,0.0055309999999999,0.0220958683302482,-0.0048171087355042,-1.3740973710292856
57.14285714285714,0.6090069592653464,0.5733275249793843,-14.995294,-0.008628000000000099,0.0041390000000001,-0.0027999999999999002,0.0196524073774561,-0.0049916416607036,-1.367360644462682
58.1453634085213,0.6090066971168928,0.573327609627853,-14.990149,-0.006455999999999999,0.0044119999999998,0.006029,0.0219736952826086,-0.0059515727493006,-1.3610249945581885
59.14786967418546,0.609006437586433,0.5733276942763218,-14.993022,0.0014140000000000999,-0.0055139999999998,0.006835,0.0229161730786855,-0.0072780229808162,-1.3534855736153004
60.15037593984962,0.6090061759615782,0.573327779971988,-15.008114,0.0120029999999999,-0.009064,-0.0012139999999999998,0.0227416401534861,-0.0068416906678177,-1.3444271053579393
61.15288220551378,0.6090059141621903,0.5733278668893848,-15.024658,0.005995,0.0007030000000001002,-0.016205999999999998,0.021851522234969,-0.0034732052114687,-1.3354559733763482
62.15538847117794,0.6090056525373355,0.5733279586937035,-15.027269,-0.004894999999999899,0.0093309999999999,-0.010461999999999999,0.020298179200694,-0.0002094395102392,-1.3270435911014913
63.1578947368421,0.6090053933559416,0.573328053116016,-15.013707,-0.0105170000000001,0.008143,0.005736,0.0219213354050487,0.0003316125578789,-1.3195739484220987
64.16040100250626,0.6090051371416074,0.5733281480619272,-14.995337,-0.0014839999999999003,0.0011790000000000012,0.014317999999999999,0.0230383461263251,-0.0023561944901921,-1.3118246865432437
65.16290726817043,0.6090048830216682,0.5733282435314373,-14.988559,0.0078169999999999,-0.0107600000000001,0.014412000000000001,0.0264068315826742,-0.0060213859193802,-1.3036738069502116
66.16541353383458,0.6090046290762622,0.5733283403972108,-14.99946,0.003125000000000001,-0.0108399999999999,-0.002995000000000001,0.0226892802759262,-0.0068067840827779,-1.2957674130788002
67.16791979949875,0.6090043733855267,0.5733284395319124,-15.016152,-0.003208999999999901,0.0013049999999999,-0.017689,0.0168075206967053,-0.0041189770347065,-1.2876511782714215
68.1704260651629,0.6090041169966596,0.5733285416336736,-15.021748,-0.00011300000000009913,0.0109290000000001,-0.013675,0.0208741378538521,-0.0008726646259971,-1.279064612137215
69.17293233082707,0.6090038616549901,0.5733286446080995,-15.008056,1.7000000000100268e-05,0.012126999999999999,0.0013129999999999982,0.022444934180647,-5.23598775596934e-05,-1.2706868397414246
70.17543859649122,0.6090036108511765,0.5733287502005191,-14.989245,-0.0014900000000001006,-0.0009950000000001,0.023759000000000002,0.0270351501133921,-0.0034906585039886,-1.2635309199950773
71.17794486215539,0.6090033628398899,0.5733288570146694,-14.992225,-0.0044719999999999,-0.0196509999999999,0.020620999999999903,0.0234921317318436,-0.0067544242052179,-1.25728314741842
72.18045112781954,0.6090031141304715,0.5733289641778855,-15.014181,-0.002157,-0.009156999999999901,-0.0252259999999999,0.0153414441250301,-0.0046251225177849,-1.2503541379281258
73.1829573934837,0.6090028628030592,0.5733290718647004,-15.022315,0.0077259999999999005,0.0172119999999999,-0.030938,0.0178547182479019,-0.000279252680319,-1.2412956522174716
74.18546365914787,0.6090026128719103,0.5733291828676408,-15.005548,0.0109420000000001,0.0175589999999999,0.014251,0.0272096830385916,-0.0005061454830783,-1.2316092144952435
75.18796992481202,0.6090023664314198,0.5733292963140422,-14.992408,-0.0075130000000000995,-0.010923999999999899,0.03361,0.0275936554740303,-0.0043807764225056,-1.2246450366205208
76.19047619047619,0.6090021233070552,0.5733294113312398,-15.004228,-0.014381,-0.017741,0.0014809999999999997,0.0192509816494974,-0.0048694686130641,-1.2190950117722263
77.19298245614034,0.609001878437361,0.5733295268720363,-15.027149,0.0004340000000001,-0.0012479999999999002,-0.023168,0.0188495559215387,-0.0013962634015953,-1.2118171284177504
78.19548872180451,0.609001631298739,0.5733296434600303,-15.036668,0.0105769999999999,0.0122709999999999,-0.0211859999999999,0.020612338466053,0.0028972465583105,-1.2025317499043375
79.19799498746866,0.6090013857309132,0.573329760746156,-15.021081,0.004300999999999999,0.013418999999999803,0.0005089999999999019,0.0241902634326414,0.0038397243543875,-1.1934913807113203
80.20050125313283,0.6090011450500092,0.5733298806502757,-14.995352,-0.0006039999999998998,0.0018030000000001968,0.025772,0.0260403124397553,0.0004712388980385,-1.185218013911384
81.203007518797,0.6090009087324286,0.573330003695988,-14.988338,-0.0047290000000000994,-0.018061000000000098,0.024605,0.0257436064669163,-0.0037350045992678,-1.1790400021449297
82.20551378446115,0.6090006715421832,0.5733301283124965,-15.007852,-0.007578999999999901,-0.0143669999999999,-0.009312999999999998,0.0186226631187794,-0.0037524578917877,-1.1727911649174292
83.20802005012531,0.6090004315594111,0.5733302527544722,-15.03336,-0.0006040000000001999,0.0046220000000001,-0.025442,0.0148178453494318,0.0006981317007976,-1.1647281801055294
84.21052631578947,0.6090001886095792,0.5733303766728491,-15.040309,0.005997000000000199,0.0149709999999998,-0.0201449999999999,0.0201236462754946,0.0051836278784231,-1.1550763522623673
85.21303258145363,0.6089999482777413,0.5733305016384236,-15.018667,0.0066900000000000015,0.0169950000000001,0.002330999999999899,0.0253770873239975,0.0057246799465413,-1.144848740298973
86.21553884711778,0.6089997145781544,0.5733306299201235,-14.985775,0.0009749999999998978,-0.0013799999999999993,0.028980000000000002,0.0290073721681457,0.0007504915783576,-1.1360874841599335
87.21804511278195,0.6089994854164237,0.5733307615179492,-14.974047,-0.0007539999999998988,-0.0197560000000001,0.026999000000000002,0.0265813645078736,-0.0050265482457436,-1.1287568569554625
88.22055137844612,0.6089992567782916,0.5733308959083017,-14.992826,-0.004737999999999999,-0.0171749999999998,-0.010181000000000003,0.0183608637309803,-0.0050614548307834,-1.1222464995928434
89.22305764411027,0.6089990237768365,0.5733310311713187,-15.016016,-0.011968000000000001,0.002796,-0.0341089999999999,0.0108210413623648,-0.0002443460952792,-1.1151433062431997
90.22556390977444,0.6089987888555191,0.5733311652126052,-15.013802,-0.0011099999999999,0.0230749999999999,-0.0184630000000001,0.0184655834861,0.0028448866807508,-1.1056134594614602
91.2280701754386,0.6089985563776628,0.5733312989048259,-14.987372,0.0150609999999998,0.0153409999999998,0.018984,0.0281870674197084,0.0007679448708775,-1.0944436315013768
92.23057644110276,0.6089983296593929,0.5733314348659746,-14.965195,0.012195000000000001,-0.010149999999999697,0.030257,0.0307003415425802,-0.0047996554429843,-1.085315367527229
93.23308270676692,0.6089981067808474,0.5733315750159136,-14.968769,-0.0071259999999999,-0.0185150000000002,0.0081149999999999,0.0226020138133265,-0.0075398223686153,-1.0787533484187508
94.23558897243107,0.6089978832041704,0.5733317174347805,-14.990874,-0.0128290000000001,-0.0071979999999998,-0.0180779999999999,0.0133517687777566,-0.0054279739737022,-1.0721380618615015
95.23809523809524,0.608997657358565,0.5733318610753779,-15.009263,-0.0070049999999999,0.0095259999999999,-0.021385,0.0164235482612666,-0.0010122909661567,-1.0642146161232982
96.2406015037594,0.6089974320365587,0.573332003494245,-15.009269,0.0048839999999999995,0.0130339999999999,-0.005370999999999999,0.0231779724664846,0.0007504915783576,-1.05449355106871
97.24310776942356,0.6089972093325461,0.5733321459131119,-14.995311,0.0107479999999999,0.0018740000000000007,0.010074000000000099,0.0276460153515901,-0.0004886921905582,-1.0442829909721072
98.24561403508773,0.6089969916899883,0.5733322909499727,-14.978266,0.007195,-0.0018099999999999002,0.0104009999999998,0.0268082573106329,-0.0030892327760299,-1.0345965357965865
99.24812030075188,0.6089967761418257,0.5733324400010908,-14.972033,-0.0023059999999998984,-0.0059050000000000005,0.0163630000000001,0.0245567825755602,-0.0054279739737022,-1.027231298713048
100.25062656641605,0.608996560942729,0.5733325918447357,-14.989002,-0.012426000000000001,-0.012782,0.005778999999999999,0.0165282680163862,-0.005532693728822,-1.0212796736038696
101.2531328320802,0.6089963457436322,0.5733327447355782,-15.019783,-0.0094209999999999,-0.0020529999999999004,-0.0244009999999999,0.0112050137978035,-0.0016929693744345,-1.0141583811898829
102.25563909774436,0.6089961287992062,0.5733328967537561,-15.033672,0.0037509999999999002,0.0158259999999998,-0.0296330000000001,0.0203505390782538,0.0028623399732707,-1.0048032244129754
103.25814536340852,0.6089959134255765,0.5733330487719339,-15.014942,0.014299,0.015109000000000102,0.002432,0.0290771853382255,0.0031764992386298,-0.9946459317651436
104.26065162907268,0.6089957031134016,0.5733332032335727,-14.985749,0.003905999999999899,-0.0063390000000001015,0.034906,0.0304385421547811,-0.0013089969389956,-0.98640769844305
105.26315789473684,0.6089954966409511,0.5733333604877383,-14.977015,-0.004978999999999999,-0.0167359999999999,0.0217659999999999,0.0232826922216043,-0.005497787143782,-0.980456073333872
106.265664160401,0.6089952899939677,0.573333519661766,-14.993938,-0.0065329999999998,-0.0071529999999999,-0.011991000000000002,0.0168424272817452,-0.005166174585903,-0.9742253351707152
107.26817042606515,0.6089950826488525,0.5733336802320573,-15.016809,-0.0071710000000002,0.0044499999999999,-0.0222229999999999,0.0151669111998307,-0.0019373154697135,-0.9673661039439144
108.27067669172932,0.6089948735584082,0.5733338399296839,-15.025616,0.0005440000000000695,0.009213,-0.0144809999999999,0.0202283660306142,0.0012217304763961,-0.9589537042157652
109.27318295739347,0.6089946660387601,0.5733339992782446,-15.015772,0.00907900000000003,0.006975999999999901,0.0056019999999999005,0.0249756615960388,0.0019024088846739,-0.949389230101666
110.27568922305764,0.6089944613116388,0.5733341605466675,-14.999328,0.007622999999999902,0.002690999999999999,0.0149979999999999,0.0264766447527539,0.0004188790204786,-0.9400340733247576
111.2781954887218,0.6089942605987749,0.5733343244330842,-14.991514,-0.003499999999999802,-0.0056689999999999,0.013083000000000101,0.0245916891606001,-0.0022689280275924,-0.9324770943695952
112.28070175438596,0.6089940612821743,0.5733344904138962,-14.999507,-0.0080580000000001,-0.01081,-7.300000000010076e-05,0.0202632726156541,-0.0031764992386296,-0.925897482342258
113.28320802005013,0.6089938621401065,0.5733346570928396,-15.015801,-0.004764,-0.0049849999999999,-0.0126679999999999,0.015690509975429,-0.0011519173063161,-0.918566872591078
114.28571428571428,0.6089936624744402,0.5733348223755198,-15.025059,0.0023469999999998,0.00832,-0.014659,0.0188146493364988,0.0020071286397935,-0.909177088481812
115.28822055137844,0.6089934640305043,0.5733349890544633,-15.02156,0.0091100000000002,0.009491999999999801,0.0034199999999999994,0.0238062909972026,0.0032463124087094,-0.8989665458385014
116.2907268170426,0.6089932673318975,0.5733351581768679,-15.013735,0.0061639999999999005,-0.0030500000000000006,0.0107399999999999,0.0267384441405531,0.0024783675378319,-0.8892278878650537
117.29323308270676,0.6089930727276859,0.5733353302663321,-15.008805,-0.0046009999999999,-0.0048919999999999,0.0020490000000001002,0.0269653369433123,0.0014311699866353,-0.8803265341469574
118.29573934837092,0.6089928791706718,0.5733355049737903,-15.004763,-0.004467999999999899,-0.0014430000000001005,-0.0029850000000000002,0.0246615023306798,0.0008203047484374,-0.8718619490741722
119.29824561403508,0.6089926863117896,0.5733356821247094,-15.002924,0.0047959999999998,-0.0020759999999998995,0.005109000000000001,0.0278380015693095,0.0001570796326795,-0.8630303736195714
120.30075187969923,0.6089924941510388,0.5733358611954906,-15.008067,0.001311999999999999,-0.0062900000000001,0.0031529999999999996,0.0265115513377938,-0.0002268928027591,-0.8541817637514699
121.3032581453634,0.6089922995468273,0.5733360413134694,-15.018292,-0.0042669999999998005,-0.004223999999999799,-0.007843,0.0210661240715715,0.0012915436464757,-0.8449315361691918
122.30576441102755,0.608992104069951,0.5733362231767776,-15.02147,0.0008679999999998012,0.007561,-0.01481,0.0222878545479675,0.0034208453339088,-0.8339880774130928
123.30827067669172,0.6089919098148053,0.5733364074835465,-15.007544,0.009543999999999999,0.020138999999999803,-0.0009949999999999005,0.0300894763043822,0.0039618974020272,-0.8215441765523457
124.31077694235589,0.6089917202720485,0.573336594931908,-14.987328,0.004078000000000102,0.006484000000000097,0.0218599999999998,0.032602750427254,0.0010297442586766,-0.8106880715253084
125.31328320802004,0.6089915347435491,0.5733367860454612,-14.986347,-0.013883000000000102,-0.0233210000000001,0.0179980000000001,0.0272096830385916,-0.0019024088846737,-0.8036717083059515
126.3157894736842,0.6089913495641155,0.5733369792534094,-15.00583,-0.011572999999999799,-0.0207959999999997,-0.014298,0.0214326432144903,-0.0005061454830783,-0.7960444100352259
127.31829573934836,0.6089911617666879,0.5733371728104235,-15.021067,0.0102249999999999,0.0087149999999998,-0.024398,0.0231779724664846,0.0028972465583105,-0.7852064215258239
128.32080200501252,0.6089909701295361,0.5733373677637009,-15.016652,0.017287,0.021220999999999803,-0.006711,0.0317649923862968,0.0049043751981041,-0.7722906185419226
129.32330827067668,0.6089907800631805,0.5733375658585711,-14.995864,-0.0015170000000001987,0.008577000000000301,0.010152999999999999,0.0312239403181785,0.003996803987067,-0.7607021384541643
130.32581453634086,0.6089905966290761,0.573337768840363,-14.971777,-0.011757999999999701,-0.0021710000000002005,0.014975,0.028291787174828,0.000593411945678,-0.7511376643400651
131.328320802005,0.608990417558295,0.5733379751382807,-14.961745,-0.005318000000000201,-0.0102349999999999,0.018904999999999998,0.0308574211752597,-0.0041015237421866,-0.7430736148773199
132.33082706766916,0.6089902384875137,0.57333818213433,-14.977688,0.000869,-0.019056,0.0008959999999999003,0.0266686309704733,-0.0055152404363019,-0.7351847964714768
133.33333333333331,0.6089900564496726,0.5733383900030439,-15.004853,0.002342000000000101,-0.0066199999999999,-0.0297529999999998,0.0220784150377282,-0.0017278759594743,-0.7256032704905853
134.3358395989975,0.6089898705721073,0.573338599617087,-15.009158,0.0038159999999997987,0.0241849999999998,-0.0276350000000001,0.0267384441405531,0.0025830872929517,-0.7132291653466256
135.33834586466165,0.6089896876616018,0.5733388127217887,-14.983886,0.0058000000000003014,0.0241510000000001,0.015361,0.0337197611485304,0.0016755160819146,-0.7005056452864171
136.3408521303258,0.6089895106852156,0.5733390286190172,-14.957371,0.0010889999999996978,-0.0060670000000001,0.032271,0.0353603706454051,-0.003996803987067,-0.6905922973081363
137.34335839598998,0.6089893387702842,0.5733392490541017,-14.955158,-0.007128999999999799,-0.0237469999999999,0.012902,0.0278205482767896,-0.0078714349264943,-0.6832616701036651
138.34586466165413,0.6089891652845566,0.5733394712345153,-14.972089,-0.009651,-0.01579,-0.020024,0.0212930168743308,-0.0069289571304174,-0.6755299836903784
139.34837092731829,0.6089889883081704,0.573339694113061,-14.985026,0.0020949999999999008,0.0103990000000001,-0.020026000000000002,0.0240157305074419,-0.0041189770347065,-0.6642898538680246
140.35087719298244,0.6089888116808501,0.5733399176897381,-14.98081,0.0108140000000001,0.0210229999999998,-0.00234,0.032934362985133,-0.0035779249665883,-0.6512866971550616
141.35338345864662,0.6089886380205896,0.5733401447570737,-14.968219,0.007998999999999899,0.0068960000000001,0.0163679999999999,0.0366693675844008,-0.0059515727493006,-0.6393488196043448
142.35588972431077,0.6089884692472509,0.5733403765367984,-14.964379,-0.0032009999999997978,-0.0128110000000001,0.0112340000000001,0.031677725923697,-0.0083077672394928,-0.6301161674876358
143.35839598997492,0.6089883039645707,0.5733406112835828,-14.970553,-0.0116860000000003,-0.009679,-0.008886999999999999,0.0232128790515245,-0.0085870199198121,-0.6212153548216063
144.36090225563908,0.6089881381582917,0.5733408481247624,-14.97267,-0.004453999999999801,0.008438000000000001,-0.011894,0.0277856416917497,-0.0078016217564145,-0.6111272993852028
145.36340852130326,0.608987974271875,0.5733410858386064,-14.968985,0.003339000000000001,0.004465,0.008667999999999999,0.0348891317473666,-0.0091106186954104,-0.6015100814211084
146.3659147869674,0.60898781108359,0.5733413245996481,-14.970226,0.004958999999999998,-0.0099709999999999,0.007732,0.0328820031075731,-0.0109257611174844,-0.592643896087439
147.36842105263156,0.608987647546239,0.5733415670258812,-14.978267,0.0048049999999999,-0.004118,-0.004868000000000001,0.0312763001957383,-0.0106290551446455,-0.5834288194362963
148.37092731829574,0.6089874852306186,0.5733418134663716,-14.985414,0.0032239999999999006,0.008075,-0.007082999999999999,0.0299498499642226,-0.0089011791851709,-0.5732188003917627
149.3734335839599,0.6089873257075249,0.5733420630484546,-14.986984,-0.005184999999999797,0.008046,-8.200000000000048e-05,0.0302116493520218,-0.0077318085863349,-0.5621357851086739
150.37593984962405,0.6089871688024252,0.5733423155975974,-14.986049,-0.010257000000000101,-0.0009430000000001,0.00336,0.028623399732707,-0.0074700091985355,-0.5515763511478905
151.3784461152882,0.608987015387984,0.5733425677976742,-14.984792,-0.0051279999999998,-0.008541,-0.00045699999999999994,0.0306654349575403,-0.0081506876068133,-0.5417327639798127
152.38095238095238,0.6089868630207402,0.5733428212194817,-14.982648,0.010709999999999699,-0.004483,-0.0005169999999999001,0.0343131730942085,-0.0095644043009288,-0.531784265070397
153.38345864661653,0.6089867106534966,0.5733430776083488,-14.979049,0.012134000000000299,0.0096190000000001,0.000711,0.0365297412442413,-0.0099134701513277,-0.5204573051177566
154.38596491228068,0.6089865614278455,0.5733433385350719,-14.977543,0.00016399999999990034,0.007725000000000098,0.0078069999999998,0.0371929663599991,-0.0104894288044858,-0.5091825479630441
155.3884711779449,0.608986415867386,0.5733436041741842,-14.986029,-0.0095190000000001,-0.008341000000000199,0.002911000000000101,0.0344004395568082,-0.011030480872604,-0.4994779937231792
156.39097744360902,0.6089862713541239,0.5733438713840927,-14.997758,-0.008327,-0.010199,-0.015600000000000001,0.0309446876378594,-0.009808750396208,-0.4904200490645938
157.39348370927317,0.6089861280625923,0.5733441394666657,-14.993622,-0.002137,0.008559,-0.014042,0.0320442450666159,-0.0091629785729701,-0.4795117412396294
158.39598997493732,0.6089859859927911,0.5733444087709693,-14.977961,0.006553,0.008795000000000098,0.021389000000000002,0.0406487182789479,-0.0115715329407224,-0.4676958272970427
159.3984962406015,0.6089858460173851,0.5733446796460692,-14.975309,0.007889000000000099,-0.009538000000000098,0.018969,0.0398633201155504,-0.0151145513222707,-0.4569798023957709
160.40100250626566,0.6089857081363742,0.5733449548844923,-14.989271,0.005511000000000002,-0.0018039999999999003,-0.012485000000000001,0.0302116493520218,-0.0144164196214731,-0.4450413837929859
161.4035087719298,0.6089855735714889,0.5733452344862384,-14.999561,-0.003395000000000002,0.015137999999999898,-0.019406,0.0349589449174464,-0.0113271868454432,-0.4324398447941997
162.406015037594,0.6089854414500645,0.5733455161823796,-15.000251,-0.012150000000000098,0.0032210000000001023,0.006461000000000001,0.042167154728183,-0.0103672557568461,-0.4208508236543722
163.40852130325814,0.6089853136919633,0.5733457997983832,-15.00303,-0.0055099999999999,-0.014077000000000001,0.011996,0.0398633201155504,-0.011362093430483,-0.4099430568814759
164.4110275689223,0.6089851875046584,0.5733460830653208,-15.013268,0.007465000000000001,-0.008057,-0.0012430000000000002,0.0369311669722,-0.0117111592808818,-0.3986858751923299
165.41353383458645,0.6089850618409522,0.573346369299318,-15.023986,0.0106459999999999,0.005639999999999999,-0.010865,0.0354476371080048,-0.0095818575934487,-0.3862760780651666
166.41604010025063,0.6089849380971082,0.5733466598966385,-15.026208,-0.0005729999999999,0.008480999999999902,-0.0057020000000000005,0.038467056713955,-0.0079412480965741,-0.3729069956212305
167.41854636591478,0.6089848181929886,0.5733469539846175,-15.019008,-0.007749000000000001,0.006203000000000097,0.0034720000000001,0.0399680398706701,-0.007993607974134,-0.3599043799603356
168.42105263157893,0.6089847036993897,0.5733472494688598,-15.010243,-0.0036800000000001,-0.0005660000000000977,0.0121199999999999,0.0403869188911487,-0.009529497715889,-0.3469891180285024
169.4235588972431,0.6089845923473834,0.5733475472220302,-15.01072,0.003934999999999999,-0.005657999999999899,0.007805000000000001,0.0427431133813411,-0.011362093430483,-0.3348589575540954
170.42606516290726,0.6089844841369697,0.5733478474186616,-15.021752,0.0019530000000001005,-0.006309000000000101,-0.005753000000000001,0.0429874594766203,-0.0106116018521253,-0.3240726133372596
171.42857142857142,0.6089843781954842,0.5733481516295502,-15.034518,0.000892999999999998,0.0009070000000000987,-0.008792,0.0386590429316743,-0.0084473935796525,-0.3118902500649245
172.43107769423557,0.6089842753955913,0.573348457934834,-15.041904,-0.002031999999999999,0.0028010000000000014,-0.00638,0.0385194165915148,-0.0075223690760954,-0.2993068101304808
173.43358395989975,0.608984173468363,0.5733487654618481,-15.037687,-0.004069000000000099,0.004780999999999898,-0.004736000000000001,0.0425511271636217,-0.0072605696882963,-0.2863563972675129
174.4360902255639,0.6089840771261882,0.5733490747341916,-15.02426,0.0010629999999999997,0.010102,0.010774,0.0455705467695719,-0.0078539816339744,-0.2735279480126735
175.43859649122803,0.6089839858454684,0.5733493862754631,-15.018703,0.005325,-0.007140999999999897,0.017307,0.0452912940892528,-0.0107337748997651,-0.2622878181903198
176.44110275689223,0.6089838985790057,0.5733497021800577,-15.03051,0.0016229999999999994,-0.015948,-0.0022439999999999995,0.0367740873395205,-0.0107861347773248,-0.2514322367620585
177.4436090225564,0.6089838123597408,0.5733500207026462,-15.042302,-0.0098000000000001,0.0029760000000000003,-0.024502,0.0360235957611629,-0.0074351026134957,-0.2391625197606608
178.44611528822054,0.6089837280603378,0.5733503395743005,-15.040102,-0.0077739999999995,0.014704999999999899,0.0011909999999999994,0.0396538806053111,-0.0062482787221396,-0.2256016954451001
179.4486215538847,0.6089836463789288,0.5733506591440866,-15.03291,0.0027739999999997,0.004806000000000102,0.011819,0.0429001930140206,-0.0075049157835755,-0.2123370360503112
180.45112781954887,0.6089835709807052,0.5733509792374714,-15.029963,0.0033299999999996006,-0.005223000000000002,0.0021669999999999997,0.0425511271636217,-0.0079063415115343,-0.2010622788955969
181.45363408521305,0.6089835018656669,0.5733513002035208,-15.028853,-0.0023279999999995006,-0.003620000000000099,-0.0031430000000000997,0.0390953752446729,-0.0079412480965741,-0.1901534300185645
182.4561403508772,0.6089834369394186,0.5733516227403666,-15.028751,-0.005965999999999846,-0.0011669999999999008,0.0028620000000000997,0.0375769387954379,-0.0080983277292536,-0.1784600207361759
183.45864661654133,0.6089833751547631,0.5733519449281465,-15.034723,0.0013519999999993468,-0.0025520000000000993,0.004558,0.0377689250131573,-0.0087440995524914,-0.1664869748010311
184.4611528822055,0.6089833138937063,0.5733522671159264,-15.045089,0.0031370000000006002,-0.0014329999999998996,-0.008857,0.0315555528760574,-0.0071383966406568,-0.1536239156671259
185.4636591478697,0.6089832566469068,0.5733525886055747,-15.046924,-0.0025040000000001003,0.009559999999999898,-0.012611999999999901,0.038763762686794,-0.0038571776469074,-0.1396439156251141
186.46616541353384,0.6089832037634306,0.5733529113169533,-15.039233,-0.00025900000000020004,0.0074,0.012184,0.0390081087820732,-0.0038571776469074,-0.1259430111837887
187.468671679198,0.6089831559414091,0.5733532347264638,-15.037029,0.0024679999999999004,-0.0088089999999999,0.011027999999999899,0.0391302818297128,-0.0051836278784231,-0.1137606479114537
188.4711779448621,0.6089831130063094,0.5733535591831717,-15.044247,0.0020710000000003998,-0.006780999999999999,-0.002522999999999999,0.0354650904005247,-0.004886921905584,-0.1018398047742368
189.4736842105263,0.6089830746090659,0.5733538841634783,-15.050387,-0.0030220000000006,0.0010539999999999994,-0.012588,0.0370707933123595,-0.0032114058236694,-0.0899892809525824
190.47619047619045,0.6089830388298163,0.573354209492851,-15.04987,-0.0039649999999993996,0.0042089999999999,-0.0007130000000000001,0.0348716784548467,-0.0017453292519942,-0.0767246041045013
191.47869674185463,0.6089830072393568,0.5733545349967565,-15.045085,-0.0021900000000001,0.0029530000000001014,0.0020380000000000007,0.0395666141427114,-0.001169370598836,-0.06333796364829
192.4812030075188,0.6089829812339509,0.5733548587553327,-15.038873,-0.0005130000000003001,0.006349999999999998,0.005976999999999899,0.0412944901021858,-0.0013788101090754,-0.0495321300123337
193.4837092731829,0.608982959766401,0.5733551814667114,-15.035889,0.006537000000000201,-0.0020550000000000984,0.0050700000000001005,0.041835542170304,-0.0021991148575128,-0.037367883257634
194.48621553884712,0.6089829423131086,0.5733555064470182,-15.040154,0.0065379999999999,-0.0131819999999999,-0.001535,0.0401774793809094,-0.002426007660272,-0.0264419999671024
195.48872180451127,0.6089829285250075,0.5733558324745224,-15.046177,-0.0012269999999996,-0.004932000000000101,-0.0077379999999998995,0.0338593874886899,-0.0008203047484371,-0.0157600613461215
196.49122807017545,0.6089829170058344,0.5733561611200205,-15.044589,-0.0103810000000006,0.007155000000000102,-0.0095860000000001,0.0342084533390888,0.0016057029118348,-0.0032288242096048
197.4937343358396,0.6089829091518528,0.5733564887183212,-15.032382,-0.0091269999999994,0.013940999999999995,0.004841,0.0434586983746588,0.0016057029118348,0.0109257611174845
198.49624060150376,0.6089829077555894,0.5733568138731608,-15.019413,0.002345999999999699,0.0036600000000000035,0.014651,0.0438950306876573,-0.0008726646259971,0.0237888377046827
199.4987468671679,0.6089829136897088,0.5733571369336053,-15.017591,0.0112779999999998,-0.011092000000000001,0.006933000000000001,0.0439124839801773,-0.0032986722862691,0.033545228223331
200.5012531328321,0.6089829229399539,0.5733574608667145,-15.028931,0.006732000000000399,-0.012327000000000098,-0.0067040000000001005,0.041852995462824,-0.0021118483949131,0.0419402619254237
201.50375939849624,0.6089829344591269,0.573357786719686,-15.040485,-0.0042920000000004,-0.0021080000000000005,-0.0144889999999998,0.0361108622237626,0.0013089969389958,0.0515221195188726
202.5062656641604,0.6089829468509647,0.573358113096256,-15.040061,-0.0096289999999998,0.006245000000000099,-0.006402000000000001,0.038763762686794,0.0032288591161895,0.0629365728269155
203.5087719298245,0.608982962384395,0.5733584387746944,-15.02864,-0.003006,0.006741999999999901,0.006209,0.0440346570278169,0.0025132741228719,0.0755378500263145
204.5112781954887,0.6089829835028789,0.5733587637550012,-15.013121,0.0036159999999999994,0.006151000000000101,0.0049679999999999,0.0476125819944053,0.0005061454830783,0.0882263936883133
205.51378446115288,0.6089830103809495,0.5733590864663798,-14.999191,0.0016440000000002,0.0043269999999999,0.006161,0.0446804288510548,-0.0016929693744345,0.0990823416357181
206.51629072681703,0.608983044065804,0.5733594097013573,-14.994641,0.0032419999999997,-0.006184999999999902,0.010954,0.0424289541159821,-0.0034732052114685,0.1075820950929304
207.5187969924812,0.6089830822885146,0.5733597336344665,-15.006341,0.0023759999999999,-0.015198,0.001144000000000001,0.0393222680474322,-0.0034208453339088,0.1151742773391058
208.5213032581453,0.6089831219074886,0.5733600582657074,-15.030168,-0.0025239999999997,-0.015695,-0.011022,0.0368962603871601,3.4906585040017646e-05,0.1235693110411985
209.52380952380952,0.6089831597811334,0.5733603823733494,-15.043366,-0.005589,0.004328999999999901,-0.029978,0.036006142468643,0.003996803987067,0.135123390689401
210.52631578947367,0.6089831981783769,0.5733607045611293,-15.026085,-0.003482,0.031271,-0.0067989999999999995,0.044924774946334,0.0040491638646269,0.1488067720250365
211.52882205513785,0.6089832433824045,0.5733610258762446,-14.987557,0.0038359999999997,0.020748999999999997,0.025666,0.0494102711239594,8.726646259971105e-05,0.1611811564216763
212.531328320802,0.6089832992329406,0.5733613473658928,-14.963166,0.0060540000000002,-0.016228999999999896,0.038118,0.0415213829049451,-0.0046774823953448,0.1698903319358354
213.53383458646616,0.6089833615411948,0.5733616690300739,-14.977274,0.0008159999999998999,-0.03633200000000002,0.0027239999999999973,0.0306654349575403,-0.0058293997016609,0.1772381855400241
214.5363408521303,0.6089834233258504,0.5733619915669197,-15.012767,-0.0057309999999998005,-0.011598999999999885,-0.031895,0.0267384441405531,-0.0019547687622336,0.1868724030110328
215.5388471177945,0.6089834812707815,0.5733623134056338,-15.031739,-0.0054500000000002,0.018524999999999903,-0.033584,0.0375594855029179,0.0030019663134304,0.2001543586187096
216.54135338345864,0.6089835407865091,0.5733626333244857,-15.013106,0.0002510000000004002,0.028016999999999903,-0.002859999999999998,0.04616395871525,0.003665191429188,0.2149896572606615
217.5438596491228,0.6089836069344878,0.5733629514980084,-14.976164,0.005824999999999801,0.008923999999999994,0.034262,0.048607419668042,-0.0007679448708775,0.2288301182289766
218.5463659147869,0.608983683379909,0.5733632700205968,-14.956882,0.0051329999999997,-0.013386999999999899,0.026985,0.0431619924018197,-0.0050963614158234,0.2403667271313665
219.5488721804512,0.6089837654103838,0.5733635895903829,-14.966518,-0.0021209999999998,-0.0181380000000001,-0.004275000000000001,0.0321489648217355,-0.0062133721370998,0.2519208242328615
220.55137844611528,0.6089838505824513,0.5733639077639056,-14.987537,-0.008285999999999901,-0.0016249999999999008,-0.025832999999999898,0.034452799434368,-0.0031590459461097,0.2650980600854187
221.55388471177943,0.6089839352309201,0.5733642247156977,-14.99635,-0.004524,0.007453999999999999,-0.0156780000000001,0.0417133691226644,-0.0009075712110369,0.2781880120220837
222.5563909774436,0.6089840228464485,0.5733645395730947,-14.986382,0.0023139999999997,0.010256999999999902,0.0021720000000000003,0.0438601241026174,-0.0013089969389956,0.2914001544596808
223.55889724310777,0.6089841167451622,0.5733648530342285,-14.969103,0.0068310000000003,0.0033630000000000985,0.0194269999999999,0.0441219234904166,-0.0044680428851053,0.3037745737629056
224.56140350877192,0.60898421745066,0.5733651664953621,-14.96214,0.004174,-0.009090000000000098,0.011053000000000101,0.0416086493675448,-0.0069987703004972,0.3147526773046574
225.56390977443607,0.6089843219958824,0.5733654813527591,-14.968239,-0.0009880000000001,-0.0101699999999999,-0.006137,0.036302848441482,-0.0074874624910556,0.325922784517421
226.56641604010025,0.6089844279373678,0.5733657953374915,-14.97747,-0.0060259999999999,0.001148999999999999,-0.010311,0.0345226126044478,-0.0062308254296197,0.3375466773357033
227.5689223057644,0.6089845361477816,0.5733661075768948,-14.981995,-0.006035000000000201,0.005657999999999899,-0.003296,0.038152897448596,-0.0053232542185825,0.3501479545351023
228.57142857142856,0.6089846476743207,0.5733664178964357,-14.982062,-0.0008969999999996984,0.006349000000000101,0.003014,0.0398807734080704,-0.0055850536063817,0.3637266161156183
229.5739348370927,0.608984763738716,0.5733667262961145,-14.981018,0.005477999999999799,0.0014260000000000002,0.0007949999999999997,0.0431270858167798,-0.0062308254296197,0.3770609316008548
230.5764411027569,0.6089848852136319,0.5733670334740629,-14.979051,0.00758700000000001,-0.005260000000000101,-0.0007619999999998999,0.0422718744833026,-0.0068416906678177,0.3884230075780456
231.57894736842104,0.6089850119245356,0.5733673397793466,-14.976177,0.0014129999999997896,-0.0042849999999999,0.0032649999999999,0.039374627924992,-0.0075572756611352,0.3990520801759836
232.5814536340852,0.6089851428242296,0.5733676474808939,-14.975706,-0.0046509999999998,-0.002659000000000099,0.0023710000000000003,0.0371231531899193,-0.0079237948040542,0.4105538173999187
233.58395989974937,0.6089852752947198,0.5733679539607104,-14.981574,-0.0079819999999999,0.0024900000000000998,0.002918,0.0373500459926786,-0.0078714349264943,0.4235041255431314
234.58646616541355,0.6089854091614734,0.5733682581715991,-14.992401,-0.0034159999999999,-0.0006390000000001013,-0.0031520000000000003,0.0378038315981971,-0.0074176493209758,0.4371526352003123
235.58897243107768,0.6089855479151489,0.5733685604626254,-14.999515,0.0021099999999997995,0.0016050000000001029,-0.011813,0.0419402619254237,-0.0063355451847393,0.4506091237331885
236.59147869674183,0.6089856889377525,0.5733688606592569,-14.996829,0.0051340000000000005,0.004925999999999899,-0.0010889999999999997,0.0428827397215006,-0.0062308254296197,0.463402352243722
237.593984962406,0.6089858357199426,0.5733691612049541,-14.989085,0.0046700000000002,0.006599999999999998,0.007618999999999999,0.045553093477052,-0.0063879050622992,0.4766144946813189
238.59649122807016,0.6089859882617192,0.5733694601798549,-14.982029,-0.0008870000000001004,-0.0012039999999998996,0.0063,0.0398633201155504,-0.0068940505453776,0.4887096263976396
239.59899749373432,0.6089861460394836,0.573369758631157,-14.980223,-0.005823000000000099,-0.009596,0.0019470000000000008,0.038467056713955,-0.0077318085863347,0.5008222637663579
240.6015037593985,0.608986308006038,0.573370054813531,-14.987545,-0.0038930000000000006,-0.005989999999999999,0.0031459999999999995,0.0410152374218667,-0.0081506876068133,0.5129697379069458
241.60401002506265,0.6089864708452574,0.5733703497741747,-15.003397,0.0035499999999999993,-0.0053090000000002,-0.0033730000000001,0.0394095345100319,-0.0071907565182165,0.5255012019362651
242.6065162907268,0.6089866336844765,0.5733706422913573,-15.018291,0.003193000000000201,0.0013600000000002005,-0.0133369999999998,0.0415737427825049,-0.0051487212933831,0.5387307976663821
243.60902255639093,0.6089867989671567,0.5733709346340069,-15.018814,-0.0038510000000003004,0.012523999999999999,-0.0111080000000001,0.0466351976132884,-0.0035430183815483,0.5530424800794431
244.6115288220552,0.6089869693112917,0.5733712245331958,-15.001377,-0.0040389999999999,0.016252000000000003,0.0054480000000000015,0.0477871149196047,-0.0045902159327451,0.5671796121140122
245.6140350877193,0.6089871482075401,0.5733715121634565,-14.979529,0.0036280000000002005,0.002483999999999896,0.017567,0.0461290521302101,-0.0078365283414545,0.5798681732293034
246.61654135338344,0.6089873354813687,0.5733717989210526,-14.97132,0.0041089999999997,-0.015548000000000096,0.014637999999999901,0.0424987672860619,-0.0096691240560484,0.5903925260721218
247.6190476190476,0.6089875253731913,0.5733720846314511,-14.984848,0.0012110000000003004,-0.0224579999999997,0.0005260000000000993,0.0406836248639878,-0.0091280719879303,0.5998871521095559
248.62155388471177,0.6089877145668823,0.5733723689455862,-15.012383,-0.0034760000000003,-0.011377000000000099,-0.0128370000000001,0.0393571746324721,-0.0067195176201781,0.6105684973185914
249.62406015037595,0.6089879016661781,0.5733726518634581,-15.034804,-0.0031949999999998004,0.013232,-0.0216939999999998,0.0428827397215006,-0.0040491638646267,0.6239726434272002
250.62656641604008,0.6089880889400068,0.5733729328614675,-15.034924,-0.0028259999999999987,0.0270509999999999,-0.012727,0.0503003890424765,-0.0018849555921538,0.63866836808887
251.62907268170423,0.6089882838932843,0.5733732115905491,-15.010725,-0.001547000000000201,0.014239000000000196,0.0122419999999999,0.0511032404983939,-0.0026354471705114,0.6521073509693489
252.6315789473684,0.6089884896676031,0.573373487003505,-14.983134,0.0039270000000003,-0.0124250000000002,0.024121999999999998,0.0480663675999238,-0.0058992128717407,0.6631378318419531
253.63408521303256,0.6089887013760414,0.5733737606711318,-14.974721,0.0093199999999997,-0.023379999999999897,0.013943,0.0413119433947057,-0.0094073246682493,0.6723532401056531
254.63659147869672,0.6089889132590125,0.5733740345132914,-14.986776,0.0010500000000002,-0.0087910000000002,-0.009809,0.0334056018831714,-0.0089186324776908,0.6824063365971406
255.6390977443609,0.6089891242693192,0.5733743071337206,-15.001361,-0.0076330000000002,0.007286000000000299,-0.019204,0.0359712358836031,-0.006457718232379,0.6940999378657472
256.64160401002505,0.6089893358032245,0.5733745787069522,-15.007211,-0.0084359999999996,0.009301999999999701,-0.0036959999999999,0.0437204977624579,-0.0047298422729045,0.7060555305083711
257.64411027568923,0.6089895508277884,0.5733748473131242,-15.006863,-0.0033910000000004006,0.006455000000000301,0.0094159999999999,0.0478394747971645,-0.0051487212933831,0.7189709320665442
258.6466165413533,0.6089897724846033,0.5733751119050386,-15.008063,0.006626000000000201,-5.900000000020125e-05,0.0046979999999999,0.0480838208924437,-0.0062308254296197,0.7308042993016506
259.64912280701753,0.6089899985047414,0.5733753744025581,-15.010272,0.006553999999999999,-0.0053779999999999,-0.0070859999999999,0.0463210383479294,-0.00609119908946,0.7424281921199329
260.6516290726817,0.608990228190071,0.5733756360274131,-15.008078,0.002878999999999801,-0.0026570000000001003,-0.0036430000000000004,0.0459196126199707,-0.0053930673886624,0.7534062782083922
261.65413533834584,0.6089904606679274,0.5733758966050704,-15.000045,-0.0016739999999999004,0.0005600000000001021,0.0021290000000000007,0.0435808714222984,-0.0056199601914217,0.7639131777586907
262.65664160401,0.608990697334574,0.5733761554373985,-14.989863,-0.0098789999999998,0.004445999999999898,0.005711,0.0448549617762542,-0.0063879050622992,0.7746992427228455
263.65914786967414,0.6089909369682802,0.5733764107790681,-14.985373,-0.006282000000000301,0.0002110000000002006,0.009266,0.0466526509058084,-0.0078016217564145,0.7859217447197542
264.6616541353383,0.6089911800926451,0.5733766635027437,-14.993467,0.006453000000000302,-0.006492000000000201,0.0014969999999998995,0.0441044701978967,-0.0081855941918533,0.7953639759730432
265.6641604010025,0.6089914253114049,0.5733769144810902,-15.009849,0.009745999999999798,-0.008088999999999999,-0.0092339999999999,0.0436506845923781,-0.0068242373752978,0.8043175324890669
266.66666666666663,0.6089916712282966,0.5733771621433109,-15.02198,0.0007690000000002001,0.003452,-0.013226,0.0447851486061745,-0.0045378560551851,0.813829611819021
267.6691729323308,0.6089919209849126,0.5733774105036636,-15.020985,-0.0069700000000003995,0.01078,-0.003514999999999999,0.0464955712731289,-0.003351032163829,0.8245807876514285
268.671679197995,0.6089921749303187,0.5733776564205553,-15.009396,-0.0027599999999996013,0.003113000000000001,0.008208,0.0456927198172115,-0.0040142572795869,0.8345989950111686
269.6741854636591,0.6089924316682517,0.5733778998939858,-14.997947,0.0019309999999999015,-0.0066479999999998,0.010472,0.0451167611640534,-0.005532693728822,0.8439714654542555
270.6766917293233,0.6089926913732444,0.5733781407494226,-14.995,0.006102999999999699,-0.007561000000000102,0.005333999999999999,0.0436157780073383,-0.0072605696882963,0.8528726097328415
271.6791979949875,0.608992953696231,0.5733783803831289,-15.001166,0.0008700000000004008,-0.0010220000000000992,-0.0037129999999999993,0.0404392787687086,-0.0068416906678177,0.8617563181722002
272.6817042606516,0.6089932168918821,0.5733786182715059,-15.00993,-0.006836000000000301,0.0036159999999999994,-0.006456000000000001,0.0383448836663154,-0.004921828490624,0.8720362551065693
273.6842105263158,0.6089934814837967,0.5733788542400208,-15.016831,-0.004493999999999698,0.002269000000000101,-0.0022619999999999993,0.0415213829049451,-0.0029321531433503,0.8835031555586347
274.68671679198,0.6089937493918369,0.5733790879396077,-15.020163,0.00012399999999969727,0.0012749999999998995,-0.002805,0.0469668101711674,-0.0022689280275924,0.8953189996880511
275.6892230576441,0.6089940206160027,0.5733793172758714,-15.019273,0.004168000000000201,-0.00045399999999989893,0.002647,0.0473158760215662,-0.0029670597283903,0.9063844395055728
276.69172932330827,0.6089942942836294,0.5733795441686741,-15.015765,0.0010709999999997995,0.0010999999999998997,0.0005660000000000001,0.0458672527424109,-0.0036826447217079,0.9175544769051664
277.6942355889724,0.6089945723145793,0.5733797698397465,-15.013253,-0.00012799999999959892,0.0011329999999999986,0.004539,0.0460243323750904,-0.0034208453339088,0.9290910858075564
278.69674185463657,0.6089948538361876,0.5733799937654894,-15.01213,-0.0007040000000002999,-0.0006209999999997988,-0.003477,0.0447502420211346,-0.0028274333882307,0.9408372214866484
279.69924812030075,0.6089951388484545,0.5733802152477715,-15.007957,-0.0025630000000001,-0.0027330000000002994,-0.005178,0.048310713695203,-0.002460914245312,0.9525832349926928
280.7017543859649,0.6089954252569848,0.573380433762994,-14.996533,-0.0051739999999998,0.0021000000000002007,0.0010730000000000002,0.0493404579538796,-0.0032812189937492,0.963910456744721
281.70426065162906,0.6089957149816405,0.5733806479148932,-14.983796,-0.00025299999999999975,-0.00016100000000000142,0.008483000000000001,0.0458672527424109,-0.0058992128717407,0.9737540962726764
282.70676691729324,0.608996007847889,0.5733808585761337,-14.983299,0.002642999999999899,-0.0013940000000002006,0.015214000000000002,0.0424987672860619,-0.008569566627292,0.9830916077708458
283.70927318295736,0.6089963028085326,0.5733810673175124,-14.99902,0.008470000000000201,-0.004564999999999899,-0.007903,0.0438252175175776,-0.0080983277292536,0.9924814442399904
284.71177944862154,0.6089965995145055,0.5733812748371604,-15.017914,0.007818999999999798,-0.0045409999999999,-0.01598,0.0418879020478639,-0.0060388392119004,1.001941181145677
285.7142857142857,0.6089968977912746,0.5733814809605451,-15.024836,-0.0026599999999998994,0.0028720000000000004,-0.0112439999999999,0.0398109602379906,-0.0029670597283903,1.0139839355311455
286.71679197994985,0.6089971972897742,0.573381686560331,-15.014324,-0.0076450000000001,0.005142999999999899,0.0019729999999999,0.042760566673861,-0.0024783675378319,1.026742344723102
287.719298245614,0.6089974992317349,0.5733818904147876,-14.997148,-0.011149000000000102,0.006247999999999998,0.015183,0.0455181868920121,-0.0032986722862691,1.0397624660363944
288.7218045112781,0.6089978053624857,0.5733820897313882,-14.986468,-0.006649999999999798,0.0017040000000002019,0.008971,0.0474904089467657,-0.005166174585903,1.05266050156851
289.72431077694233,0.6089981151584278,0.5733822831138693,-14.989323,0.004112000000000098,-0.0054660000000002,0.006173999999999999,0.0459545192050106,-0.0071383966406568,1.0639526945624511
290.7268170426065,0.6089984284450286,0.5733824724820931,-15.004601,0.013869999999999801,-0.0079469999999999,-0.006520000000000099,0.0413643032722656,-0.0075921822461753,1.0739359604305658
291.72932330827064,0.6089987433024256,0.5733826594068561,-15.025842,0.006888,4.599999999990029e-05,-0.0087839999999999,0.0380307244009564,-0.0051487212933831,1.084547649549154
292.7318295739348,0.608999059905152,0.5733828468552177,-15.0407,-0.0017649999999999992,-0.0014129999999998007,-0.012829,0.0437554043474978,-0.0009424777960769,1.0965379393373074
293.734335839599,0.6089993763333453,0.5733830325582502,-15.041887,-0.0065720000000000015,-0.0007830000000001993,0.0002299999999999993,0.0435634181297784,0.0010995574287564,1.1093835626319857
294.7368421052631,0.6089996929360717,0.5733832161668874,-15.033253,-0.006078,0.0027400000000001,0.00521,0.0466002910282486,0.0008901179185172,1.122578321590233
295.7393483709273,0.6090000116331932,0.5733833959358003,-15.020886,-0.003151999999999801,0.009603999999999798,0.0049370000000001,0.0493928178314395,-0.000890117918517,1.1359126370754695
296.7418546365915,0.6090003350427035,0.5733835706432585,-15.00931,-0.0007860000000001997,0.0069890000000003005,0.0037329999999998,0.0477871149196047,-0.0026703537555512,1.14884561409921
297.7443609022556,0.609000665084465,0.5733837422091239,-15.000295,0.0031990000000002017,-0.0028330000000003006,0.001584,0.0445058959258554,-0.0035081117965085,1.1608010845687864
298.7468671679198,0.6090009982678192,0.573383909935265,-14.995586,0.0031849999999996985,-0.011162999999999798,0.0009200000000001,0.0453262006742927,-0.0037524578917877,1.171691939101231
299.749373433584,0.6090013318002393,0.5733840745198135,-15.000422,0.0031620000000001005,-0.012247999999999901,0.009947999999999999,0.0454309204294124,-0.0035779249665883,1.1819718760355995
300.7518796992481,0.6090016658562581,0.5733842378826316,-15.020207,0.0028550000000001005,-0.0041320000000001,0.0013510000000000015,0.0456403599396517,-0.0030543261909901,1.193613222146402
301.7543859649123,0.6090019983414806,0.5733843988019885,-15.047295,-0.0012559999999998996,0.0063349999999999,-0.0195869999999999,0.0474904089467657,-6.981317007981325e-05,1.2061447210823062
302.7568922305764,0.6090023320484336,0.5733845583250822,-15.059829,-0.0041350000000003,0.0105200000000001,-0.0190170000000001,0.0476300352869252,0.0028448866807508,1.219025233508732
303.7593984962406,0.6090026687224463,0.5733847145320503,-15.045811,-0.006232999999999801,0.0117019999999999,-0.0022160000000000027,0.0521504380495905,0.003717551306748,1.232499105520958
304.7619047619048,0.6090030108069797,0.5733848663756952,-15.014462,-0.0010190000000000997,0.003491000000000098,0.0185900000000001,0.0511556003759538,0.0014137166941154,1.2454495183839265
305.7644110275689,0.6090033572548362,0.5733850143796156,-14.986433,0.004555,-0.008204999999999997,0.0153449999999998,0.0470017167562073,-0.0014137166941152,1.25742242469273
306.76691729323306,0.6090037064952195,0.5733851590674107,-14.974804,-0.00012799999999989903,-0.013388000000000202,0.012551000000000102,0.0463733982254893,-0.0043109632524258,1.268086386422415
307.76942355889724,0.6090040562592016,0.5733852995664155,-14.981255,-0.00012900000000010126,-0.010507999999999601,-0.006873000000000002,0.0451167611640534,-0.0058293997016609,1.278680569888606
308.77192982456137,0.6090044044523875,0.5733854370983605,-14.999454,0.0010300000000001003,0.0039639999999998,-0.006888999999999999,0.0483805268652828,-0.005532693728822,1.2887161607276956
309.77443609022555,0.6090047512493098,0.5733855732340423,-15.018517,0.006509999999999901,0.0072529999999999,-0.01386,0.0479616478448041,-0.0031590459461097,1.2988042161641002
310.77694235588973,0.6090051001406274,0.5733857071007958,-15.026612,-0.0003030000000000012,0.006278999999999899,-0.008483000000000001,0.0453960138443725,-0.0005061454830783,1.310026648347839
311.77944862155385,0.6090054518244715,0.5733858385240885,-15.018373,-0.0012129999999999,0.0018370000000003002,-0.0006809999999999993,0.0483456202802429,0.0006806784082777,1.3220694725464772
312.78195488721803,0.6090058075225732,0.573385967852986,-14.997981,-0.004124000000000098,0.00047399999999970036,0.009491,0.0434412450821388,-0.0006632251157578,1.3348104284459137
313.7844611528822,0.6090061639188064,0.5733860929930935,-14.978444,-0.006541000000000002,-0.0008739999999998003,0.011643,0.0469144502936075,-0.0026005405854714,1.3468182238864643
314.78696741854634,0.6090065218858359,0.5733862135953447,-14.967748,-0.0021589999999999006,-0.0052199999999997995,0.0051329999999999995,0.0494102711239594,-0.0047123889803846,1.3577265317114289
315.7894736842105,0.609006883518057,0.573386329834273,-14.970797,0.00036799999999989966,-0.0068320000000004,0.0037870000000000004,0.0486946861306418,-0.0059341194567805,1.36809368274852
316.79197994987464,0.6090072460229426,0.5733864413608121,-14.987854,0.005214,-0.0023489999999996,-0.0021139999999999996,0.047088983218807,-0.0063006385996995,1.377867613826151
317.7944862155388,0.6090076076551637,0.5733865507929562,-15.011115,0.009132000000000102,0.0033969999999996997,-0.015277,0.0450120414089337,-0.0041364303272264,1.387938093796988
318.796992481203,0.6090079692873845,0.5733866591779028,-15.022879,0.006258999999999899,0.004934,-0.014565999999999999,0.0454832803069722,-0.0016755160819144,1.3984450631604566
319.7994987468672,0.6090083321413361,0.5733867670392506,-15.013769,-0.005404999999999999,0.004052,-0.0019699999999999995,0.0478918346747244,-0.000593411945678,1.410470294440235
320.8020050125313,0.6090086976132815,0.5733868721080716,-14.9911,-0.014679000000000001,0.0013720000000001006,0.012913000000000098,0.0498815100219979,-0.0019024088846737,1.4228797075949622
321.8045112781955,0.6090090669249512,0.5733869735117011,-14.970997,-0.005867999999999898,-0.002621,0.0153799999999999,0.0500385896546774,-0.0048694686130641,1.4348351606112455
322.8070175438596,0.6090094381564831,0.5733870686321454,-14.965405,0.0015829999999999976,-0.001883000000000301,0.007688999999999901,0.0476474885794451,-0.0080285145591738,1.4454119082382086
323.8095238095238,0.6090098093880151,0.573387157993003,-14.976158,0.0097979999999999,-0.0062939999999995,-0.004082999999999901,0.0442266432455363,-0.0090582588178504,1.4546970249522335
324.812030075188,0.6090101813176786,0.5733872445613339,-14.993905,0.0056380000000000995,-0.0032590000000003,-0.0106420000000001,0.0465479311506887,-0.0076445421237349,1.463982263839306
325.8145363408521,0.6090105528982764,0.5733873281626052,-15.009254,0.0014149999999999007,0.000952,-0.0078219999999998,0.0508763476956347,-0.0047472955654244,1.474157393752093
326.8170426065163,0.6090109244788742,0.5733874112402775,-15.016119,-0.0006939999999999013,0.0056400000000001,-0.0037220000000000994,0.0498989633145178,-0.0029146998508304,1.4845770268397915
327.8195488721804,0.6090112983283998,0.5733874910018243,-15.011481,-0.0071030000000001006,0.0045190000000001,-0.001961000000000001,0.0488866723483611,-0.002460914245312,1.4949443000499305
328.8220551378446,0.6090116754940513,0.5733875674472455,-14.998444,-0.004069999999999997,0.002324999999999699,0.0078170000000001,0.0510334273283141,-0.0033161255787892,1.5050323554863354
329.8245614035088,0.6090120537069001,0.5733876405765411,-14.98873,-0.001863,-0.0042569999999999,0.0129239999999998,0.0506320016003555,-0.0045029494701454,1.514771275259171
330.8270676691729,0.6090124336650783,0.573387708644382,-14.989778,0.005829000000000098,-0.006682999999999799,0.0013560000000001002,0.0472111562664466,-0.0053581608036226,1.5243704988786773
